Timestamp,Lat,Lon,Alt,DistToTarget,XTE,AltError,RollPWM,PitchPWM,ThrottlePWM,YawPWM,Heading,RollDeg,PitchDeg,GroundSpeed
1775523447.86,50.450739,30.453154,0.00,900.25,0.00,5.00,1500,1500,1545,1500,1,0.10,0.08,0.01
1775523447.96,50.450739,30.453154,0.00,900.25,0.00,5.00,1500,1500,1545,1500,1,0.10,0.08,0.01
1775523448.06,50.450739,30.453154,0.00,900.25,0.00,5.00,1500,1500,1545,1500,1,0.10,0.09,0.01
1775523448.16,50.450739,30.453154,0.00,900.25,0.00,5.00,1500,1500,1545,1500,1,0.10,0.09,0.01
1775523448.26,50.450739,30.453154,0.00,900.25,0.00,5.00,1500,1500,1546,1500,1,0.10,0.09,0.01
1775523448.36,50.450739,30.453154,0.00,900.25,0.00,5.00,1500,1500,1546,1500,1,0.10,0.09,0.01
1775523448.46,50.450739,30.453154,0.00,900.25,0.00,5.00,1500,1500,1546,1500,1,0.10,0.09,0.01
1775523448.56,50.450739,30.453154,0.00,900.25,0.00,5.00,1500,1500,1547,1500,1,0.11,0.09,0.01
1775523448.66,50.450739,30.453154,0.00,900.25,0.00,5.00,1500,1500,1547,1500,1,0.11,0.09,0.01
1775523448.76,50.450739,30.453154,0.00,900.25,0.00,5.00,1500,1500,1547,1500,1,0.11,0.09,0.01
1775523448.86,50.450739,30.453154,0.00,900.25,0.00,5.00,1500,1500,1548,1500,1,0.11,0.09,0.01
1775523448.97,50.450739,30.453154,0.00,900.25,0.00,5.00,1500,1500,1548,1500,1,0.11,0.09,0.01
1775523449.07,50.450739,30.453154,0.00,900.25,0.00,5.00,1500,1500,1548,1500,1,0.11,0.10,0.01
1775523449.17,50.450739,30.453154,0.00,900.25,0.00,5.00,1500,1500,1548,1500,1,0.11,0.10,0.01
1775523449.27,50.450739,30.453154,0.00,900.25,0.00,5.00,1500,1500,1549,1500,1,0.11,0.10,0.01
1775523449.37,50.450739,30.453154,0.00,900.25,0.00,5.00,1500,1500,1549,1500,1,0.12,0.10,0.01
1775523449.47,50.450739,30.453154,0.00,900.25,0.00,5.00,1500,1500,1549,1500,1,0.12,0.10,0.01
1775523449.57,50.450739,30.453154,0.00,900.25,0.00,5.00,1500,1500,1550,1500,1,0.12,0.11,0.00
1775523449.67,50.450739,30.453154,0.00,900.25,0.00,5.00,1500,1500,1550,1500,1,0.12,0.11,0.00
1775523449.77,50.450739,30.453154,0.00,900.25,0.00,5.00,1500,1500,1550,1500,1,0.12,0.11,0.00
1775523449.87,50.450739,30.453154,0.03,900.25,0.00,4.97,1500,1500,1547,1500,1,0.12,0.11,0.01
1775523449.97,50.450739,30.453154,0.03,900.25,0.00,4.97,1500,1500,1551,1500,1,0.12,0.11,0.01
1775523450.07,50.450739,30.453154,0.09,900.25,0.00,4.91,1500,1500,1545,1500,1,0.13,0.11,0.00
1775523450.17,50.450739,30.453154,0.09,900.25,0.00,4.91,1500,1500,1551,1500,1,0.13,0.11,0.00
1775523450.27,50.450739,30.453154,0.09,900.25,0.00,4.91,1500,1500,1551,1500,1,0.13,0.11,0.00
1775523450.37,50.450739,30.453154,0.13,900.25,0.00,4.87,1500,1500,1547,1500,1,0.13,0.12,0.01
1775523450.47,50.450739,30.453154,0.13,900.25,0.00,4.87,1500,1500,1552,1500,1,0.13,0.12,0.01
1775523450.57,50.450739,30.453154,0.34,900.25,0.00,4.66,1500,1500,1530,1500,1,-0.00,0.00,0.02
1775523450.67,50.450739,30.453154,0.34,900.25,0.00,4.66,1500,1500,1551,1500,1,-0.00,0.00,0.02
1775523450.77,50.450739,30.453154,0.34,900.25,0.00,4.66,1500,1500,1551,1500,1,-0.00,0.00,0.02
1775523450.87,50.450739,30.453154,0.78,900.25,0.00,4.22,1500,1500,1505,1500,1,-0.06,-0.06,0.02
1775523450.97,50.450739,30.453154,0.78,900.25,0.00,4.22,1500,1500,1549,1500,1,-0.06,-0.06,0.02
1775523451.07,50.450739,30.453154,1.26,900.25,0.00,3.74,1500,1500,1498,1500,1,-0.08,-0.08,0.02
1775523451.17,50.450739,30.453154,1.26,900.25,0.00,3.74,1500,1500,1547,1500,1,-0.08,-0.08,0.02
1775523451.27,50.450739,30.453154,1.26,900.25,0.00,3.74,1500,1500,1547,1500,1,-0.08,-0.08,0.02
1775523451.37,50.450739,30.453154,1.78,900.25,0.00,3.21,1500,1500,1492,1500,1,-0.08,-0.07,0.06
1775523451.47,50.450739,30.453154,1.78,900.25,0.00,3.21,1500,1500,1544,1500,1,-0.08,-0.07,0.06
1775523451.57,50.450739,30.453154,2.31,900.25,0.00,2.69,1500,1500,1489,1500,1,-0.05,-0.05,0.11
1775523451.67,50.450739,30.453154,2.31,900.25,0.00,2.69,1500,1500,1541,1500,1,-0.05,-0.05,0.11
1775523451.78,50.450739,30.453154,2.31,900.25,0.00,2.69,1500,1500,1541,1500,1,-0.05,-0.05,0.11
1775523451.88,50.450739,30.453153,2.85,900.25,0.00,2.15,1500,1500,1484,1507,0,-0.03,-0.04,0.17
1775523451.98,50.450739,30.453153,2.85,900.25,0.00,2.15,1500,1500,1538,1503,0,-0.03,-0.04,0.17
1775523452.08,50.450738,30.453153,3.42,900.25,0.00,1.58,1500,1500,1479,1503,0,-0.02,-0.03,0.24
1775523452.18,50.450738,30.453153,3.42,900.25,0.00,1.58,1500,1500,1535,1503,0,-0.02,-0.03,0.24
1775523452.28,50.450738,30.453153,3.42,900.25,0.00,1.58,1500,1500,1535,1503,0,-0.02,-0.03,0.24
1775523452.38,50.450738,30.453152,3.99,900.25,0.00,1.01,1500,1500,1475,1503,0,-0.02,-0.02,0.31
1775523452.48,50.450738,30.453152,3.99,900.25,0.00,1.01,1500,1500,1532,1503,0,-0.02,-0.02,0.31
1775523452.58,50.450737,30.453152,4.60,900.02,0.08,2.40,1462,1592,1514,1503,0,-0.02,-0.01,0.39
1775523452.68,50.450737,30.453152,4.60,900.02,0.08,4.40,1462,1592,1725,1503,0,-0.02,-0.01,0.39
1775523452.78,50.450737,30.453151,5.25,899.91,0.11,5.75,1466,1594,1670,1503,0,-0.42,1.54,0.52
1775523452.88,50.450737,30.453151,5.25,899.91,0.11,7.75,1463,1593,1747,1503,0,-0.42,1.54,0.52
1775523452.98,50.450737,30.453151,5.25,899.91,0.11,9.75,1463,1593,1759,1503,0,-0.42,1.54,0.52
1775523453.08,50.450735,30.453149,6.09,899.75,0.13,10.91,1467,1595,1682,1503,0,-0.83,3.57,0.78
1775523453.18,50.450735,30.453149,6.09,899.75,0.13,12.91,1464,1593,1779,1503,0,-0.83,3.57,0.78
1775523453.28,50.450735,30.453149,6.09,899.75,0.13,14.91,1464,1593,1792,1503,0,-0.83,3.57,0.78
1775523453.38,50.450733,30.453148,7.23,899.52,0.15,15.77,1466,1594,1685,1503,0,-0.96,4.37,1.12
1775523453.48,50.450733,30.453148,7.23,899.52,0.15,17.77,1464,1593,1800,1503,0,-0.96,4.37,1.12
1775523453.58,50.450731,30.453146,8.70,899.21,0.16,18.30,1467,1595,1669,1503,0,-0.96,4.58,1.47
1775523453.68,50.450731,30.453146,8.70,899.21,0.16,20.30,1465,1594,1800,1503,0,-0.96,4.58,1.47
1775523453.78,50.450731,30.453146,8.70,899.21,0.16,22.30,1465,1594,1800,1503,0,-0.96,4.58,1.47
1775523453.88,50.450728,30.453144,10.36,898.80,0.17,22.64,1465,1594,1680,1503,0,-0.91,4.64,1.78
1775523453.98,50.450728,30.453144,10.36,898.80,0.17,24.64,1465,1594,1800,1503,0,-0.91,4.64,1.78
1775523454.08,50.450724,30.453141,12.13,898.34,0.17,24.87,1466,1594,1686,1503,0,-0.92,4.65,2.07
1775523454.18,50.450724,30.453141,12.13,898.34,0.17,26.87,1465,1594,1800,1503,0,-0.92,4.65,2.07
1775523454.29,50.450724,30.453141,12.13,898.34,0.17,28.87,1465,1594,1800,1503,0,-0.92,4.65,2.07
1775523454.39,50.450719,30.453138,13.98,897.79,0.17,29.02,1465,1594,1708,1503,0,-0.94,4.66,2.34
1775523454.49,50.450719,30.453138,13.98,897.79,0.17,31.02,1465,1594,1800,1503,0,-0.94,4.66,2.34
1775523454.59,50.450714,30.453134,15.98,897.16,0.17,31.02,1465,1593,1703,1503,0,-0.94,4.64,2.63
1775523454.69,50.450714,30.453134,15.98,897.16,0.17,33.02,1465,1594,1800,1503,0,-0.94,4.64,2.63
1775523454.79,50.450714,30.453134,15.98,897.16,0.17,35.02,1465,1594,1800,1503,0,-0.94,4.64,2.63
1775523454.89,50.450708,30.453131,18.04,896.48,0.16,34.96,1463,1593,1719,1503,0,-0.94,4.61,2.92
1775523454.99,50.450708,30.453131,18.04,896.48,0.16,36.96,1465,1593,1800,1503,0,-0.94,4.61,2.92
1775523455.09,50.450702,30.453127,20.25,895.71,0.14,36.75,1462,1592,1712,1503,0,-0.96,4.61,3.19
1775523455.19,50.450702,30.453127,20.25,895.71,0.14,38.75,1464,1593,1800,1503,0,-0.96,4.61,3.19
1775523455.29,50.450695,30.453122,22.52,894.88,0.12,38.48,1461,1592,1716,1503,0,-1.03,4.58,3.42
1775523455.39,50.450695,30.453122,22.52,894.88,0.12,40.48,1464,1593,1800,1503,0,-1.03,4.58,3.42
1775523455.49,50.450695,30.453122,22.52,894.88,0.12,42.48,1464,1593,1800,1503,0,-1.03,4.58,3.42
1775523455.59,50.450688,30.453118,24.72,894.00,0.10,42.28,1460,1592,1743,1503,0,-1.06,4.54,3.65
1775523455.69,50.450688,30.453118,24.72,894.00,0.10,44.28,1463,1593,1800,1503,0,-1.06,4.54,3.65
1775523455.79,50.450680,30.453112,27.04,893.05,0.08,43.96,1460,1591,1741,1503,0,-1.08,4.54,3.87
1775523455.89,50.450680,30.453112,27.04,893.05,0.08,45.96,1462,1592,1800,1503,0,-1.08,4.54,3.87
1775523455.99,50.450680,30.453112,27.04,893.05,0.08,47.96,1462,1592,1800,1503,0,-1.08,4.54,3.87
1775523456.09,50.450672,30.453107,29.32,892.06,0.07,47.68,1461,1592,1766,1503,0,-1.13,4.52,4.07
1775523456.19,50.450672,30.453107,29.32,892.06,0.07,49.68,1462,1592,1800,1503,0,-1.13,4.52,4.07
1775523456.29,50.450663,30.453101,31.60,891.00,0.06,49.40,1460,1592,1775,1503,0,-1.16,4.51,4.28
1775523456.39,50.450663,30.453101,31.60,891.00,0.06,51.40,1462,1592,1800,1503,0,-1.16,4.51,4.28
1775523456.49,50.450663,30.453101,31.60,891.00,0.06,53.40,1462,1592,1800,1503,0,-1.16,4.51,4.28
1775523456.59,50.450654,30.453095,33.98,889.90,0.05,53.02,1460,1592,1785,1503,0,-1.15,4.51,4.50
1775523456.69,50.450654,30.453095,33.98,889.90,0.05,55.02,1462,1592,1800,1503,0,-1.15,4.51,4.50
1775523456.79,50.450654,30.453095,33.98,889.90,0.05,57.02,1462,1592,1800,1503,0,-1.15,4.51,4.50
1775523456.89,50.450644,30.453089,36.50,888.74,0.04,56.50,1460,1591,1793,1503,0,-1.15,4.50,4.73
1775523456.99,50.450644,30.453089,36.50,888.74,0.04,58.50,1461,1592,1800,1503,0,-1.15,4.50,4.73
1775523457.09,50.450634,30.453082,39.13,887.54,0.04,57.87,1460,1592,1788,1503,0,-1.17,4.49,4.93
1775523457.20,50.450634,30.453082,39.13,887.54,0.04,59.87,1461,1592,1800,1503,0,-1.17,4.49,4.93
1775523457.30,50.450634,30.453082,39.13,887.54,0.04,61.87,1461,1592,1800,1503,0,-1.17,4.49,4.93
1775523457.40,50.450624,30.453075,41.83,886.29,0.03,61.17,1460,1592,1800,1503,0,-1.19,4.47,5.11
1775523457.50,50.450624,30.453075,41.83,886.29,0.03,63.17,1461,1592,1800,1503,0,-1.19,4.47,5.11
1775523457.60,50.450613,30.453067,44.60,884.98,0.04,62.40,1462,1592,1800,1503,0,-1.22,4.46,5.28
1775523457.70,50.450613,30.453067,44.60,884.98,0.04,64.40,1461,1592,1800,1503,0,-1.22,4.46,5.28
1775523457.80,50.450613,30.453067,44.60,884.98,0.04,66.40,1461,1592,1800,1503,0,-1.22,4.46,5.28
1775523457.90,50.450602,30.453060,47.34,883.64,0.04,65.66,1462,1592,1800,1503,0,-1.23,4.47,5.43
1775523458.00,50.450602,30.453060,47.34,883.64,0.04,67.66,1461,1592,1800,1503,0,-1.23,4.47,5.43
1775523458.10,50.450591,30.453052,50.02,882.26,0.05,66.98,1463,1593,1800,1503,0,-1.19,4.50,5.57
1775523458.20,50.450591,30.453052,50.02,882.26,0.05,68.98,1462,1592,1800,1503,0,-1.19,4.50,5.57
1775523458.30,50.450591,30.453052,50.02,882.26,0.05,70.98,1462,1592,1800,1503,0,-1.19,4.50,5.57
1775523458.40,50.450580,30.453044,52.64,880.85,0.07,70.36,1464,1593,1800,1503,0,-1.14,4.53,5.74
1775523458.50,50.450580,30.453044,52.64,880.85,0.07,72.36,1462,1592,1800,1503,0,-1.14,4.53,5.74
1775523458.60,50.450567,30.453035,55.24,879.38,0.09,71.76,1465,1594,1800,1503,0,-1.11,4.53,5.91
1775523458.70,50.450567,30.453035,55.24,879.38,0.09,73.76,1463,1593,1800,1503,0,-1.11,4.53,5.91
1775523458.80,50.450567,30.453035,55.24,879.38,0.09,75.76,1463,1593,1800,1503,0,-1.11,4.53,5.91
1775523458.90,50.450555,30.453026,57.92,877.89,0.12,75.08,1468,1595,1800,1503,0,-1.07,4.55,6.04
1775523459.00,50.450555,30.453026,57.92,877.89,0.12,77.08,1464,1593,1800,1503,0,-1.07,4.55,6.04
1775523459.10,50.450543,30.453017,60.59,876.35,0.14,76.41,1468,1595,1800,1503,0,-1.03,4.57,6.20
1775523459.20,50.450543,30.453017,60.59,876.35,0.14,78.41,1465,1593,1800,1503,0,-1.03,4.57,6.20
1775523459.30,50.450530,30.453008,63.20,874.78,0.18,77.80,1470,1596,1800,1503,0,-0.91,4.60,6.32
1775523459.40,50.450530,30.453008,63.20,874.78,0.18,79.80,1466,1594,1800,1503,0,-0.91,4.60,6.32
1775523459.50,50.450530,30.453008,63.20,874.78,0.18,81.80,1466,1594,1800,1503,0,-0.91,4.60,6.32
1775523459.60,50.450517,30.452998,65.70,873.18,0.22,81.30,1473,1597,1800,1503,0,-0.81,4.62,6.43
1775523459.70,50.450517,30.452998,65.70,873.18,0.22,83.30,1467,1595,1800,1503,0,-0.81,4.62,6.43
1775523459.81,50.450504,30.452989,68.19,871.56,0.26,82.81,1473,1597,1800,1503,0,-0.72,4.68,6.56
1775523459.91,50.450504,30.452989,68.19,871.56,0.26,84.81,1468,1595,1800,1503,0,-0.72,4.68,6.56
1775523460.01,50.450504,30.452989,68.19,871.56,0.26,86.81,1468,1595,1800,1503,0,-0.72,4.68,6.56
1775523460.11,50.450490,30.452979,70.69,869.91,0.29,86.31,1475,1598,1800,1503,0,-0.65,4.74,6.68
1775523460.21,50.450490,30.452979,70.69,869.91,0.29,88.31,1470,1596,1800,1503,0,-0.65,4.74,6.68
1775523460.31,50.450477,30.452969,73.22,868.24,0.33,87.78,1476,1598,1800,1503,0,-0.55,4.79,6.75
1775523460.41,50.450477,30.452969,73.22,868.24,0.33,89.78,1471,1596,1800,1503,0,-0.55,4.79,6.75
1775523460.51,50.450477,30.452969,73.22,868.24,0.33,91.78,1471,1596,1800,1503,0,-0.55,4.79,6.75
1775523460.61,50.450463,30.452959,75.74,866.54,0.36,91.26,1476,1598,1800,1503,0,-0.45,4.82,6.88
1775523460.71,50.450463,30.452959,75.74,866.54,0.36,93.26,1472,1597,1800,1503,0,-0.45,4.82,6.88
1775523460.81,50.450449,30.452949,78.31,864.81,0.39,92.69,1477,1599,1800,1503,0,-0.47,4.81,6.96
1775523460.91,50.450449,30.452949,78.31,864.81,0.39,94.69,1473,1597,1800,1503,0,-0.47,4.81,6.96
1775523461.01,50.450449,30.452949,78.31,864.81,0.39,96.69,1473,1597,1800,1503,0,-0.47,4.81,6.96
1775523461.11,50.450434,30.452939,80.89,863.07,0.41,96.11,1476,1599,1800,1503,0,-0.39,4.85,7.05
1775523461.21,50.450434,30.452939,80.89,863.07,0.41,98.11,1474,1597,1800,1503,0,-0.39,4.85,7.05
1775523461.31,50.450420,30.452929,83.50,861.30,0.43,97.50,1477,1599,1800,1503,0,-0.36,4.86,7.11
1775523461.41,50.450420,30.452929,83.50,861.30,0.43,99.50,1474,1598,1800,1503,0,-0.36,4.86,7.11
1775523461.51,50.450420,30.452929,83.50,861.30,0.43,101.50,1474,1598,1800,1503,0,-0.36,4.86,7.11
1775523461.61,50.450405,30.452919,86.07,859.51,0.44,100.93,1476,1598,1800,1503,0,-0.31,4.87,7.15
1775523461.71,50.450405,30.452919,86.07,859.51,0.44,102.93,1475,1598,1800,1503,0,-0.31,4.87,7.15
1775523461.81,50.450390,30.452908,88.60,857.72,0.45,102.40,1476,1598,1800,1503,0,-0.32,4.88,7.17
1775523461.91,50.450390,30.452908,88.60,857.72,0.45,104.40,1475,1598,1800,1503,0,-0.32,4.88,7.17
1775523462.01,50.450390,30.452908,88.60,857.72,0.45,106.40,1475,1598,1800,1503,0,-0.32,4.88,7.17
1775523462.11,50.450376,30.452898,91.00,855.92,0.44,106.00,1475,1598,1800,1503,0,-0.32,4.88,7.21
1775523462.21,50.450376,30.452898,91.00,855.92,0.44,108.00,1475,1598,1800,1503,0,-0.32,4.88,7.21
1775523462.31,50.450361,30.452888,93.41,854.11,0.44,107.59,1475,1598,1800,1503,0,-0.32,4.88,7.27
1775523462.41,50.450361,30.452888,93.41,854.11,0.44,109.59,1475,1598,1800,1503,0,-0.32,4.88,7.27
1775523462.52,50.450361,30.452888,93.41,854.11,0.44,111.59,1475,1598,1800,1503,0,-0.32,4.88,7.27
1775523462.62,50.450346,30.452878,95.94,852.29,0.44,111.06,1474,1598,1800,1503,0,-0.32,4.87,7.32
1775523462.72,50.450346,30.452878,95.94,852.29,0.44,113.06,1475,1598,1800,1503,0,-0.32,4.87,7.32
1775523462.82,50.450330,30.452868,98.48,850.46,0.42,112.52,1472,1596,1800,1503,0,-0.34,4.87,7.37
1775523462.92,50.450330,30.452868,98.48,850.46,0.42,114.52,1474,1598,1800,1503,0,-0.34,4.87,7.37
1775523463.02,50.450330,30.452868,98.48,850.46,0.42,116.52,1475,1598,1800,1503,0,-0.34,4.87,7.37
1775523463.12,50.450315,30.452858,101.11,848.61,0.40,115.89,1470,1596,1800,1503,0,-0.40,4.83,7.42
1775523463.22,50.450315,30.452858,101.11,848.61,0.40,117.89,1474,1597,1800,1503,0,-0.40,4.83,7.42
1775523463.32,50.450300,30.452848,103.87,846.75,0.37,117.13,1469,1595,1800,1503,0,-0.44,4.81,7.45
1775523463.42,50.450300,30.452848,103.87,846.75,0.37,119.13,1473,1597,1800,1503,0,-0.44,4.81,7.45
1775523463.52,50.450300,30.452848,103.87,846.75,0.37,121.13,1473,1597,1800,1503,0,-0.44,4.81,7.45
1775523463.62,50.450285,30.452838,106.63,844.90,0.34,120.37,1469,1595,1800,1503,0,-0.50,4.79,7.44
1775523463.72,50.450285,30.452838,106.63,844.90,0.34,122.37,1472,1597,1800,1503,0,-0.50,4.79,7.44
1775523463.82,50.450269,30.452827,109.26,843.03,0.32,121.74,1469,1595,1800,1503,0,-0.54,4.76,7.44
1775523463.92,50.450269,30.452827,109.26,843.03,0.32,123.74,1472,1596,1800,1503,0,-0.54,4.76,7.44
1775523464.02,50.450269,30.452827,109.26,843.03,0.32,125.74,1472,1596,1800,1503,0,-0.54,4.76,7.44
1775523464.12,50.450254,30.452817,111.93,841.17,0.30,125.07,1468,1595,1800,1503,0,-0.56,4.74,7.46
1775523464.22,50.450254,30.452817,111.93,841.17,0.30,127.07,1471,1596,1800,1503,0,-0.56,4.74,7.46
1775523464.32,50.450238,30.452807,114.54,839.31,0.28,126.46,1468,1595,1800,1503,0,-0.62,4.72,7.46
1775523464.42,50.450238,30.452807,114.54,839.31,0.28,128.46,1470,1596,1800,1503,0,-0.62,4.72,7.46
1775523464.52,50.450238,30.452807,114.54,839.31,0.28,130.46,1470,1596,1800,1503,0,-0.62,4.72,7.46
1775523464.62,50.450223,30.452797,117.15,837.45,0.26,129.85,1467,1594,1800,1503,0,-0.68,4.69,7.47
1775523464.72,50.450223,30.452797,117.15,837.45,0.26,131.85,1470,1596,1800,1503,0,-0.68,4.69,7.47
1775523464.82,50.450207,30.452786,119.78,835.58,0.24,131.22,1467,1594,1800,1503,0,-0.72,4.68,7.48
1775523464.92,50.450207,30.452786,119.78,835.58,0.24,133.22,1469,1595,1800,1503,0,-0.72,4.68,7.48
1775523465.02,50.450207,30.452786,119.78,835.58,0.24,135.22,1469,1595,1800,1503,0,-0.72,4.68,7.48
1775523465.12,50.450192,30.452776,122.39,833.72,0.23,134.61,1467,1594,1800,1503,0,-0.74,4.67,7.49
1775523465.22,50.450192,30.452776,122.39,833.72,0.23,136.61,1469,1595,1800,1503,0,-0.74,4.67,7.49
1775523465.33,50.450176,30.452765,125.03,831.84,0.22,135.97,1468,1595,1800,1503,0,-0.75,4.66,7.53
1775523465.43,50.450176,30.452765,125.03,831.84,0.22,137.97,1469,1595,1800,1503,0,-0.75,4.66,7.53
1775523465.53,50.450176,30.452765,125.03,831.84,0.22,139.97,1469,1595,1800,1503,0,-0.75,4.66,7.53
1775523465.63,50.450161,30.452755,127.65,829.96,0.21,139.35,1467,1595,1800,1503,0,-0.74,4.67,7.53
1775523465.73,50.450161,30.452755,127.65,829.96,0.21,141.35,1468,1595,1800,1503,0,-0.74,4.67,7.53
1775523465.83,50.450145,30.452744,130.23,828.07,0.21,140.77,1469,1595,1800,1503,0,-0.73,4.68,7.56
1775523465.93,50.450145,30.452744,130.23,828.07,0.21,142.77,1469,1595,1800,1503,0,-0.73,4.68,7.56
1775523466.03,50.450145,30.452744,130.23,828.07,0.21,144.77,1469,1595,1800,1503,0,-0.73,4.68,7.56
1775523466.13,50.450130,30.452734,132.91,826.18,0.21,144.09,1468,1595,1800,1503,0,-0.73,4.69,7.58
1775523466.23,50.450130,30.452734,132.91,826.18,0.21,146.09,1469,1595,1800,1503,0,-0.73,4.69,7.58
1775523466.33,50.450114,30.452723,135.59,824.29,0.22,145.41,1469,1595,1800,1503,0,-0.72,4.69,7.59
1775523466.43,50.450114,30.452723,135.59,824.29,0.22,147.41,1469,1595,1800,1503,0,-0.72,4.69,7.59
1775523466.53,50.450114,30.452723,135.59,824.29,0.22,149.41,1469,1595,1800,1503,0,-0.72,4.69,7.59
1775523466.63,50.450099,30.452712,138.28,822.38,0.22,148.72,1469,1595,1800,1503,0,-0.72,4.69,7.62
1775523466.73,50.450099,30.452712,138.28,822.38,0.22,150.72,1469,1595,1800,1503,0,-0.72,4.69,7.62
1775523466.83,50.450083,30.452701,140.94,820.49,0.22,150.06,1469,1595,1800,1503,0,-0.70,4.68,7.62
1775523466.93,50.450083,30.452701,140.94,820.49,0.22,152.06,1469,1595,1800,1503,0,-0.70,4.68,7.62
1775523467.03,50.450083,30.452701,140.94,820.49,0.22,154.06,1469,1595,1800,1503,0,-0.70,4.68,7.62
1775523467.13,50.450067,30.452691,143.55,818.59,0.23,153.45,1470,1596,1800,1503,0,-0.70,4.66,7.59
1775523467.23,50.450067,30.452691,143.55,818.59,0.23,155.45,1469,1595,1800,1503,0,-0.70,4.66,7.59
1775523467.33,50.450052,30.452680,146.16,816.69,0.23,154.84,1470,1596,1800,1503,0,-0.70,4.67,7.60
1775523467.43,50.450052,30.452680,146.16,816.69,0.23,154.84,1469,1595,1800,1503,0,-0.70,4.67,7.60
1775523467.53,50.450052,30.452680,146.16,816.69,0.23,154.84,1469,1595,1800,1503,0,-0.70,4.67,7.60
1775523467.63,50.450036,30.452669,148.77,814.80,0.25,152.23,1473,1597,1800,1503,0,-0.70,4.67,7.60
1775523467.73,50.450036,30.452669,148.77,814.80,0.25,152.23,1470,1596,1800,1503,0,-0.70,4.67,7.60
1775523467.83,50.450021,30.452658,151.29,812.90,0.27,149.71,1472,1597,1800,1503,0,-0.67,4.69,7.57
1775523467.94,50.450021,30.452658,151.29,812.90,0.27,149.71,1471,1596,1800,1503,0,-0.67,4.69,7.57
1775523468.04,50.450021,30.452658,151.29,812.90,0.27,149.71,1471,1596,1800,1503,0,-0.67,4.69,7.57
1775523468.14,50.450005,30.452647,153.75,811.01,0.28,147.25,1473,1597,1800,1503,0,-0.62,4.76,7.60
1775523468.24,50.450005,30.452647,153.75,811.01,0.28,147.25,1471,1596,1800,1503,0,-0.62,4.76,7.60
1775523468.34,50.449990,30.452636,156.31,809.11,0.29,144.69,1473,1597,1800,1503,0,-0.58,4.78,7.61
1775523468.44,50.449990,30.452636,156.31,809.11,0.29,144.69,1472,1596,1800,1503,0,-0.58,4.78,7.61
1775523468.54,50.449990,30.452636,156.31,809.11,0.29,144.69,1472,1596,1800,1503,0,-0.58,4.78,7.61
1775523468.64,50.449974,30.452625,158.87,807.21,0.31,142.13,1474,1597,1800,1503,0,-0.53,4.78,7.59
1775523468.74,50.449974,30.452625,158.87,807.21,0.31,142.13,1472,1597,1800,1503,0,-0.53,4.78,7.59
1775523468.84,50.449958,30.452615,161.44,805.31,0.32,139.56,1473,1597,1800,1503,0,-0.45,4.78,7.60
1775523468.94,50.449958,30.452615,161.44,805.31,0.32,139.56,1472,1597,1800,1503,0,-0.45,4.78,7.60
1775523469.04,50.449958,30.452615,161.44,805.31,0.32,139.56,1472,1597,1800,1503,0,-0.45,4.78,7.60
1775523469.14,50.449943,30.452604,163.96,803.42,0.32,137.04,1474,1597,1800,1503,0,-0.42,4.80,7.58
1775523469.24,50.449943,30.452604,163.96,803.42,0.32,137.04,1473,1597,1800,1503,0,-0.42,4.80,7.58
1775523469.34,50.449927,30.452593,166.40,801.52,0.32,134.60,1473,1597,1800,1503,0,-0.44,4.83,7.59
1775523469.44,50.449927,30.452593,166.40,801.52,0.32,134.60,1473,1597,1800,1503,0,-0.44,4.83,7.59
1775523469.54,50.449927,30.452593,166.40,801.52,0.32,134.60,1473,1597,1800,1503,0,-0.44,4.83,7.59
1775523469.64,50.449912,30.452582,168.75,799.63,0.33,132.25,1473,1597,1800,1503,0,-0.44,4.83,7.58
1775523469.74,50.449912,30.452582,168.75,799.63,0.33,132.25,1473,1597,1800,1503,0,-0.44,4.83,7.58
1775523469.84,50.449896,30.452572,171.07,797.73,0.32,129.93,1472,1597,1800,1503,0,-0.44,4.83,7.60
1775523469.94,50.449896,30.452572,171.07,797.73,0.32,129.93,1473,1597,1800,1503,0,-0.44,4.83,7.60
1775523470.04,50.449896,30.452572,171.07,797.73,0.32,129.93,1473,1597,1800,1503,0,-0.44,4.83,7.60
1775523470.14,50.449880,30.452561,173.44,795.82,0.31,127.56,1471,1596,1800,1503,0,-0.44,4.83,7.63
1775523470.24,50.449880,30.452561,173.44,795.82,0.31,127.56,1473,1597,1800,1503,0,-0.44,4.83,7.63
1775523470.34,50.449864,30.452551,175.83,793.92,0.30,125.17,1471,1596,1800,1503,0,-0.45,4.80,7.64
1775523470.44,50.449864,30.452551,175.83,793.92,0.30,125.17,1472,1597,1800,1503,0,-0.45,4.80,7.64
1775523470.54,50.449864,30.452551,175.83,793.92,0.30,125.17,1472,1597,1800,1503,0,-0.45,4.80,7.64
1775523470.65,50.449849,30.452540,178.29,792.01,0.29,122.71,1471,1596,1800,1503,0,-0.45,4.76,7.65
1775523470.75,50.449849,30.452540,178.29,792.01,0.29,122.71,1472,1597,1800,1503,0,-0.45,4.76,7.65
1775523470.85,50.449833,30.452529,180.76,790.11,0.28,120.24,1470,1596,1800,1503,0,-0.47,4.76,7.65
1775523470.95,50.449833,30.452529,180.76,790.11,0.28,120.24,1472,1596,1800,1503,0,-0.47,4.76,7.65
1775523471.05,50.449833,30.452529,180.76,790.11,0.28,120.24,1472,1596,1800,1503,0,-0.47,4.76,7.65
1775523471.15,50.449817,30.452519,183.25,788.21,0.27,117.75,1470,1596,1800,1503,0,-0.53,4.76,7.65
1775523471.25,50.449817,30.452519,183.25,788.21,0.27,117.75,1471,1596,1800,1503,0,-0.53,4.76,7.65
1775523471.35,50.449802,30.452508,185.72,786.30,0.27,115.28,1471,1596,1800,1503,0,-0.55,4.74,7.64
1775523471.45,50.449802,30.452508,185.72,786.30,0.27,115.28,1471,1596,1800,1503,0,-0.55,4.74,7.64
1775523471.55,50.449802,30.452508,185.72,786.30,0.27,115.28,1471,1596,1800,1503,0,-0.55,4.74,7.64
1775523471.65,50.449786,30.452497,188.13,784.39,0.26,112.87,1470,1596,1800,1503,0,-0.58,4.73,7.63
1775523471.75,50.449786,30.452497,188.13,784.39,0.26,112.87,1471,1596,1800,1503,0,-0.58,4.73,7.63
1775523471.85,50.449770,30.452487,190.55,782.49,0.25,110.45,1470,1596,1800,1503,0,-0.59,4.73,7.64
1775523471.95,50.449770,30.452487,190.55,782.49,0.25,110.45,1471,1596,1800,1503,0,-0.59,4.73,7.64
1775523472.05,50.449754,30.452476,193.07,780.57,0.24,107.93,1470,1596,1800,1503,0,-0.60,4.74,7.65
1775523472.15,50.449754,30.452476,193.07,780.57,0.24,107.93,1471,1596,1800,1503,0,-0.60,4.74,7.65
1775523472.25,50.449754,30.452476,193.07,780.57,0.24,107.93,1471,1596,1800,1503,0,-0.60,4.74,7.65
1775523472.35,50.449739,30.452465,195.69,778.65,0.24,105.31,1471,1596,1800,1503,0,-0.61,4.75,7.64
1775523472.45,50.449739,30.452465,195.69,778.65,0.24,105.31,1471,1596,1800,1503,0,-0.61,4.75,7.64
1775523472.55,50.449723,30.452455,198.28,776.74,0.24,102.72,1469,1595,1800,1503,0,-0.62,4.74,7.66
1775523472.65,50.449723,30.452455,198.28,776.74,0.24,102.72,1471,1596,1800,1503,0,-0.62,4.74,7.66
1775523472.75,50.449723,30.452455,198.28,776.74,0.24,102.72,1471,1596,1800,1503,0,-0.62,4.74,7.66
1775523472.85,50.449707,30.452444,200.97,774.82,0.23,100.03,1470,1596,1800,1503,0,-0.61,4.73,7.66
1775523472.95,50.449707,30.452444,200.97,774.82,0.23,100.03,1471,1596,1800,1503,0,-0.61,4.73,7.66
1775523473.05,50.449691,30.452433,203.70,772.90,0.23,97.30,1470,1596,1800,1503,0,-0.60,4.75,7.67
1775523473.15,50.449691,30.452433,203.70,772.90,0.23,97.30,1471,1596,1800,1503,0,-0.60,4.75,7.67
1775523473.25,50.449691,30.452433,203.70,772.90,0.23,97.30,1471,1596,1800,1503,0,-0.60,4.75,7.67
1775523473.35,50.449675,30.452422,206.41,770.98,0.23,94.59,1470,1596,1797,1503,0,-0.60,4.76,7.67
1775523473.45,50.449675,30.452422,206.41,770.98,0.23,94.59,1471,1596,1800,1503,0,-0.60,4.76,7.67
1775523473.56,50.449660,30.452411,209.10,769.06,0.22,91.90,1468,1595,1783,1503,0,-0.61,4.76,7.67
1775523473.66,50.449660,30.452411,209.10,769.06,0.22,91.90,1470,1596,1800,1503,0,-0.61,4.76,7.67
1775523473.76,50.449660,30.452411,209.10,769.06,0.22,91.90,1470,1596,1800,1503,0,-0.61,4.76,7.67
1775523473.86,50.449644,30.452401,211.79,767.14,0.21,89.21,1469,1595,1768,1503,0,-0.62,4.76,7.68
1775523473.96,50.449644,30.452401,211.79,767.14,0.21,89.21,1470,1596,1800,1503,0,-0.62,4.76,7.68
1775523474.06,50.449628,30.452390,214.47,765.22,0.21,86.53,1470,1596,1751,1503,0,-0.64,4.73,7.66
1775523474.16,50.449628,30.452390,214.47,765.22,0.21,86.53,1470,1596,1800,1503,0,-0.64,4.73,7.66
1775523474.26,50.449628,30.452390,214.47,765.22,0.21,86.53,1470,1596,1800,1503,0,-0.64,4.73,7.66
1775523474.36,50.449612,30.452379,217.04,763.30,0.21,83.96,1470,1596,1748,1503,0,-0.64,4.71,7.66
1775523474.46,50.449612,30.452379,217.04,763.30,0.21,83.96,1470,1596,1800,1503,0,-0.64,4.71,7.66
1775523474.56,50.449596,30.452368,219.65,761.39,0.20,81.35,1469,1595,1728,1503,0,-0.63,4.73,7.67
1775523474.66,50.449596,30.452368,219.65,761.39,0.20,81.35,1470,1596,1800,1503,0,-0.63,4.73,7.67
1775523474.76,50.449596,30.452368,219.65,761.39,0.20,81.35,1470,1596,1800,1503,0,-0.63,4.73,7.67
1775523474.86,50.449581,30.452358,222.20,759.48,0.20,78.80,1470,1596,1718,1503,0,-0.62,4.73,7.64
1775523474.96,50.449581,30.452358,222.20,759.48,0.20,78.80,1470,1596,1800,1503,0,-0.62,4.73,7.64
1775523475.06,50.449565,30.452347,224.78,757.58,0.20,76.22,1469,1595,1700,1503,0,-0.63,4.73,7.63
1775523475.16,50.449565,30.452347,224.78,757.58,0.20,76.22,1470,1596,1800,1503,0,-0.63,4.73,7.63
1775523475.26,50.449565,30.452347,224.78,757.58,0.20,76.22,1470,1596,1800,1503,0,-0.63,4.73,7.63
1775523475.36,50.449549,30.452336,227.33,755.67,0.19,73.67,1468,1595,1688,1503,0,-0.65,4.72,7.61
1775523475.46,50.449549,30.452336,227.33,755.67,0.19,73.67,1470,1596,1800,1503,0,-0.65,4.72,7.61
1775523475.56,50.449534,30.452326,229.78,753.77,0.19,71.22,1469,1595,1682,1503,0,-0.66,4.72,7.60
1775523475.66,50.449534,30.452326,229.78,753.77,0.19,71.22,1469,1596,1800,1503,0,-0.66,4.72,7.60
1775523475.76,50.449534,30.452326,229.78,753.77,0.19,71.22,1469,1596,1800,1503,0,-0.66,4.72,7.60
1775523475.86,50.449518,30.452315,232.10,751.87,0.19,68.90,1470,1596,1682,1503,0,-0.68,4.71,7.60
1775523475.96,50.449518,30.452315,232.10,751.87,0.19,68.90,1470,1596,1800,1503,0,-0.68,4.71,7.60
1775523476.07,50.449502,30.452304,234.39,749.99,0.18,66.61,1468,1595,1671,1503,0,-0.68,4.72,7.59
1775523476.17,50.449502,30.452304,234.39,749.99,0.18,66.61,1469,1595,1800,1503,0,-0.68,4.72,7.59
1775523476.27,50.449502,30.452304,234.39,749.99,0.18,66.61,1469,1595,1800,1503,0,-0.68,4.72,7.59
1775523476.37,50.449487,30.452294,236.76,748.09,0.18,64.24,1469,1595,1648,1503,0,-0.68,4.71,7.59
1775523476.47,50.449487,30.452294,236.76,748.09,0.18,64.24,1469,1595,1800,1503,0,-0.68,4.71,7.59
1775523476.57,50.449471,30.452283,239.17,746.20,0.17,61.83,1468,1595,1631,1503,0,-0.68,4.69,7.59
1775523476.67,50.449471,30.452283,239.17,746.20,0.17,61.83,1469,1595,1800,1503,0,-0.68,4.69,7.59
1775523476.77,50.449471,30.452283,239.17,746.20,0.17,61.83,1469,1595,1800,1503,0,-0.68,4.69,7.59
1775523476.87,50.449456,30.452272,241.42,744.32,0.17,59.58,1469,1595,1633,1503,0,-0.72,4.68,7.57
1775523476.97,50.449456,30.452272,241.42,744.32,0.17,59.58,1469,1595,1800,1503,0,-0.72,4.68,7.57
1775523477.07,50.449440,30.452262,243.67,742.42,0.17,57.33,1468,1595,1619,1503,0,-0.72,4.67,7.54
1775523477.17,50.449440,30.452262,243.67,742.42,0.17,57.33,1469,1595,1800,1503,0,-0.72,4.67,7.54
1775523477.27,50.449440,30.452262,243.67,742.42,0.17,57.33,1469,1595,1800,1503,0,-0.72,4.67,7.54
1775523477.37,50.449424,30.452251,245.99,740.54,0.16,55.01,1468,1595,1598,1503,0,-0.72,4.66,7.54
1775523477.47,50.449424,30.452251,245.99,740.54,0.16,55.01,1469,1595,1800,1503,0,-0.72,4.66,7.54
1775523477.57,50.449409,30.452241,248.30,738.66,0.16,52.70,1469,1595,1586,1503,0,-0.72,4.66,7.53
1775523477.67,50.449409,30.452241,248.30,738.66,0.16,52.70,1469,1595,1800,1503,0,-0.72,4.66,7.53
1775523477.77,50.449409,30.452241,248.30,738.66,0.16,52.70,1469,1595,1800,1503,0,-0.72,4.66,7.53
1775523477.87,50.449394,30.452230,250.51,736.79,0.16,50.49,1468,1599,1583,1503,0,-0.71,4.67,7.52
1775523477.97,50.449394,30.452230,250.51,736.79,0.16,50.49,1467,1599,1800,1503,0,-0.71,4.67,7.52
1775523478.07,50.449378,30.452220,252.65,734.91,0.16,48.35,1461,1613,1576,1503,0,-0.69,4.73,7.52
1775523478.17,50.449378,30.452220,252.65,734.91,0.16,48.35,1461,1613,1790,1503,0,-0.69,4.73,7.52
1775523478.27,50.449378,30.452220,252.65,734.91,0.16,48.35,1461,1613,1790,1503,0,-0.69,4.73,7.52
1775523478.37,50.449363,30.452209,254.65,733.04,0.16,46.35,1456,1628,1578,1503,0,-0.90,5.17,7.54
1775523478.47,50.449363,30.452209,254.65,733.04,0.16,46.35,1455,1627,1778,1503,0,-0.90,5.17,7.54
1775523478.57,50.449347,30.452198,256.62,731.15,0.17,44.38,1450,1641,1569,1503,0,-1.18,5.89,7.61
1775523478.67,50.449347,30.452198,256.62,731.15,0.17,44.38,1449,1641,1766,1503,0,-1.18,5.89,7.61
1775523478.77,50.449347,30.452198,256.62,731.15,0.17,44.38,1449,1641,1766,1503,0,-1.18,5.89,7.61
1775523478.87,50.449331,30.452188,258.65,729.25,0.17,42.35,1443,1655,1552,1503,0,-1.56,6.77,7.70
1775523478.97,50.449331,30.452188,258.65,729.25,0.17,42.35,1443,1655,1754,1503,0,-1.56,6.77,7.70
1775523479.08,50.449316,30.452177,260.60,727.33,0.17,40.40,1437,1668,1547,1503,0,-1.94,7.60,7.79
1775523479.18,50.449316,30.452177,260.60,727.33,0.17,40.40,1437,1668,1742,1503,0,-1.94,7.60,7.79
1775523479.28,50.449316,30.452177,260.60,727.33,0.17,40.40,1437,1668,1742,1503,0,-1.94,7.60,7.79
1775523479.38,50.449300,30.452166,262.51,725.38,0.16,38.49,1430,1681,1540,1503,0,-2.32,8.52,7.96
1775523479.48,50.449300,30.452166,262.51,725.38,0.16,38.49,1431,1681,1730,1503,0,-2.32,8.52,7.96
1775523479.58,50.449283,30.452155,264.49,723.36,0.15,36.51,1425,1695,1522,1503,0,-2.63,9.24,8.18
1775523479.68,50.449283,30.452155,264.49,723.36,0.15,36.51,1425,1695,1719,1503,0,-2.63,9.24,8.18
1775523479.78,50.449283,30.452155,264.49,723.36,0.15,36.51,1425,1695,1719,1503,0,-2.63,9.24,8.18
1775523479.88,50.449266,30.452143,266.37,721.31,0.15,34.63,1419,1707,1520,1503,0,-3.07,10.17,8.39
1775523479.98,50.449266,30.452143,266.37,721.31,0.15,34.63,1420,1708,1707,1503,0,-3.07,10.17,8.39
1775523480.08,50.449249,30.452131,268.24,719.20,0.15,32.76,1414,1720,1510,1503,0,-3.39,10.92,8.60
1775523480.18,50.449249,30.452131,268.24,719.20,0.15,32.76,1414,1721,1696,1503,0,-3.39,10.92,8.60
1775523480.28,50.449249,30.452131,268.24,719.20,0.15,32.76,1414,1721,1696,1503,0,-3.39,10.92,8.60
1775523480.38,50.449231,30.452119,270.03,717.02,0.16,30.97,1410,1734,1506,1503,0,-3.75,11.82,8.86
1775523480.48,50.449231,30.452119,270.03,717.02,0.16,30.97,1409,1733,1685,1503,0,-3.75,11.82,8.86
1775523480.58,50.449212,30.452106,271.81,714.78,0.16,29.19,1405,1746,1499,1503,0,-4.03,12.59,9.12
1775523480.68,50.449212,30.452106,271.81,714.78,0.16,29.19,1404,1745,1678,1503,0,-4.03,12.59,9.12
1775523480.78,50.449212,30.452106,271.81,714.78,0.16,29.19,1404,1745,1680,1503,0,-4.03,12.59,9.12
1775523480.88,50.449193,30.452093,273.47,712.49,0.17,27.53,1400,1757,1506,1503,0,-4.34,13.44,9.38
1775523480.98,50.449193,30.452093,273.47,712.49,0.17,27.53,1399,1757,1673,1503,0,-4.34,13.44,9.38
1775523481.08,50.449174,30.452080,275.03,710.12,0.17,25.97,1395,1768,1510,1503,0,-4.61,14.14,9.60
1775523481.19,50.449174,30.452080,275.03,710.12,0.17,25.97,1395,1768,1667,1503,0,-4.61,14.14,9.60
1775523481.29,50.449174,30.452080,275.03,710.12,0.17,25.97,1395,1768,1669,1503,0,-4.61,14.14,9.60
1775523481.39,50.449154,30.452066,276.53,707.69,0.18,24.47,1391,1778,1511,1503,0,-4.90,14.87,9.91
1775523481.49,50.449154,30.452066,276.53,707.69,0.18,24.47,1390,1778,1663,1503,0,-4.90,14.87,9.91
1775523481.59,50.449133,30.452052,277.97,705.18,0.19,23.03,1388,1789,1513,1503,0,-5.15,15.53,10.15
1775523481.69,50.449133,30.452052,277.97,705.18,0.19,23.03,1386,1788,1657,1503,0,-5.15,15.53,10.15
1775523481.79,50.449133,30.452052,277.97,705.18,0.19,23.03,1386,1788,1658,1503,0,-5.15,15.53,10.15
1775523481.89,50.449112,30.452037,279.27,702.60,0.19,21.73,1383,1797,1522,1503,0,-5.38,16.19,10.47
1775523481.99,50.449112,30.452037,279.27,702.60,0.19,21.73,1383,1797,1653,1503,0,-5.38,16.19,10.47
1775523482.09,50.449090,30.452022,280.62,699.95,0.21,20.38,1382,1808,1511,1503,0,-5.61,16.75,10.79
1775523482.19,50.449090,30.452022,280.62,699.95,0.21,20.38,1379,1807,1647,1503,0,-5.61,16.75,10.79
1775523482.29,50.449090,30.452022,280.62,699.95,0.21,20.38,1379,1807,1648,1503,0,-5.61,16.75,10.79
1775523482.39,50.449068,30.452006,281.86,697.23,0.23,19.14,1378,1816,1519,1503,0,-5.79,17.41,11.07
1775523482.49,50.449068,30.452006,281.86,697.23,0.23,19.14,1376,1815,1643,1503,0,-5.79,17.41,11.07
1775523482.59,50.449045,30.451990,283.09,694.40,0.24,17.91,1375,1825,1515,1503,0,-5.96,17.94,11.41
1775523482.69,50.449045,30.451990,283.09,694.40,0.24,17.91,1373,1824,1638,1503,0,-5.96,17.94,11.41
1775523482.79,50.449045,30.451990,283.09,694.40,0.24,17.91,1373,1824,1639,1503,0,-5.96,17.94,11.41
1775523482.89,50.449021,30.451974,284.29,691.51,0.25,16.71,1371,1833,1514,1503,0,-6.15,18.53,11.66
1775523482.99,50.449021,30.451974,284.29,691.51,0.25,16.71,1370,1833,1634,1503,0,-6.15,18.53,11.66
1775523483.09,50.448997,30.451957,285.45,688.56,0.28,15.55,1371,1843,1512,1503,0,-6.32,19.04,11.95
1775523483.19,50.448997,30.451957,285.45,688.56,0.28,15.55,1367,1841,1629,1503,0,-6.32,19.04,11.95
1775523483.29,50.448997,30.451957,285.45,688.56,0.28,15.55,1367,1841,1630,1503,0,-6.32,19.04,11.95
1775523483.39,50.448972,30.451940,286.52,685.54,0.30,14.48,1366,1849,1518,1503,0,-6.45,19.64,12.16
1775523483.49,50.448972,30.451940,286.52,685.54,0.30,14.48,1365,1849,1625,1503,0,-6.45,19.64,12.16
1775523483.59,50.448947,30.451922,287.52,682.46,0.31,13.48,1365,1850,1520,1503,0,-6.58,20.11,12.41
1775523483.69,50.448947,30.451922,287.52,682.46,0.31,13.48,1362,1850,1621,1503,0,-6.58,20.11,12.41
1775523483.79,50.448947,30.451922,287.52,682.46,0.31,13.48,1362,1850,1622,1503,0,-6.58,20.11,12.41
1775523483.89,50.448921,30.451904,288.49,679.32,0.33,12.51,1362,1850,1520,1503,0,-6.69,20.44,12.68
1775523484.00,50.448921,30.451904,288.49,679.32,0.33,12.51,1360,1850,1617,1503,0,-6.69,20.44,12.68
1775523484.10,50.448895,30.451886,289.52,676.11,0.34,11.48,1359,1850,1509,1503,0,-6.82,20.59,12.93
1775523484.20,50.448895,30.451886,289.52,676.11,0.34,11.48,1357,1850,1613,1503,0,-6.82,20.59,12.93
1775523484.30,50.448895,30.451886,289.52,676.11,0.34,11.48,1357,1850,1613,1503,0,-6.82,20.59,12.93
1775523484.40,50.448868,30.451867,290.57,672.85,0.38,10.43,1362,1850,1503,1503,0,-6.98,20.65,13.15
1775523484.50,50.448868,30.451867,290.57,672.85,0.38,10.43,1357,1850,1608,1503,0,-6.98,20.65,13.15
1775523484.60,50.448841,30.451848,291.66,669.52,0.40,9.34,1361,1850,1494,1503,0,-7.08,20.69,13.31
1775523484.70,50.448841,30.451848,291.66,669.52,0.40,9.34,1358,1850,1603,1503,0,-7.08,20.69,13.31
1775523484.80,50.448841,30.451848,291.66,669.52,0.40,9.34,1358,1850,1603,1503,0,-7.08,20.69,13.31
1775523484.90,50.448813,30.451828,292.72,666.17,0.44,8.28,1365,1850,1492,1503,0,-7.10,20.66,13.44
1775523485.00,50.448813,30.451828,292.72,666.17,0.44,8.28,1359,1850,1598,1503,0,-7.10,20.66,13.44
1775523485.10,50.448785,30.451809,293.75,662.79,0.48,7.25,1366,1850,1489,1503,0,-7.04,20.64,13.51
1775523485.20,50.448785,30.451809,293.75,662.79,0.48,7.25,1361,1850,1593,1503,0,-7.04,20.64,13.51
1775523485.30,50.448785,30.451809,293.75,662.79,0.48,7.25,1361,1850,1593,1503,0,-7.04,20.64,13.51
1775523485.40,50.448758,30.451789,294.71,659.40,0.54,6.29,1370,1850,1492,1503,0,-6.93,20.66,13.59
1775523485.50,50.448758,30.451789,294.71,659.40,0.54,6.29,1362,1850,1588,1503,0,-6.93,20.66,13.59
1775523485.60,50.448730,30.451769,295.60,655.99,0.59,5.40,1371,1850,1495,1503,0,-6.82,20.67,13.60
1775523485.70,50.448730,30.451769,295.60,655.99,0.59,5.40,1364,1850,1583,1503,0,-6.82,20.67,13.60
1775523485.80,50.448730,30.451769,295.60,655.99,0.59,5.40,1364,1850,1584,1503,0,-6.82,20.67,13.60
1775523485.90,50.448702,30.451749,296.33,652.59,0.64,4.67,1374,1850,1506,1503,0,-6.67,20.64,13.61
1775523486.00,50.448702,30.451749,296.33,652.59,0.64,4.67,1366,1850,1580,1503,0,-6.67,20.64,13.61
1775523486.10,50.448674,30.451729,297.06,649.17,0.71,3.94,1377,1850,1504,1503,0,-6.63,20.62,13.64
1775523486.20,50.448674,30.451729,297.06,649.17,0.71,3.94,1368,1850,1576,1503,0,-6.63,20.62,13.64
1775523486.30,50.448674,30.451729,297.06,649.17,0.71,3.94,1368,1850,1576,1503,0,-6.63,20.62,13.64
1775523486.40,50.448646,30.451709,297.81,645.76,0.77,3.19,1379,1850,1497,1503,0,-6.45,20.63,13.67
1775523486.51,50.448646,30.451709,297.81,645.76,0.77,3.19,1370,1850,1572,1503,0,-6.45,20.63,13.67
1775523486.61,50.448618,30.451689,298.60,642.32,0.84,2.40,1382,1850,1489,1503,0,-6.37,20.62,13.71
1775523486.71,50.448618,30.451689,298.60,642.32,0.84,2.40,1373,1850,1568,1503,0,-6.37,20.62,13.71
1775523486.81,50.448590,30.451669,299.37,638.90,0.91,1.63,1384,1850,1486,1503,0,-6.13,20.59,13.70
1775523486.91,50.448590,30.451669,299.37,638.90,0.91,1.63,1375,1850,1563,1503,0,-6.13,20.59,13.70
1775523487.01,50.448590,30.451669,299.37,638.90,0.91,1.63,1375,1850,1563,1503,0,-6.13,20.59,13.70
1775523487.11,50.448562,30.451649,300.17,635.49,0.98,0.83,1387,1850,1480,1503,0,-6.00,20.60,13.70
1775523487.21,50.448562,30.451649,300.17,635.49,0.98,0.83,1377,1850,1559,1503,0,-6.00,20.60,13.70
1775523487.31,50.448535,30.451629,300.95,632.09,1.04,0.05,1388,1850,1476,1503,0,-5.89,20.60,13.65
1775523487.41,50.448535,30.451629,300.95,632.09,1.04,0.05,1380,1850,1554,1503,0,-5.89,20.60,13.65
1775523487.51,50.448535,30.451629,300.95,632.09,1.04,0.05,1380,1850,1554,1503,0,-5.89,20.60,13.65
1775523487.61,50.448507,30.451608,301.64,628.70,1.10,-0.64,1391,1850,1481,1503,0,-5.74,20.62,13.63
1775523487.71,50.448507,30.451608,301.64,628.70,1.10,-0.64,1382,1850,1550,1503,0,-5.74,20.62,13.63
1775523487.81,50.448479,30.451589,302.34,625.29,1.15,-1.34,1390,1850,1475,1503,0,-5.60,20.64,13.60
1775523487.91,50.448479,30.451589,302.34,625.29,1.15,-1.34,1384,1850,1545,1503,0,-5.60,20.64,13.60
1775523488.01,50.448479,30.451589,302.34,625.29,1.15,-1.34,1384,1850,1545,1503,0,-5.60,20.64,13.60
1775523488.11,50.448451,30.451569,302.99,621.90,1.20,-1.99,1393,1850,1477,1503,0,-5.52,20.62,13.60
1775523488.21,50.448451,30.451569,302.99,621.90,1.20,-1.99,1386,1850,1541,1503,0,-5.52,20.62,13.60
1775523488.31,50.448423,30.451549,303.65,618.51,1.24,-2.65,1392,1850,1471,1503,0,-5.46,20.62,13.60
1775523488.41,50.448423,30.451549,303.65,618.51,1.24,-2.65,1387,1850,1537,1503,0,-5.46,20.62,13.60
1775523488.51,50.448423,30.451549,303.65,618.51,1.24,-2.65,1387,1850,1537,1503,0,-5.46,20.62,13.60
1775523488.61,50.448396,30.451530,304.31,615.11,1.27,-3.31,1393,1850,1466,1503,0,-5.37,20.63,13.58
1775523488.71,50.448396,30.451530,304.31,615.11,1.27,-3.31,1388,1850,1532,1503,0,-5.37,20.63,13.58
1775523488.81,50.448368,30.451510,304.96,611.72,1.30,-3.96,1393,1850,1464,1503,0,-5.32,20.63,13.55
1775523488.91,50.448368,30.451510,304.96,611.72,1.30,-3.96,1389,1850,1528,1503,0,-5.32,20.63,13.55
1775523489.02,50.448368,30.451510,304.96,611.72,1.30,-3.96,1390,1850,1528,1503,0,-5.32,20.63,13.55
1775523489.12,50.448340,30.451491,305.45,608.34,1.33,-4.45,1394,1850,1475,1503,0,-5.27,20.61,13.48
1775523489.22,50.448340,30.451491,305.45,608.34,1.33,-4.45,1391,1850,1524,1503,0,-5.27,20.61,13.48
1775523489.32,50.448313,30.451472,305.89,604.98,1.35,-4.89,1394,1850,1478,1503,0,-5.25,20.61,13.45
1775523489.42,50.448313,30.451472,305.89,604.98,1.35,-4.89,1391,1850,1521,1503,0,-5.25,20.61,13.45
1775523489.52,50.448313,30.451472,305.89,604.98,1.35,-4.89,1392,1850,1521,1503,0,-5.25,20.61,13.45
1775523489.62,50.448285,30.451452,306.30,601.63,1.37,-5.30,1396,1850,1477,1503,0,-5.17,20.61,13.39
1775523489.72,50.448285,30.451452,306.30,601.63,1.37,-5.30,1393,1850,1518,1503,0,-5.17,20.61,13.39
1775523489.82,50.448258,30.451433,306.68,598.30,1.40,-5.68,1396,1850,1477,1503,0,-5.09,20.62,13.37
1775523489.92,50.448258,30.451433,306.68,598.30,1.40,-5.68,1393,1850,1515,1503,0,-5.09,20.62,13.37
1775523490.02,50.448258,30.451433,306.68,598.30,1.40,-5.68,1394,1850,1514,1503,0,-5.09,20.62,13.37
1775523490.12,50.448230,30.451414,306.99,594.96,1.41,-5.99,1396,1850,1481,1503,0,-5.03,20.59,13.35
1775523490.22,50.448230,30.451414,306.99,594.96,1.41,-5.99,1394,1850,1512,1503,0,-5.03,20.59,13.35
1775523490.32,50.448203,30.451395,307.32,591.63,1.42,-6.32,1396,1850,1476,1503,0,-5.01,20.59,13.36
1775523490.42,50.448203,30.451395,307.32,591.63,1.42,-6.32,1395,1850,1509,1503,0,-5.01,20.59,13.36
1775523490.52,50.448203,30.451395,307.32,591.63,1.42,-6.32,1395,1850,1509,1503,0,-5.01,20.59,13.36
1775523490.62,50.448175,30.451376,307.71,588.29,1.43,-6.71,1397,1850,1467,1503,0,-4.99,20.60,13.32
1775523490.72,50.448175,30.451376,307.71,588.29,1.43,-6.71,1395,1850,1505,1503,0,-4.99,20.60,13.32
1775523490.82,50.448148,30.451358,308.12,584.95,1.44,-7.12,1397,1850,1461,1503,0,-4.96,20.61,13.31
1775523490.92,50.448148,30.451358,308.12,584.95,1.44,-7.12,1396,1850,1502,1503,0,-4.96,20.61,13.31
1775523491.02,50.448148,30.451358,308.12,584.95,1.44,-7.12,1396,1850,1502,1503,0,-4.96,20.61,13.31
1775523491.12,50.448121,30.451339,308.56,581.64,1.45,-7.56,1397,1850,1456,1503,0,-4.91,20.61,13.22
1775523491.22,50.448121,30.451339,308.56,581.64,1.45,-7.56,1396,1850,1498,1503,0,-4.91,20.61,13.22
1775523491.32,50.448093,30.451320,308.98,578.34,1.45,-7.98,1397,1850,1453,1503,0,-4.89,20.62,13.18
1775523491.42,50.448093,30.451320,308.98,578.34,1.45,-7.98,1397,1850,1495,1503,0,-4.89,20.62,13.18
1775523491.52,50.448093,30.451320,308.98,578.34,1.45,-7.98,1397,1850,1494,1503,0,-4.89,20.62,13.18
1775523491.62,50.448066,30.451302,309.36,575.05,1.45,-8.36,1396,1850,1454,1503,0,-4.88,20.62,13.12
1775523491.73,50.448066,30.451302,309.36,575.05,1.45,-8.36,1397,1850,1491,1503,0,-4.88,20.62,13.12
1775523491.83,50.448039,30.451283,309.69,571.76,1.44,-8.69,1396,1850,1455,1503,0,-4.88,20.63,13.12
1775523491.93,50.448039,30.451283,309.69,571.76,1.44,-8.69,1397,1850,1488,1503,0,-4.88,20.63,13.12
1775523492.03,50.448039,30.451283,309.69,571.76,1.44,-8.69,1397,1850,1487,1503,0,-4.88,20.63,13.12
1775523492.13,50.448012,30.451265,309.98,568.49,1.44,-8.98,1396,1850,1456,1503,0,-4.88,20.63,13.09
1775523492.23,50.448012,30.451265,309.98,568.49,1.44,-8.98,1397,1850,1485,1503,0,-4.88,20.63,13.09
1775523492.33,50.447985,30.451246,310.25,565.22,1.44,-9.25,1397,1850,1455,1503,0,-4.90,20.63,13.07
1775523492.43,50.447985,30.451246,310.25,565.22,1.44,-9.25,1397,1850,1482,1503,0,-4.90,20.63,13.07
1775523492.53,50.447985,30.451246,310.25,565.22,1.44,-9.25,1397,1850,1481,1503,0,-4.90,20.63,13.07
1775523492.63,50.447958,30.451228,310.44,561.96,1.43,-9.44,1396,1850,1461,1503,0,-4.88,20.64,13.04
1775523492.73,50.447958,30.451228,310.44,561.96,1.43,-9.44,1397,1850,1479,1503,0,-4.88,20.64,13.04
1775523492.83,50.447932,30.451210,310.59,558.68,1.42,-9.59,1395,1850,1462,1503,0,-4.88,20.63,13.05
1775523492.93,50.447932,30.451210,310.59,558.68,1.42,-9.59,1397,1850,1477,1503,0,-4.88,20.63,13.05
1775523493.03,50.447932,30.451210,310.59,558.68,1.42,-9.59,1397,1850,1476,1503,0,-4.88,20.63,13.05
1775523493.13,50.447905,30.451191,310.74,555.43,1.41,-9.74,1397,1850,1460,1503,0,-4.90,20.62,13.02
1775523493.23,50.447905,30.451191,310.74,555.43,1.41,-9.74,1397,1850,1474,1503,0,-4.90,20.62,13.02
1775523493.33,50.447878,30.451173,310.83,552.18,1.40,-9.83,1395,1850,1463,1503,0,-4.86,20.62,13.01
1775523493.43,50.447878,30.451173,310.83,552.18,1.40,-9.83,1397,1850,1473,1503,0,-4.86,20.62,13.01
1775523493.53,50.447878,30.451173,310.83,552.18,1.40,-9.83,1397,1850,1472,1503,0,-4.86,20.62,13.01
1775523493.63,50.447851,30.451155,310.91,548.93,1.39,-9.91,1396,1850,1463,1503,0,-4.89,20.63,12.98
1775523493.73,50.447851,30.451155,310.91,548.93,1.39,-9.91,1397,1850,1470,1503,0,-4.89,20.63,12.98
1775523493.83,50.447824,30.451137,310.92,545.70,1.37,-9.92,1394,1850,1469,1503,0,-4.89,20.62,12.97
1775523493.93,50.447824,30.451137,310.92,545.70,1.37,-9.92,1397,1850,1469,1503,0,-4.89,20.62,12.97
1775523494.03,50.447824,30.451137,310.92,545.70,1.37,-9.92,1397,1850,1468,1503,0,-4.89,20.62,12.97
1775523494.13,50.447798,30.451119,310.86,542.47,1.34,-9.86,1393,1850,1474,1503,0,-4.92,20.61,12.95
1775523494.24,50.447798,30.451119,310.86,542.47,1.34,-9.86,1396,1850,1468,1503,0,-4.92,20.61,12.95
1775523494.34,50.447771,30.451101,310.78,539.24,1.32,-9.78,1392,1850,1475,1503,0,-4.95,20.60,12.88
1775523494.44,50.447771,30.451101,310.78,539.24,1.32,-9.78,1396,1850,1467,1503,0,-4.95,20.60,12.88
1775523494.54,50.447771,30.451101,310.78,539.24,1.32,-9.78,1396,1850,1466,1503,0,-4.95,20.60,12.88
1775523494.64,50.447745,30.451083,310.73,536.03,1.31,-9.73,1394,1850,1471,1503,0,-5.00,20.60,12.87
1775523494.74,50.447745,30.451083,310.73,536.03,1.31,-9.73,1396,1850,1465,1503,0,-5.00,20.60,12.87
1775523494.84,50.447718,30.451065,310.68,532.82,1.30,-9.68,1395,1850,1471,1503,0,-4.98,20.61,12.83
1775523494.94,50.447718,30.451065,310.68,532.82,1.30,-9.68,1396,1850,1465,1503,0,-4.98,20.61,12.83
1775523495.04,50.447718,30.451065,310.68,532.82,1.30,-9.68,1396,1850,1464,1503,0,-4.98,20.61,12.83
1775523495.14,50.447692,30.451047,310.61,529.61,1.30,-9.61,1395,1850,1471,1503,0,-4.96,20.62,12.84
1775523495.24,50.447692,30.451047,310.61,529.61,1.30,-9.61,1396,1850,1463,1503,0,-4.96,20.62,12.84
1775523495.34,50.447665,30.451029,310.51,526.41,1.29,-9.51,1395,1850,1472,1503,0,-4.96,20.63,12.82
1775523495.44,50.447665,30.451029,310.51,526.41,1.29,-9.51,1396,1850,1463,1503,0,-4.96,20.63,12.82
1775523495.54,50.447665,30.451029,310.51,526.41,1.29,-9.51,1396,1850,1462,1503,0,-4.96,20.63,12.82
1775523495.64,50.447639,30.451011,310.43,523.21,1.29,-9.43,1395,1850,1470,1503,0,-4.96,20.62,12.78
1775523495.74,50.447639,30.451011,310.43,523.21,1.29,-9.43,1396,1850,1462,1503,0,-4.96,20.62,12.78
1775523495.84,50.447613,30.450993,310.36,520.01,1.29,-9.36,1396,1850,1469,1503,0,-4.94,20.62,12.79
1775523495.94,50.447613,30.450993,310.36,520.01,1.29,-9.36,1396,1850,1461,1503,0,-4.94,20.62,12.79
1775523496.04,50.447613,30.450993,310.36,520.01,1.29,-9.36,1396,1850,1460,1503,0,-4.94,20.62,12.79
1775523496.14,50.447586,30.450975,310.31,516.82,1.28,-9.31,1395,1850,1464,1503,0,-4.95,20.62,12.72
1775523496.24,50.447586,30.450975,310.31,516.82,1.28,-9.31,1396,1850,1459,1503,0,-4.95,20.62,12.72
1775523496.34,50.447560,30.450958,310.30,513.65,1.28,-9.30,1397,1850,1460,1503,0,-4.96,20.61,12.70
1775523496.44,50.447560,30.450958,310.30,513.65,1.28,-9.30,1396,1850,1458,1503,0,-4.96,20.61,12.70
1775523496.54,50.447560,30.450958,310.30,513.65,1.28,-9.30,1396,1850,1458,1503,0,-4.96,20.61,12.70
1775523496.64,50.447534,30.450940,310.30,510.49,1.29,-9.30,1398,1850,1457,1503,0,-4.94,20.61,12.71
1775523496.74,50.447534,30.450940,310.30,510.49,1.29,-9.30,1397,1850,1457,1503,0,-4.94,20.61,12.71
1775523496.85,50.447508,30.450922,310.28,507.32,1.29,-9.28,1397,1850,1458,1503,0,-4.89,20.61,12.72
1775523496.95,50.447508,30.450922,310.28,507.32,1.29,-9.28,1397,1850,1456,1503,0,-4.89,20.61,12.72
1775523497.05,50.447508,30.450922,310.28,507.32,1.29,-9.28,1397,1850,1455,1503,0,-4.89,20.61,12.72
1775523497.15,50.447482,30.450904,310.25,504.15,1.29,-9.25,1398,1850,1458,1503,0,-4.86,20.62,12.71
1775523497.25,50.447482,30.450904,310.25,504.15,1.29,-9.25,1397,1850,1454,1503,0,-4.86,20.62,12.71
1775523497.35,50.447456,30.450886,310.18,500.97,1.28,-9.18,1396,1850,1462,1503,0,-4.85,20.62,12.72
1775523497.45,50.447456,30.450886,310.18,500.97,1.28,-9.18,1397,1850,1454,1503,0,-4.85,20.62,12.72
1775523497.55,50.447456,30.450886,310.18,500.97,1.28,-9.18,1397,1850,1453,1503,0,-4.85,20.62,12.72
1775523497.65,50.447430,30.450868,310.06,497.80,1.28,-9.06,1397,1850,1465,1503,0,-4.86,20.62,12.71
1775523497.75,50.447430,30.450868,310.06,497.80,1.28,-9.06,1397,1850,1453,1503,0,-4.86,20.62,12.71
1775523497.85,50.447404,30.450850,309.89,494.63,1.28,-8.89,1398,1850,1470,1503,0,-4.87,20.61,12.70
1775523497.95,50.447404,30.450850,309.89,494.63,1.28,-8.89,1398,1850,1453,1503,0,-4.87,20.61,12.70
1775523498.05,50.447378,30.450833,309.67,491.47,1.28,-8.67,1397,1850,1475,1503,0,-4.84,20.63,12.66
1775523498.15,50.447378,30.450833,309.67,491.47,1.28,-8.67,1398,1850,1453,1503,0,-4.84,20.63,12.66
1775523498.25,50.447378,30.450833,309.67,491.47,1.28,-8.67,1398,1850,1452,1503,0,-4.84,20.63,12.66
1775523498.35,50.447351,30.450815,309.47,488.30,1.27,-8.47,1397,1850,1472,1503,0,-4.83,20.62,12.66
1775523498.45,50.447351,30.450815,309.47,488.30,1.27,-8.47,1398,1850,1452,1503,0,-4.83,20.62,12.66
1775523498.55,50.447325,30.450797,309.27,485.13,1.27,-8.27,1397,1850,1473,1503,0,-4.83,20.62,12.69
1775523498.65,50.447325,30.450797,309.27,485.13,1.27,-8.27,1398,1850,1453,1503,0,-4.83,20.62,12.69
1775523498.75,50.447325,30.450797,309.27,485.13,1.27,-8.27,1398,1850,1452,1503,0,-4.83,20.62,12.69
1775523498.85,50.447299,30.450779,309.09,481.97,1.27,-8.09,1398,1850,1471,1503,0,-4.83,20.61,12.64
1775523498.95,50.447299,30.450779,309.09,481.97,1.27,-8.09,1398,1850,1452,1503,0,-4.83,20.61,12.64
1775523499.05,50.447273,30.450761,308.93,478.80,1.27,-7.93,1399,1850,1469,1503,0,-4.81,20.61,12.66
1775523499.15,50.447273,30.450761,308.93,478.80,1.27,-7.93,1398,1850,1452,1503,0,-4.81,20.61,12.66
1775523499.25,50.447273,30.450761,308.93,478.80,1.27,-7.93,1399,1850,1452,1503,0,-4.81,20.61,12.66
1775523499.36,50.447247,30.450743,308.73,475.63,1.27,-7.73,1399,1850,1473,1503,0,-4.79,20.61,12.67
1775523499.46,50.447247,30.450743,308.73,475.63,1.27,-7.73,1399,1850,1452,1503,0,-4.79,20.61,12.67
1775523499.56,50.447247,30.450743,308.73,475.63,1.27,-7.73,1399,1850,1452,1503,0,-4.79,20.61,12.67
1775523499.66,50.447221,30.450726,308.51,472.47,1.27,-7.51,1398,1850,1473,1503,0,-4.77,20.61,12.67
1775523499.76,50.447221,30.450726,308.51,472.47,1.27,-7.51,1399,1850,1452,1503,0,-4.77,20.61,12.67
1775523499.86,50.447195,30.450708,308.28,469.31,1.27,-7.28,1399,1850,1477,1503,0,-4.76,20.61,12.68
1775523499.96,50.447195,30.450708,308.28,469.31,1.27,-7.28,1399,1850,1453,1503,0,-4.76,20.61,12.68
1775523500.06,50.447195,30.450708,308.28,469.31,1.27,-7.28,1399,1850,1452,1503,0,-4.76,20.61,12.68
1775523500.16,50.447169,30.450690,308.00,466.13,1.26,-7.00,1398,1850,1481,1503,0,-4.76,20.61,12.71
1775523500.26,50.447169,30.450690,308.00,466.13,1.26,-7.00,1399,1850,1453,1503,0,-4.76,20.61,12.71
1775523500.36,50.447143,30.450672,307.71,462.97,1.24,-6.71,1397,1850,1483,1503,0,-4.75,20.63,12.70
1775523500.46,50.447143,30.450672,307.71,462.97,1.24,-6.71,1399,1850,1454,1503,0,-4.75,20.63,12.70
1775523500.56,50.447143,30.450672,307.71,462.97,1.24,-6.71,1399,1850,1453,1503,0,-4.75,20.63,12.70
1775523500.66,50.447116,30.450654,307.41,459.79,1.24,-6.41,1398,1850,1485,1503,0,-4.78,20.63,12.70
1775523500.76,50.447116,30.450654,307.41,459.79,1.24,-6.41,1399,1850,1454,1503,0,-4.78,20.63,12.70
1775523500.86,50.447090,30.450637,307.12,456.63,1.22,-6.12,1396,1850,1484,1503,0,-4.77,20.64,12.68
1775523500.96,50.447090,30.450637,307.12,456.63,1.22,-6.12,1398,1850,1455,1503,0,-4.77,20.64,12.68
1775523501.06,50.447090,30.450637,307.12,456.63,1.22,-6.12,1399,1850,1455,1503,0,-4.77,20.64,12.68
1775523501.16,50.447064,30.450619,306.90,453.45,1.20,-5.90,1396,1850,1479,1503,0,-4.81,20.62,12.63
1775523501.26,50.447064,30.450619,306.90,453.45,1.20,-5.90,1398,1850,1456,1503,0,-4.81,20.62,12.63
1775523501.36,50.447038,30.450601,306.70,450.30,1.20,-5.70,1397,1850,1476,1503,0,-4.83,20.61,12.62
1775523501.46,50.447038,30.450601,306.70,450.30,1.20,-5.70,1398,1850,1456,1503,0,-4.83,20.61,12.62
1775523501.56,50.447012,30.450584,306.56,447.16,1.19,-5.56,1397,1850,1471,1503,0,-4.84,20.62,12.60
1775523501.66,50.447012,30.450584,306.56,447.16,1.19,-5.56,1398,1850,1456,1503,0,-4.84,20.62,12.60
1775523501.76,50.447012,30.450584,306.56,447.16,1.19,-5.56,1398,1850,1456,1503,0,-4.84,20.62,12.60
1775523501.87,50.446986,30.450566,306.39,444.00,1.18,-5.39,1397,1850,1473,1503,0,-4.84,20.63,12.62
1775523501.97,50.446986,30.450566,306.39,444.00,1.18,-5.39,1398,1850,1456,1503,0,-4.84,20.63,12.62
1775523502.07,50.446960,30.450548,306.23,440.85,1.17,-5.23,1397,1850,1473,1503,0,-4.84,20.63,12.64
1775523502.17,50.446960,30.450548,306.23,440.85,1.17,-5.23,1398,1850,1457,1503,0,-4.84,20.63,12.64
1775523502.27,50.446960,30.450548,306.23,440.85,1.17,-5.23,1398,1850,1456,1503,0,-4.84,20.63,12.64
1775523502.37,50.446934,30.450531,306.07,437.69,1.16,-5.07,1396,1850,1473,1503,0,-4.83,20.63,12.59
1775523502.47,50.446934,30.450531,306.07,437.69,1.16,-5.07,1398,1850,1457,1503,0,-4.83,20.63,12.59
1775523502.57,50.446908,30.450513,305.91,434.54,1.15,-4.91,1397,1850,1473,1503,0,-4.82,20.64,12.62
1775523502.67,50.446908,30.450513,305.91,434.54,1.15,-4.91,1398,1850,1457,1503,0,-4.82,20.64,12.62
1775523502.77,50.446908,30.450513,305.91,434.54,1.15,-4.91,1398,1850,1457,1503,0,-4.82,20.64,12.62
1775523502.87,50.446882,30.450495,305.74,431.38,1.14,-4.74,1395,1850,1474,1503,0,-4.82,20.64,12.62
1775523502.97,50.446882,30.450495,305.74,431.38,1.14,-4.74,1398,1850,1457,1503,0,-4.82,20.64,12.62
1775523503.07,50.446856,30.450478,305.59,428.24,1.13,-4.59,1396,1850,1474,1503,0,-4.84,20.62,12.57
1775523503.17,50.446856,30.450478,305.59,428.24,1.13,-4.59,1397,1850,1458,1503,0,-4.84,20.62,12.57
1775523503.27,50.446856,30.450478,305.59,428.24,1.13,-4.59,1398,1850,1457,1503,0,-4.84,20.62,12.57
1775523503.37,50.446830,30.450460,305.46,425.07,1.11,-4.46,1395,1850,1471,1503,0,-4.87,20.61,12.59
1775523503.47,50.446830,30.450460,305.46,425.07,1.11,-4.46,1397,1850,1458,1503,0,-4.87,20.61,12.59
1775523503.57,50.446804,30.450443,305.33,421.92,1.10,-4.33,1395,1850,1471,1503,0,-4.88,20.62,12.61
1775523503.67,50.446804,30.450443,305.33,421.92,1.10,-4.33,1397,1850,1458,1503,0,-4.88,20.62,12.61
1775523503.77,50.446804,30.450443,305.33,421.92,1.10,-4.33,1397,1850,1458,1503,0,-4.88,20.62,12.61
1775523503.87,50.446778,30.450425,305.21,418.77,1.09,-4.21,1396,1850,1469,1503,0,-4.91,20.62,12.59
1775523503.97,50.446778,30.450425,305.21,418.77,1.09,-4.21,1397,1850,1458,1503,0,-4.91,20.62,12.59
1775523504.07,50.446752,30.450407,305.11,415.62,1.08,-4.11,1395,1850,1468,1503,0,-4.89,20.63,12.58
1775523504.18,50.446752,30.450407,305.11,415.62,1.08,-4.11,1397,1850,1458,1503,0,-4.89,20.63,12.58
1775523504.28,50.446752,30.450407,305.11,415.62,1.08,-4.11,1397,1850,1458,1503,0,-4.89,20.63,12.58
1775523504.38,50.446726,30.450390,305.00,412.47,1.07,-4.00,1395,1850,1469,1503,0,-4.90,20.63,12.56
1775523504.48,50.446726,30.450390,305.00,412.47,1.07,-4.00,1397,1850,1458,1503,0,-4.90,20.63,12.56
1775523504.58,50.446700,30.450372,304.93,409.32,1.06,-3.93,1396,1850,1465,1503,0,-4.90,20.64,12.57
1775523504.68,50.446700,30.450372,304.93,409.32,1.06,-3.93,1397,1850,1458,1503,0,-4.90,20.64,12.57
1775523504.78,50.446700,30.450372,304.93,409.32,1.06,-3.93,1397,1850,1458,1503,0,-4.90,20.64,12.57
1775523504.88,50.446674,30.450354,304.85,406.18,1.05,-3.85,1395,1850,1466,1503,0,-4.91,20.62,12.60
1775523504.98,50.446674,30.450354,304.85,406.18,1.05,-3.85,1397,1850,1458,1503,0,-4.91,20.62,12.60
1775523505.08,50.446648,30.450337,304.74,403.01,1.04,-3.74,1395,1850,1470,1503,0,-4.91,20.62,12.64
1775523505.18,50.446648,30.450337,304.74,403.01,1.04,-3.74,1396,1850,1458,1503,0,-4.91,20.62,12.64
1775523505.28,50.446648,30.450337,304.74,403.01,1.04,-3.74,1396,1850,1458,1503,0,-4.91,20.62,12.64
1775523505.38,50.446622,30.450319,304.59,399.85,1.03,-3.59,1395,1850,1473,1503,0,-4.93,20.61,12.66
1775523505.48,50.446622,30.450319,304.59,399.85,1.03,-3.59,1396,1850,1458,1503,0,-4.93,20.61,12.66
1775523505.58,50.446596,30.450301,304.45,396.70,1.02,-3.45,1394,1850,1473,1503,0,-4.94,20.61,12.66
1775523505.68,50.446596,30.450301,304.45,396.70,1.02,-3.45,1396,1850,1458,1503,0,-4.94,20.61,12.66
1775523505.78,50.446596,30.450301,304.45,396.70,1.02,-3.45,1396,1850,1458,1503,0,-4.94,20.61,12.66
1775523505.88,50.446570,30.450284,304.31,393.55,1.00,-3.31,1394,1850,1473,1503,0,-4.95,20.61,12.64
1775523505.98,50.446570,30.450284,304.31,393.55,1.00,-3.31,1396,1850,1459,1503,0,-4.95,20.61,12.64
1775523506.08,50.446544,30.450266,304.19,390.40,1.00,-3.19,1395,1850,1471,1503,0,-4.96,20.62,12.62
1775523506.18,50.446544,30.450266,304.19,390.40,1.00,-3.19,1396,1850,1459,1503,0,-4.96,20.62,12.62
1775523506.28,50.446544,30.450266,304.19,390.40,1.00,-3.19,1396,1850,1459,1503,0,-4.96,20.62,12.62
1775523506.38,50.446519,30.450249,304.11,387.27,1.00,-3.11,1395,1850,1467,1503,0,-4.97,20.61,12.62
1775523506.48,50.446519,30.450249,304.11,387.27,1.00,-3.11,1396,1850,1459,1503,0,-4.97,20.61,12.62
1775523506.59,50.446493,30.450231,304.01,384.14,1.00,-3.01,1396,1850,1469,1503,0,-4.95,20.61,12.60
1775523506.69,50.446493,30.450231,304.01,384.14,1.00,-3.01,1396,1850,1459,1503,0,-4.95,20.61,12.60
1775523506.79,50.446493,30.450231,304.01,384.14,1.00,-3.01,1396,1850,1459,1503,0,-4.95,20.61,12.60
1775523506.89,50.446467,30.450213,303.89,380.99,1.00,-2.89,1396,1850,1471,1503,0,-4.93,20.63,12.62
1775523506.99,50.446467,30.450213,303.89,380.99,1.00,-2.89,1396,1850,1459,1503,0,-4.93,20.63,12.62
1775523507.09,50.446441,30.450195,303.79,377.85,0.99,-2.79,1396,1850,1470,1503,0,-4.92,20.63,12.60
1775523507.19,50.446441,30.450195,303.79,377.85,0.99,-2.79,1396,1850,1460,1503,0,-4.92,20.63,12.60
1775523507.29,50.446441,30.450195,303.79,377.85,0.99,-2.79,1396,1850,1459,1503,0,-4.92,20.63,12.60
1775523507.39,50.446415,30.450178,303.70,374.69,0.99,-2.70,1396,1850,1469,1503,0,-4.91,20.63,12.57
1775523507.49,50.446415,30.450178,303.70,374.69,0.99,-2.70,1397,1850,1460,1503,0,-4.91,20.63,12.57
1775523507.59,50.446389,30.450160,303.57,371.56,0.99,-2.57,1396,1850,1473,1503,0,-4.90,20.62,12.56
1775523507.69,50.446389,30.450160,303.57,371.56,0.99,-2.57,1397,1850,1460,1503,0,-4.90,20.62,12.56
1775523507.79,50.446389,30.450160,303.57,371.56,0.99,-2.57,1397,1850,1460,1503,0,-4.90,20.62,12.56
1775523507.89,50.446363,30.450142,303.47,368.42,0.98,-2.47,1395,1850,1470,1503,0,-4.90,20.62,12.55
1775523507.99,50.446363,30.450142,303.47,368.42,0.98,-2.47,1396,1850,1460,1503,0,-4.90,20.62,12.55
1775523508.09,50.446337,30.450125,303.35,365.27,0.98,-2.35,1396,1850,1473,1503,0,-4.91,20.63,12.57
1775523508.19,50.446337,30.450125,303.35,365.27,0.98,-2.35,1397,1850,1461,1503,0,-4.91,20.63,12.57
1775523508.29,50.446337,30.450125,303.35,365.27,0.98,-2.35,1397,1850,1461,1503,0,-4.91,20.63,12.57
1775523508.39,50.446311,30.450107,303.21,362.13,0.97,-2.21,1395,1850,1475,1503,0,-4.92,20.63,12.58
1775523508.49,50.446311,30.450107,303.21,362.13,0.97,-2.21,1396,1850,1461,1503,0,-4.92,20.63,12.58
1775523508.59,50.446285,30.450090,303.08,358.98,0.96,-2.08,1395,1850,1475,1503,0,-4.92,20.63,12.63
1775523508.69,50.446285,30.450090,303.08,358.98,0.96,-2.08,1396,1850,1462,1503,0,-4.92,20.63,12.63
1775523508.79,50.446285,30.450090,303.08,358.98,0.96,-2.08,1396,1850,1462,1503,0,-4.92,20.63,12.63
1775523508.89,50.446259,30.450072,302.98,355.82,0.95,-1.98,1394,1850,1472,1503,0,-4.95,20.62,12.59
1775523509.00,50.446259,30.450072,302.98,355.82,0.95,-1.98,1396,1850,1462,1503,0,-4.95,20.62,12.59
1775523509.10,50.446233,30.450054,302.91,352.67,0.95,-1.91,1396,1850,1470,1503,0,-4.97,20.61,12.62
1775523509.20,50.446233,30.450054,302.91,352.67,0.95,-1.91,1396,1850,1462,1503,0,-4.97,20.61,12.62
1775523509.30,50.446233,30.450054,302.91,352.67,0.95,-1.91,1396,1850,1462,1503,0,-4.97,20.61,12.62
