Timestamp,Lat,Lon,Alt,DistToTarget,XTE,AltError,RollPWM,PitchPWM,ThrottlePWM,YawPWM,Heading,RollDeg,PitchDeg,GroundSpeed
1775515472.53,50.450739,30.453154,0.00,900.25,0.00,5.00,1500,1500,1800,1500,1,0.10,0.08,0.01
1775515472.63,50.450739,30.453154,0.00,900.25,0.00,5.00,1500,1500,1545,1500,1,0.10,0.08,0.01
1775515472.73,50.450739,30.453154,0.00,900.25,0.00,5.00,1500,1500,1545,1500,1,0.10,0.08,0.01
1775515472.83,50.450739,30.453154,0.00,900.25,0.00,5.00,1500,1500,1545,1500,1,0.10,0.09,0.01
1775515472.93,50.450739,30.453154,0.00,900.25,0.00,5.00,1500,1500,1546,1500,1,0.10,0.09,0.01
1775515473.03,50.450739,30.453154,0.00,900.25,0.00,5.00,1500,1500,1546,1500,1,0.10,0.09,0.01
1775515473.13,50.450739,30.453154,0.00,900.25,0.00,5.00,1500,1500,1546,1500,1,0.10,0.09,0.01
1775515473.23,50.450739,30.453154,0.00,900.25,0.00,5.00,1500,1500,1547,1500,1,0.10,0.09,0.01
1775515473.33,50.450739,30.453154,0.00,900.25,0.00,5.00,1500,1500,1547,1500,1,0.10,0.09,0.01
1775515473.43,50.450739,30.453154,0.00,900.25,0.00,5.00,1500,1500,1547,1500,1,0.10,0.09,0.01
1775515473.53,50.450739,30.453154,0.00,900.25,0.00,5.00,1500,1500,1548,1500,1,0.11,0.09,0.01
1775515473.63,50.450739,30.453154,0.00,900.25,0.00,5.00,1500,1500,1548,1500,1,0.11,0.09,0.01
1775515473.73,50.450739,30.453154,0.00,900.25,0.00,5.00,1500,1500,1548,1500,1,0.11,0.09,0.01
1775515473.83,50.450739,30.453154,0.00,900.25,0.00,5.00,1500,1500,1548,1500,1,0.11,0.10,0.01
1775515473.93,50.450739,30.453154,0.00,900.25,0.00,5.00,1500,1500,1549,1500,1,0.11,0.10,0.01
1775515474.03,50.450739,30.453154,0.00,900.25,0.00,5.00,1500,1500,1549,1500,1,0.12,0.10,0.01
1775515474.13,50.450739,30.453154,0.00,900.25,0.00,5.00,1500,1500,1549,1500,1,0.12,0.10,0.01
1775515474.24,50.450739,30.453154,0.00,900.25,0.00,5.00,1500,1500,1550,1500,1,0.12,0.10,0.01
1775515474.34,50.450739,30.453154,0.00,900.25,0.00,5.00,1500,1500,1550,1500,1,0.12,0.11,0.00
1775515474.44,50.450739,30.453154,0.00,900.25,0.00,5.00,1500,1500,1550,1500,1,0.12,0.11,0.00
1775515474.54,50.450739,30.453154,0.04,900.25,0.00,4.96,1500,1500,1546,1500,1,0.12,0.11,0.01
1775515474.64,50.450739,30.453154,0.04,900.25,0.00,4.96,1500,1500,1551,1500,1,0.12,0.11,0.01
1775515474.74,50.450739,30.453154,0.04,900.25,0.00,4.96,1500,1500,1551,1500,1,0.12,0.11,0.01
1775515474.84,50.450739,30.453154,0.09,900.25,0.00,4.91,1500,1500,1546,1500,1,0.13,0.11,0.01
1775515474.94,50.450739,30.453154,0.09,900.25,0.00,4.91,1500,1500,1551,1500,1,0.13,0.11,0.01
1775515475.04,50.450739,30.453154,0.12,900.25,0.00,4.88,1500,1500,1547,1500,1,0.10,0.10,0.01
1775515475.14,50.450739,30.453154,0.12,900.25,0.00,4.88,1500,1500,1552,1500,1,0.10,0.10,0.01
1775515475.24,50.450739,30.453154,0.41,900.25,0.00,4.59,1500,1500,1522,1500,1,-0.02,-0.03,0.01
1775515475.34,50.450739,30.453154,0.41,900.25,0.00,4.59,1500,1500,1550,1500,1,-0.02,-0.03,0.01
1775515475.44,50.450739,30.453154,0.41,900.25,0.00,4.59,1500,1500,1551,1500,1,-0.02,-0.03,0.01
1775515475.54,50.450739,30.453154,0.91,900.25,0.00,4.09,1500,1500,1498,1500,1,-0.07,-0.06,0.03
1775515475.64,50.450739,30.453154,0.91,900.25,0.00,4.09,1500,1500,1548,1500,1,-0.07,-0.06,0.03
1775515475.74,50.450739,30.453154,1.41,900.25,0.00,3.59,1500,1500,1495,1500,1,-0.08,-0.07,0.04
1775515475.84,50.450739,30.453154,1.41,900.25,0.00,3.59,1500,1500,1546,1500,1,-0.08,-0.07,0.04
1775515475.94,50.450739,30.453154,1.41,900.25,0.00,3.59,1500,1500,1546,1500,1,-0.08,-0.07,0.04
1775515476.04,50.450739,30.453154,1.94,900.25,0.00,3.06,1500,1500,1490,1500,1,-0.05,-0.04,0.08
1775515476.14,50.450739,30.453154,1.94,900.25,0.00,3.06,1500,1500,1543,1500,1,-0.05,-0.04,0.08
1775515476.24,50.450739,30.453153,2.45,900.25,0.00,2.55,1500,1500,1489,1500,1,-0.04,-0.04,0.14
1775515476.34,50.450739,30.453153,2.45,900.25,0.00,2.55,1500,1500,1540,1500,1,-0.04,-0.04,0.14
1775515476.44,50.450739,30.453153,2.45,900.25,0.00,2.55,1500,1500,1540,1500,1,-0.04,-0.04,0.14
1775515476.54,50.450739,30.453153,2.96,900.25,0.00,2.04,1500,1500,1487,1507,0,-0.01,-0.04,0.18
1775515476.64,50.450739,30.453153,2.96,900.25,0.00,2.04,1500,1500,1538,1503,0,-0.01,-0.04,0.18
1775515476.74,50.450738,30.453153,3.51,900.25,0.00,1.49,1500,1500,1481,1503,0,-0.01,-0.04,0.24
1775515476.85,50.450738,30.453153,3.51,900.25,0.00,1.49,1500,1500,1534,1503,0,-0.01,-0.04,0.24
1775515476.95,50.450738,30.453153,3.51,900.25,0.00,1.49,1500,1500,1535,1503,0,-0.01,-0.04,0.24
1775515477.05,50.450738,30.453152,4.07,900.25,0.00,0.93,1500,1500,1475,1503,0,-0.02,-0.02,0.33
1775515477.15,50.450738,30.453152,4.07,900.25,0.00,0.93,1500,1500,1531,1503,0,-0.02,-0.02,0.33
1775515477.25,50.450737,30.453151,4.62,899.97,0.10,2.38,1551,1631,1800,1900,0,-0.02,0.00,0.39
1775515477.35,50.450737,30.453151,4.62,899.97,0.10,4.38,1463,1593,1725,1503,0,-0.02,0.00,0.39
1775515477.45,50.450737,30.453151,4.62,899.97,0.10,6.38,1463,1593,1737,1503,0,-0.02,0.00,0.39
1775515477.55,50.450736,30.453150,5.36,899.87,0.12,7.64,1467,1594,1672,1495,1,0.18,2.33,0.51
1775515477.65,50.450736,30.453150,5.36,899.87,0.12,9.64,1465,1593,1758,1500,1,0.18,2.33,0.51
1775515477.75,50.450735,30.453149,6.43,899.70,0.13,10.57,1472,1596,1657,1476,4,-0.44,4.00,0.80
1775515477.85,50.450735,30.453149,6.43,899.70,0.13,12.57,1470,1595,1777,1490,4,-0.44,4.00,0.80
1775515477.95,50.450735,30.453149,6.43,899.70,0.13,14.57,1471,1595,1790,1490,4,-0.44,4.00,0.80
1775515478.05,50.450733,30.453148,7.74,899.46,0.13,15.26,1470,1595,1664,1490,4,-0.67,4.54,1.16
1775515478.15,50.450733,30.453148,7.74,899.46,0.13,17.26,1470,1595,1800,1490,4,-0.67,4.54,1.16
1775515478.25,50.450733,30.453148,7.74,899.46,0.13,19.26,1470,1595,1800,1490,4,-0.67,4.54,1.16
1775515478.35,50.450730,30.453146,9.30,899.14,0.13,19.70,1468,1595,1670,1498,3,-0.66,4.67,1.52
1775515478.45,50.450730,30.453146,9.30,899.14,0.13,21.70,1469,1595,1800,1493,3,-0.66,4.67,1.52
1775515478.55,50.450727,30.453144,11.09,898.72,0.11,21.91,1465,1593,1663,1493,3,-0.66,4.70,1.84
1775515478.65,50.450727,30.453144,11.09,898.72,0.11,23.91,1468,1594,1800,1493,3,-0.66,4.70,1.84
1775515478.75,50.450723,30.453142,12.92,898.23,0.09,24.08,1465,1593,1674,1493,3,-0.72,4.68,2.14
1775515478.85,50.450723,30.453142,12.92,898.23,0.09,26.08,1467,1594,1800,1493,3,-0.72,4.68,2.14
1775515478.95,50.450723,30.453142,12.92,898.23,0.09,28.08,1467,1594,1800,1493,3,-0.72,4.68,2.14
1775515479.05,50.450718,30.453139,14.83,897.66,0.06,28.17,1462,1592,1697,1493,3,-0.81,4.64,2.43
1775515479.15,50.450718,30.453139,14.83,897.66,0.06,30.17,1466,1594,1800,1493,3,-0.81,4.64,2.43
1775515479.26,50.450713,30.453136,16.85,897.03,0.02,30.15,1460,1592,1696,1493,3,-0.90,4.58,2.68
1775515479.36,50.450713,30.453136,16.85,897.03,0.02,32.15,1465,1593,1800,1493,3,-0.90,4.58,2.68
1775515479.46,50.450713,30.453136,16.85,897.03,0.02,34.15,1465,1593,1800,1493,3,-0.90,4.58,2.68
1775515479.56,50.450707,30.453132,18.90,896.33,-0.01,34.10,1459,1591,1713,1493,3,-1.03,4.55,2.96
1775515479.66,50.450707,30.453132,18.90,896.33,-0.01,36.10,1464,1593,1800,1493,3,-1.03,4.55,2.96
1775515479.76,50.450700,30.453128,21.02,895.57,-0.04,35.98,1460,1591,1717,1493,3,-1.08,4.53,3.17
1775515479.86,50.450700,30.453128,21.02,895.57,-0.04,37.98,1463,1593,1800,1493,3,-1.08,4.53,3.17
1775515479.96,50.450700,30.453128,21.02,895.57,-0.04,39.98,1463,1593,1800,1493,3,-1.08,4.53,3.17
1775515480.06,50.450693,30.453124,23.12,894.75,-0.06,39.88,1459,1591,1739,1493,3,-1.13,4.51,3.41
1775515480.16,50.450693,30.453124,23.12,894.75,-0.06,41.88,1462,1592,1800,1493,3,-1.13,4.51,3.41
1775515480.26,50.450686,30.453119,25.35,893.86,-0.09,41.65,1458,1591,1736,1493,3,-1.16,4.51,3.66
1775515480.36,50.450686,30.453119,25.35,893.86,-0.09,43.65,1462,1592,1800,1493,3,-1.16,4.51,3.66
1775515480.46,50.450686,30.453119,25.35,893.86,-0.09,45.65,1462,1592,1800,1493,3,-1.16,4.51,3.66
1775515480.56,50.450678,30.453114,27.68,892.91,-0.11,45.32,1458,1591,1747,1493,3,-1.19,4.49,3.90
1775515480.66,50.450678,30.453114,27.68,892.91,-0.11,47.32,1461,1592,1800,1493,3,-1.19,4.49,3.90
1775515480.76,50.450670,30.453108,29.98,891.91,-0.12,47.02,1459,1591,1760,1493,3,-1.23,4.49,4.12
1775515480.86,50.450670,30.453108,29.98,891.91,-0.12,49.02,1461,1592,1800,1493,3,-1.23,4.49,4.12
1775515480.96,50.450670,30.453108,29.98,891.91,-0.12,51.02,1461,1592,1800,1493,3,-1.23,4.49,4.12
1775515481.06,50.450661,30.453103,32.31,890.85,-0.12,50.69,1460,1591,1777,1493,3,-1.27,4.48,4.34
1775515481.16,50.450661,30.453103,32.31,890.85,-0.12,52.69,1460,1592,1800,1493,3,-1.27,4.48,4.34
1775515481.26,50.450652,30.453096,34.69,889.75,-0.12,52.31,1461,1592,1783,1493,3,-1.24,4.47,4.52
1775515481.36,50.450652,30.453096,34.69,889.75,-0.12,54.31,1461,1592,1800,1493,3,-1.24,4.47,4.52
1775515481.46,50.450652,30.453096,34.69,889.75,-0.12,56.31,1461,1592,1800,1493,3,-1.24,4.47,4.52
1775515481.57,50.450643,30.453090,37.12,888.59,-0.11,55.88,1462,1592,1796,1493,3,-1.21,4.48,4.73
1775515481.67,50.450643,30.453090,37.12,888.59,-0.11,57.88,1461,1592,1800,1493,3,-1.21,4.48,4.73
1775515481.77,50.450633,30.453083,39.58,887.37,-0.10,57.42,1462,1592,1800,1493,3,-1.19,4.49,4.94
1775515481.87,50.450633,30.453083,39.58,887.37,-0.10,59.42,1461,1592,1800,1493,3,-1.19,4.49,4.94
1775515481.97,50.450633,30.453083,39.58,887.37,-0.10,61.42,1461,1592,1800,1493,3,-1.19,4.49,4.94
1775515482.07,50.450622,30.453075,42.10,886.11,-0.08,60.90,1465,1593,1800,1493,3,-1.16,4.50,5.11
1775515482.17,50.450622,30.453075,42.10,886.11,-0.08,62.90,1462,1592,1800,1493,3,-1.16,4.50,5.11
1775515482.27,50.450612,30.453068,44.60,884.80,-0.05,62.40,1466,1594,1800,1493,3,-1.12,4.52,5.30
1775515482.37,50.450612,30.453068,44.60,884.80,-0.05,64.40,1463,1592,1800,1493,3,-1.12,4.52,5.30
1775515482.47,50.450612,30.453068,44.60,884.80,-0.05,66.40,1463,1592,1800,1493,3,-1.12,4.52,5.30
1775515482.57,50.450601,30.453060,47.06,883.45,-0.02,65.94,1468,1594,1800,1493,3,-1.04,4.53,5.46
1775515482.67,50.450601,30.453060,47.06,883.45,-0.02,67.94,1464,1593,1800,1493,3,-1.04,4.53,5.46
1775515482.77,50.450589,30.453051,49.60,882.06,0.02,67.40,1471,1596,1800,1493,3,-0.97,4.54,5.65
1775515482.87,50.450589,30.453051,49.60,882.06,0.02,69.40,1465,1593,1800,1493,3,-0.97,4.54,5.65
1775515482.97,50.450589,30.453051,49.60,882.06,0.02,71.40,1465,1593,1800,1493,3,-0.97,4.54,5.65
1775515483.07,50.450578,30.453043,52.08,880.64,0.07,70.92,1473,1596,1800,1493,3,-0.83,4.56,5.77
1775515483.17,50.450578,30.453043,52.08,880.64,0.07,72.92,1467,1594,1800,1493,3,-0.83,4.56,5.77
1775515483.27,50.450566,30.453034,54.48,879.18,0.11,72.53,1474,1597,1800,1493,3,-0.78,4.62,5.90
1775515483.37,50.450566,30.453034,54.48,879.18,0.11,74.53,1468,1594,1800,1493,3,-0.78,4.62,5.90
1775515483.47,50.450566,30.453034,54.48,879.18,0.11,76.53,1468,1594,1800,1493,3,-0.78,4.62,5.90
1775515483.57,50.450554,30.453025,56.80,877.69,0.15,76.20,1476,1597,1800,1493,3,-0.65,4.69,6.04
1775515483.67,50.450554,30.453025,56.80,877.69,0.15,78.20,1469,1595,1800,1493,3,-0.65,4.69,6.04
1775515483.78,50.450541,30.453016,59.17,876.15,0.20,77.83,1477,1598,1800,1493,3,-0.58,4.71,6.21
1775515483.88,50.450541,30.453016,59.17,876.15,0.20,79.83,1471,1596,1800,1493,3,-0.58,4.71,6.21
1775515483.98,50.450541,30.453016,59.17,876.15,0.20,81.83,1471,1596,1800,1493,3,-0.58,4.71,6.21
1775515484.08,50.450528,30.453006,61.51,874.58,0.23,81.49,1477,1598,1800,1493,3,-0.46,4.77,6.34
1775515484.18,50.450528,30.453006,61.51,874.58,0.23,83.49,1472,1596,1800,1493,3,-0.46,4.77,6.34
1775515484.28,50.450515,30.452997,63.93,872.98,0.27,83.07,1479,1599,1800,1493,3,-0.42,4.80,6.50
1775515484.38,50.450515,30.452997,63.93,872.98,0.27,85.07,1473,1597,1800,1493,3,-0.42,4.80,6.50
1775515484.48,50.450515,30.452997,63.93,872.98,0.27,87.07,1473,1597,1800,1493,3,-0.42,4.80,6.50
1775515484.58,50.450502,30.452987,66.36,871.34,0.30,86.64,1478,1598,1800,1493,3,-0.31,4.82,6.63
1775515484.68,50.450502,30.452987,66.36,871.34,0.30,88.64,1474,1597,1800,1493,3,-0.31,4.82,6.63
1775515484.78,50.450488,30.452977,68.89,869.67,0.32,88.11,1479,1599,1800,1493,3,-0.29,4.83,6.74
1775515484.88,50.450488,30.452977,68.89,869.67,0.32,90.11,1475,1597,1800,1493,3,-0.29,4.83,6.74
1775515484.98,50.450488,30.452977,68.89,869.67,0.32,92.11,1475,1597,1800,1493,3,-0.29,4.83,6.74
1775515485.08,50.450475,30.452968,71.41,867.99,0.34,91.59,1478,1598,1800,1493,3,-0.24,4.85,6.82
1775515485.18,50.450475,30.452968,71.41,867.99,0.34,93.59,1476,1597,1800,1493,3,-0.24,4.85,6.82
1775515485.28,50.450460,30.452958,73.85,866.27,0.35,93.15,1478,1598,1800,1493,3,-0.24,4.86,6.89
1775515485.38,50.450460,30.452958,73.85,866.27,0.35,95.15,1476,1598,1800,1493,3,-0.24,4.86,6.89
1775515485.48,50.450460,30.452958,73.85,866.27,0.35,97.15,1476,1598,1800,1493,3,-0.24,4.86,6.89
1775515485.58,50.450446,30.452948,76.32,864.54,0.36,96.68,1478,1598,1800,1493,3,-0.20,4.86,6.99
1775515485.68,50.450446,30.452948,76.32,864.54,0.36,98.68,1477,1598,1800,1493,3,-0.20,4.86,6.99
1775515485.78,50.450432,30.452938,78.85,862.78,0.37,98.15,1478,1598,1800,1493,3,-0.20,4.86,7.09
1775515485.88,50.450432,30.452938,78.85,862.78,0.37,100.15,1477,1598,1800,1493,3,-0.20,4.86,7.09
1775515485.98,50.450432,30.452938,78.85,862.78,0.37,102.15,1477,1598,1800,1493,3,-0.20,4.86,7.09
1775515486.08,50.450417,30.452928,81.55,861.01,0.37,101.45,1477,1598,1800,1493,3,-0.19,4.85,7.16
1775515486.19,50.450417,30.452928,81.55,861.01,0.37,103.45,1477,1598,1800,1493,3,-0.19,4.85,7.16
1775515486.29,50.450402,30.452918,84.26,859.21,0.36,102.74,1477,1598,1800,1493,3,-0.20,4.85,7.19
1775515486.39,50.450402,30.452918,84.26,859.21,0.36,104.74,1477,1598,1800,1493,3,-0.20,4.85,7.19
1775515486.49,50.450402,30.452918,84.26,859.21,0.36,106.74,1477,1598,1800,1493,3,-0.20,4.85,7.19
1775515486.59,50.450388,30.452908,86.89,857.42,0.35,106.11,1476,1597,1800,1493,3,-0.19,4.87,7.25
1775515486.69,50.450388,30.452908,86.89,857.42,0.35,108.11,1477,1598,1800,1493,3,-0.19,4.87,7.25
1775515486.79,50.450373,30.452898,89.60,855.60,0.34,107.40,1475,1597,1800,1493,3,-0.19,4.86,7.31
1775515486.89,50.450373,30.452898,89.60,855.60,0.34,109.40,1476,1598,1800,1493,3,-0.19,4.86,7.31
1775515486.99,50.450373,30.452898,89.60,855.60,0.34,111.40,1476,1598,1800,1493,3,-0.19,4.86,7.31
1775515487.09,50.450358,30.452888,92.29,853.77,0.33,110.71,1475,1597,1800,1493,3,-0.24,4.84,7.34
1775515487.19,50.450358,30.452888,92.29,853.77,0.33,112.71,1476,1598,1800,1493,3,-0.24,4.84,7.34
1775515487.29,50.450342,30.452877,94.97,851.95,0.32,112.03,1474,1597,1800,1493,3,-0.28,4.86,7.36
1775515487.39,50.450342,30.452877,94.97,851.95,0.32,114.03,1476,1597,1800,1493,3,-0.28,4.86,7.36
1775515487.49,50.450327,30.452867,97.61,850.11,0.31,113.39,1473,1597,1800,1493,3,-0.31,4.87,7.38
1775515487.59,50.450327,30.452867,97.61,850.11,0.31,115.39,1475,1597,1800,1493,3,-0.31,4.87,7.38
1775515487.69,50.450327,30.452867,97.61,850.11,0.31,117.39,1475,1597,1800,1493,3,-0.31,4.87,7.38
1775515487.79,50.450312,30.452857,100.26,848.26,0.29,116.74,1472,1596,1800,1493,3,-0.35,4.83,7.44
1775515487.89,50.450312,30.452857,100.26,848.26,0.29,118.74,1475,1597,1800,1493,3,-0.35,4.83,7.44
1775515487.99,50.450297,30.452847,102.93,846.39,0.28,118.07,1473,1596,1800,1493,3,-0.38,4.79,7.49
1775515488.09,50.450297,30.452847,102.93,846.39,0.28,120.07,1475,1597,1800,1493,3,-0.38,4.79,7.49
1775515488.19,50.450297,30.452847,102.93,846.39,0.28,122.07,1475,1597,1800,1493,3,-0.38,4.79,7.49
1775515488.29,50.450281,30.452836,105.64,844.51,0.26,121.36,1472,1596,1800,1493,3,-0.40,4.77,7.50
1775515488.39,50.450281,30.452836,105.64,844.51,0.26,123.36,1474,1597,1800,1493,3,-0.40,4.77,7.50
1775515488.49,50.450266,30.452826,108.26,842.65,0.25,122.74,1473,1596,1800,1493,3,-0.39,4.76,7.48
1775515488.59,50.450266,30.452826,108.26,842.65,0.25,124.74,1474,1597,1800,1493,3,-0.39,4.76,7.48
1775515488.69,50.450266,30.452826,108.26,842.65,0.25,126.74,1474,1597,1800,1493,3,-0.39,4.76,7.48
1775515488.80,50.450250,30.452816,110.81,840.78,0.24,126.19,1471,1596,1800,1493,3,-0.41,4.76,7.49
1775515488.90,50.450250,30.452816,110.81,840.78,0.24,128.19,1473,1597,1800,1493,3,-0.41,4.76,7.49
1775515489.00,50.450235,30.452805,113.36,838.91,0.24,127.64,1473,1596,1800,1493,3,-0.45,4.77,7.49
1775515489.10,50.450235,30.452805,113.36,838.91,0.24,129.64,1473,1597,1800,1493,3,-0.45,4.77,7.49
1775515489.20,50.450235,30.452805,113.36,838.91,0.24,131.64,1473,1597,1800,1493,3,-0.45,4.77,7.49
1775515489.30,50.450220,30.452795,115.87,837.06,0.24,131.13,1474,1597,1800,1493,3,-0.46,4.76,7.48
1775515489.40,50.450220,30.452795,115.87,837.06,0.24,133.13,1473,1597,1800,1493,3,-0.46,4.76,7.48
1775515489.50,50.450204,30.452784,118.38,835.19,0.23,132.62,1473,1596,1800,1493,3,-0.44,4.78,7.49
1775515489.60,50.450204,30.452784,118.38,835.19,0.23,134.62,1473,1597,1800,1493,3,-0.44,4.78,7.49
1775515489.70,50.450204,30.452784,118.38,835.19,0.23,136.62,1473,1597,1800,1493,3,-0.44,4.78,7.49
1775515489.80,50.450189,30.452773,120.77,833.31,0.23,136.23,1473,1596,1800,1493,3,-0.44,4.79,7.50
1775515489.90,50.450189,30.452773,120.77,833.31,0.23,138.23,1473,1597,1800,1493,3,-0.44,4.79,7.50
1775515490.00,50.450173,30.452763,123.26,831.43,0.23,137.74,1472,1596,1800,1493,3,-0.44,4.79,7.55
1775515490.10,50.450173,30.452763,123.26,831.43,0.23,139.74,1473,1596,1800,1493,3,-0.44,4.79,7.55
1775515490.20,50.450173,30.452763,123.26,831.43,0.23,141.74,1473,1596,1800,1493,3,-0.44,4.79,7.55
1775515490.30,50.450158,30.452752,125.91,829.53,0.22,141.09,1472,1596,1800,1493,3,-0.46,4.77,7.61
1775515490.40,50.450158,30.452752,125.91,829.53,0.22,143.09,1473,1596,1800,1493,3,-0.46,4.77,7.61
1775515490.50,50.450158,30.452752,125.91,829.53,0.22,145.09,1473,1596,1800,1493,3,-0.46,4.77,7.61
1775515490.60,50.450142,30.452742,128.59,827.63,0.22,144.41,1473,1596,1800,1493,3,-0.46,4.75,7.61
1775515490.70,50.450142,30.452742,128.59,827.63,0.22,146.41,1473,1596,1800,1493,3,-0.46,4.75,7.61
1775515490.80,50.450126,30.452731,131.21,825.73,0.21,145.79,1471,1596,1800,1493,3,-0.47,4.75,7.60
1775515490.91,50.450126,30.452731,131.21,825.73,0.21,147.79,1473,1596,1800,1493,3,-0.47,4.75,7.60
1775515491.01,50.450126,30.452731,131.21,825.73,0.21,149.79,1473,1596,1800,1493,3,-0.47,4.75,7.60
1775515491.11,50.450111,30.452720,133.81,823.83,0.21,149.19,1473,1596,1800,1493,3,-0.48,4.75,7.59
1775515491.21,50.450111,30.452720,133.81,823.83,0.21,151.19,1473,1596,1800,1493,3,-0.48,4.75,7.59
1775515491.31,50.450095,30.452710,136.30,821.93,0.22,150.70,1474,1597,1800,1493,3,-0.47,4.75,7.61
1775515491.41,50.450095,30.452710,136.30,821.93,0.22,152.70,1473,1596,1800,1493,3,-0.47,4.75,7.61
1775515491.51,50.450095,30.452710,136.30,821.93,0.22,154.70,1473,1596,1800,1493,3,-0.47,4.75,7.61
1775515491.61,50.450079,30.452699,138.90,820.04,0.22,154.10,1473,1596,1800,1493,3,-0.44,4.75,7.64
1775515491.71,50.450079,30.452699,138.90,820.04,0.22,156.10,1473,1596,1800,1493,3,-0.44,4.75,7.64
1775515491.81,50.450063,30.452688,141.44,818.12,0.22,155.56,1474,1597,1800,1493,3,-0.44,4.75,7.63
1775515491.91,50.450063,30.452688,141.44,818.12,0.22,157.56,1473,1597,1800,1493,3,-0.44,4.75,7.63
1775515492.01,50.450048,30.452677,143.88,816.22,0.23,157.12,1475,1597,1800,1493,3,-0.44,4.75,7.64
1775515492.11,50.450048,30.452677,143.88,816.22,0.23,157.12,1474,1597,1800,1493,3,-0.44,4.75,7.64
1775515492.21,50.450048,30.452677,143.88,816.22,0.23,157.12,1474,1597,1800,1493,3,-0.44,4.75,7.64
1775515492.31,50.450032,30.452666,146.30,814.32,0.24,154.70,1475,1597,1800,1493,3,-0.43,4.75,7.64
1775515492.41,50.450032,30.452666,146.30,814.32,0.24,154.70,1474,1597,1800,1493,3,-0.43,4.75,7.64
1775515492.51,50.450017,30.452655,148.81,812.42,0.25,152.19,1476,1598,1800,1493,3,-0.43,4.76,7.64
1775515492.61,50.450017,30.452655,148.81,812.42,0.25,152.19,1474,1597,1800,1493,3,-0.43,4.76,7.64
1775515492.71,50.450017,30.452655,148.81,812.42,0.25,152.19,1475,1597,1800,1493,3,-0.43,4.76,7.64
1775515492.81,50.450001,30.452645,151.35,810.51,0.27,149.65,1477,1598,1800,1493,3,-0.39,4.76,7.67
1775515492.91,50.450001,30.452645,151.35,810.51,0.27,149.65,1475,1597,1800,1493,3,-0.39,4.76,7.67
1775515493.01,50.449985,30.452634,153.96,808.60,0.28,147.04,1477,1598,1800,1493,3,-0.33,4.77,7.68
1775515493.11,50.449985,30.452634,153.96,808.60,0.28,147.04,1475,1597,1800,1493,3,-0.33,4.77,7.68
1775515493.21,50.449985,30.452634,153.96,808.60,0.28,147.04,1475,1597,1800,1493,3,-0.33,4.77,7.68
1775515493.31,50.449970,30.452623,156.63,806.69,0.29,144.37,1477,1598,1800,1493,3,-0.28,4.81,7.67
1775515493.41,50.449970,30.452623,156.63,806.69,0.29,144.37,1476,1597,1800,1493,3,-0.28,4.81,7.67
1775515493.51,50.449954,30.452612,159.31,804.77,0.30,141.69,1478,1598,1800,1493,3,-0.25,4.86,7.68
1775515493.62,50.449954,30.452612,159.31,804.77,0.30,141.69,1476,1598,1800,1493,3,-0.25,4.86,7.68
1775515493.72,50.449954,30.452612,159.31,804.77,0.30,141.69,1476,1598,1800,1493,3,-0.25,4.86,7.68
1775515493.82,50.449938,30.452601,161.96,802.84,0.30,139.04,1477,1598,1800,1493,3,-0.19,4.89,7.69
1775515493.92,50.449938,30.452601,161.96,802.84,0.30,139.04,1476,1598,1800,1493,3,-0.19,4.89,7.69
1775515494.02,50.449922,30.452590,164.67,800.92,0.30,136.33,1476,1598,1800,1493,3,-0.20,4.90,7.73
1775515494.12,50.449922,30.452590,164.67,800.92,0.30,136.33,1476,1598,1800,1493,3,-0.20,4.90,7.73
1775515494.22,50.449922,30.452590,164.67,800.92,0.30,136.33,1477,1598,1800,1493,3,-0.20,4.90,7.73
1775515494.32,50.449906,30.452579,167.39,798.99,0.30,133.61,1477,1598,1800,1493,3,-0.21,4.90,7.68
1775515494.42,50.449906,30.452579,167.39,798.99,0.30,133.61,1477,1598,1800,1493,3,-0.21,4.90,7.68
1775515494.52,50.449890,30.452568,170.05,797.06,0.30,130.95,1477,1598,1800,1493,3,-0.22,4.91,7.66
1775515494.62,50.449890,30.452568,170.05,797.06,0.30,130.95,1477,1598,1800,1493,3,-0.22,4.91,7.66
1775515494.72,50.449890,30.452568,170.05,797.06,0.30,130.95,1477,1598,1800,1493,3,-0.22,4.91,7.66
1775515494.82,50.449875,30.452557,172.71,795.14,0.30,128.29,1476,1598,1800,1493,3,-0.23,4.91,7.65
1775515494.92,50.449875,30.452557,172.71,795.14,0.30,128.29,1477,1598,1800,1493,3,-0.23,4.91,7.65
1775515495.02,50.449859,30.452547,175.41,793.22,0.30,125.59,1476,1598,1800,1493,3,-0.24,4.89,7.70
1775515495.12,50.449859,30.452547,175.41,793.22,0.30,125.59,1477,1598,1800,1493,3,-0.24,4.89,7.70
1775515495.22,50.449859,30.452547,175.41,793.22,0.30,125.59,1477,1598,1800,1493,3,-0.24,4.89,7.70
1775515495.32,50.449843,30.452536,178.17,791.31,0.30,122.83,1477,1598,1800,1493,3,-0.23,4.86,7.70
1775515495.42,50.449843,30.452536,178.17,791.31,0.30,122.83,1477,1598,1800,1493,3,-0.23,4.86,7.70
1775515495.52,50.449827,30.452525,180.95,789.38,0.29,120.05,1475,1597,1800,1493,3,-0.20,4.87,7.69
1775515495.62,50.449827,30.452525,180.95,789.38,0.29,120.05,1476,1598,1800,1493,3,-0.20,4.87,7.69
1775515495.72,50.449827,30.452525,180.95,789.38,0.29,120.05,1476,1598,1800,1493,3,-0.20,4.87,7.69
1775515495.82,50.449811,30.452514,183.56,787.46,0.28,117.44,1475,1597,1800,1493,3,-0.20,4.88,7.67
1775515495.92,50.449811,30.452514,183.56,787.46,0.28,117.44,1476,1598,1800,1493,3,-0.20,4.88,7.67
1775515496.02,50.449795,30.452504,186.14,785.53,0.27,114.86,1474,1597,1800,1493,3,-0.20,4.88,7.68
1775515496.12,50.449795,30.452504,186.14,785.53,0.27,114.86,1476,1597,1800,1493,3,-0.20,4.88,7.68
1775515496.23,50.449795,30.452504,186.14,785.53,0.27,114.86,1476,1597,1800,1493,3,-0.20,4.88,7.68
1775515496.33,50.449779,30.452493,188.79,783.60,0.25,112.21,1473,1596,1800,1493,3,-0.22,4.87,7.72
1775515496.43,50.449779,30.452493,188.79,783.60,0.25,112.21,1475,1597,1800,1493,3,-0.22,4.87,7.72
1775515496.53,50.449763,30.452482,191.47,781.67,0.24,109.53,1472,1596,1800,1493,3,-0.26,4.83,7.71
1775515496.63,50.449763,30.452482,191.47,781.67,0.24,109.53,1475,1597,1800,1493,3,-0.26,4.83,7.71
1775515496.73,50.449763,30.452482,191.47,781.67,0.24,109.53,1475,1597,1800,1493,3,-0.26,4.83,7.71
1775515496.83,50.449747,30.452472,194.19,779.73,0.21,106.81,1471,1596,1800,1493,3,-0.35,4.78,7.71
1775515496.93,50.449747,30.452472,194.19,779.73,0.21,106.81,1474,1597,1800,1493,3,-0.35,4.78,7.71
1775515497.03,50.449731,30.452461,196.76,777.81,0.19,104.24,1471,1596,1800,1493,3,-0.42,4.77,7.67
1775515497.13,50.449731,30.452461,196.76,777.81,0.19,104.24,1474,1597,1800,1493,3,-0.42,4.77,7.67
1775515497.23,50.449731,30.452461,196.76,777.81,0.19,104.24,1474,1597,1800,1493,3,-0.42,4.77,7.67
1775515497.33,50.449716,30.452451,199.33,775.89,0.17,101.67,1470,1595,1800,1493,3,-0.46,4.78,7.71
1775515497.43,50.449716,30.452451,199.33,775.89,0.17,101.67,1473,1596,1800,1493,3,-0.46,4.78,7.71
1775515497.53,50.449700,30.452440,201.88,773.97,0.15,99.12,1469,1595,1800,1493,3,-0.49,4.79,7.70
1775515497.63,50.449700,30.452440,201.88,773.97,0.15,99.12,1472,1596,1800,1493,3,-0.49,4.79,7.70
1775515497.73,50.449700,30.452440,201.88,773.97,0.15,99.12,1472,1596,1800,1493,3,-0.49,4.79,7.70
1775515497.83,50.449684,30.452429,204.44,772.04,0.14,96.56,1470,1595,1800,1493,3,-0.57,4.79,7.72
1775515497.93,50.449684,30.452429,204.44,772.04,0.14,96.56,1472,1596,1800,1493,3,-0.57,4.79,7.72
1775515498.03,50.449668,30.452419,207.04,770.11,0.12,93.96,1469,1595,1800,1493,3,-0.59,4.77,7.72
1775515498.13,50.449668,30.452419,207.04,770.11,0.12,93.96,1471,1596,1800,1493,3,-0.59,4.77,7.72
1775515498.23,50.449668,30.452419,207.04,770.11,0.12,93.96,1471,1596,1800,1493,3,-0.59,4.77,7.72
1775515498.33,50.449652,30.452408,209.75,768.17,0.11,91.25,1470,1595,1778,1493,3,-0.60,4.75,7.73
1775515498.43,50.449652,30.452408,209.75,768.17,0.11,91.25,1471,1596,1800,1493,3,-0.60,4.75,7.73
1775515498.53,50.449636,30.452397,212.40,766.24,0.10,88.60,1469,1595,1767,1493,3,-0.61,4.71,7.72
1775515498.64,50.449636,30.452397,212.40,766.24,0.10,88.60,1471,1595,1800,1493,3,-0.61,4.71,7.72
1775515498.74,50.449636,30.452397,212.40,766.24,0.10,88.60,1471,1595,1800,1493,3,-0.61,4.71,7.72
1775515498.84,50.449620,30.452386,214.95,764.31,0.10,86.05,1471,1595,1762,1493,3,-0.62,4.66,7.68
1775515498.94,50.449620,30.452386,214.95,764.31,0.10,86.05,1471,1595,1800,1493,3,-0.62,4.66,7.68
1775515499.04,50.449604,30.452375,217.40,762.39,0.10,83.60,1470,1595,1757,1493,3,-0.60,4.66,7.67
1775515499.14,50.449604,30.452375,217.40,762.39,0.10,83.60,1471,1595,1800,1493,3,-0.60,4.66,7.67
1775515499.24,50.449604,30.452375,217.40,762.39,0.10,83.60,1471,1595,1800,1493,3,-0.60,4.66,7.67
1775515499.34,50.449588,30.452365,219.84,760.47,0.10,81.16,1471,1596,1742,1493,3,-0.59,4.67,7.68
1775515499.44,50.449588,30.452365,219.84,760.47,0.10,81.16,1471,1596,1800,1493,3,-0.59,4.67,7.68
1775515499.54,50.449573,30.452354,222.31,758.55,0.10,78.69,1471,1595,1726,1493,3,-0.58,4.67,7.69
1775515499.64,50.449573,30.452354,222.31,758.55,0.10,78.69,1471,1596,1800,1493,3,-0.58,4.67,7.69
1775515499.74,50.449573,30.452354,222.31,758.55,0.10,78.69,1471,1596,1800,1493,3,-0.58,4.67,7.69
1775515499.84,50.449557,30.452343,224.82,756.64,0.10,76.18,1471,1595,1707,1493,3,-0.57,4.69,7.70
1775515499.94,50.449557,30.452343,224.82,756.64,0.10,76.18,1471,1596,1800,1493,3,-0.57,4.69,7.70
1775515500.04,50.449541,30.452332,227.34,754.71,0.11,73.66,1473,1596,1690,1493,3,-0.57,4.70,7.70
1775515500.14,50.449541,30.452332,227.34,754.71,0.11,73.66,1471,1596,1800,1493,3,-0.57,4.70,7.70
1775515500.24,50.449541,30.452332,227.34,754.71,0.11,73.66,1471,1596,1800,1493,3,-0.57,4.70,7.70
1775515500.34,50.449525,30.452321,229.81,752.80,0.12,71.19,1472,1596,1680,1493,3,-0.54,4.70,7.66
1775515500.44,50.449525,30.452321,229.81,752.80,0.12,71.19,1471,1596,1800,1493,3,-0.54,4.70,7.66
1775515500.54,50.449510,30.452310,232.30,750.90,0.12,68.70,1472,1596,1663,1493,3,-0.53,4.72,7.65
1775515500.64,50.449510,30.452310,232.30,750.90,0.12,68.70,1471,1596,1800,1493,3,-0.53,4.72,7.65
1775515500.74,50.449494,30.452299,234.74,748.98,0.12,66.26,1472,1596,1654,1493,3,-0.53,4.72,7.66
1775515500.84,50.449494,30.452299,234.74,748.98,0.12,66.26,1472,1596,1800,1493,3,-0.53,4.72,7.66
1775515500.94,50.449494,30.452299,234.74,748.98,0.12,66.26,1472,1596,1800,1493,3,-0.53,4.72,7.66
1775515501.04,50.449478,30.452289,237.07,747.06,0.13,63.93,1473,1596,1652,1493,3,-0.53,4.73,7.65
1775515501.14,50.449478,30.452289,237.07,747.06,0.13,63.93,1472,1596,1800,1493,3,-0.53,4.73,7.65
1775515501.24,50.449463,30.452278,239.38,745.16,0.15,61.62,1474,1597,1639,1493,3,-0.49,4.74,7.65
1775515501.35,50.449463,30.452278,239.38,745.16,0.15,61.62,1472,1596,1800,1493,3,-0.49,4.74,7.65
1775515501.45,50.449463,30.452278,239.38,745.16,0.15,61.62,1472,1596,1800,1493,3,-0.49,4.74,7.65
1775515501.55,50.449447,30.452267,241.74,743.26,0.15,59.26,1473,1596,1621,1493,3,-0.45,4.76,7.66
1775515501.65,50.449447,30.452267,241.74,743.26,0.15,59.26,1473,1596,1800,1493,3,-0.45,4.76,7.66
1775515501.75,50.449447,30.452267,241.74,743.26,0.15,59.26,1473,1596,1800,1493,3,-0.45,4.76,7.66
1775515501.85,50.449431,30.452256,244.15,741.35,0.16,56.85,1475,1597,1601,1493,3,-0.47,4.77,7.61
1775515501.95,50.449431,30.452256,244.15,741.35,0.16,56.85,1473,1596,1800,1493,3,-0.47,4.77,7.61
1775515502.05,50.449416,30.452245,246.51,739.45,0.17,54.49,1474,1597,1591,1493,3,-0.45,4.77,7.62
1775515502.15,50.449416,30.452245,246.51,739.45,0.17,54.49,1473,1596,1800,1493,3,-0.45,4.77,7.62
1775515502.25,50.449416,30.452245,246.51,739.45,0.17,54.49,1473,1596,1800,1493,3,-0.45,4.77,7.62
1775515502.35,50.449400,30.452234,248.89,737.54,0.19,52.11,1477,1598,1576,1493,3,-0.43,4.77,7.62
1775515502.45,50.449400,30.452234,248.89,737.54,0.19,52.11,1474,1597,1800,1493,3,-0.43,4.77,7.62
1775515502.55,50.449384,30.452223,251.25,735.63,0.20,49.75,1472,1606,1562,1493,3,-0.38,4.78,7.58
1775515502.65,50.449384,30.452223,251.25,735.63,0.20,49.75,1471,1606,1798,1493,3,-0.38,4.78,7.58
1775515502.75,50.449384,30.452223,251.25,735.63,0.20,49.75,1471,1606,1798,1493,3,-0.38,4.78,7.58
1775515502.85,50.449369,30.452212,253.28,733.74,0.21,47.72,1468,1621,1584,1493,3,-0.38,4.97,7.59
1775515502.95,50.449369,30.452212,253.28,733.74,0.21,47.72,1466,1620,1786,1493,3,-0.38,4.97,7.59
1775515503.05,50.449353,30.452202,255.32,731.84,0.22,45.68,1463,1635,1570,1493,3,-0.52,5.39,7.61
1775515503.15,50.449353,30.452202,255.32,731.84,0.22,45.68,1461,1635,1774,1493,3,-0.52,5.39,7.61
1775515503.25,50.449353,30.452202,255.32,731.84,0.22,45.68,1461,1635,1774,1493,3,-0.79,6.25,7.61
1775515503.35,50.449337,30.452191,257.32,729.93,0.23,43.68,1458,1649,1562,1493,3,-0.79,6.25,7.67
1775515503.45,50.449337,30.452191,257.32,729.93,0.23,43.68,1456,1649,1762,1493,3,-0.79,6.25,7.67
1775515503.55,50.449322,30.452180,259.29,728.01,0.24,41.71,1452,1663,1554,1493,3,-1.08,7.05,7.74
1775515503.66,50.449322,30.452180,259.29,728.01,0.24,41.71,1451,1663,1750,1493,3,-1.08,7.05,7.74
1775515503.76,50.449306,30.452169,261.20,726.07,0.24,39.80,1446,1676,1548,1493,3,-1.40,8.02,7.89
1775515503.86,50.449306,30.452169,261.20,726.07,0.24,39.80,1446,1676,1738,1493,3,-1.40,8.02,7.89
1775515503.96,50.449306,30.452169,261.20,726.07,0.24,39.80,1446,1676,1738,1493,3,-1.40,8.02,7.89
1775515504.06,50.449289,30.452158,263.06,724.08,0.23,37.94,1441,1689,1542,1493,3,-1.79,8.99,8.08
1775515504.16,50.449289,30.452158,263.06,724.08,0.23,37.94,1441,1689,1727,1493,3,-1.79,8.99,8.08
1775515504.26,50.449272,30.452146,264.91,722.04,0.23,36.09,1435,1702,1532,1493,3,-2.10,9.82,8.26
1775515504.36,50.449272,30.452146,264.91,722.04,0.23,36.09,1436,1702,1716,1493,3,-2.10,9.82,8.26
1775515504.46,50.449272,30.452146,264.91,722.04,0.23,36.09,1436,1702,1716,1493,3,-2.10,9.82,8.26
1775515504.56,50.449255,30.452135,266.67,719.97,0.22,34.33,1430,1714,1530,1493,3,-2.46,10.71,8.49
1775515504.66,50.449255,30.452135,266.67,719.97,0.22,34.33,1431,1714,1705,1493,3,-2.46,10.71,8.49
1775515504.76,50.449238,30.452123,268.41,717.81,0.21,32.59,1425,1726,1522,1493,3,-2.77,11.42,8.75
1775515504.86,50.449238,30.452123,268.41,717.81,0.21,32.59,1426,1726,1695,1493,3,-2.77,11.42,8.75
1775515504.96,50.449238,30.452123,268.41,717.81,0.21,32.59,1426,1726,1695,1493,3,-2.77,11.42,8.75
1775515505.06,50.449219,30.452110,270.13,715.60,0.19,30.87,1419,1737,1513,1493,3,-3.10,12.25,9.03
1775515505.16,50.449219,30.452110,270.13,715.60,0.19,30.87,1421,1738,1685,1493,3,-3.10,12.25,9.03
1775515505.26,50.449200,30.452098,271.86,713.32,0.18,29.14,1415,1750,1504,1493,3,-3.35,12.94,9.27
1775515505.36,50.449200,30.452098,271.86,713.32,0.18,29.14,1417,1750,1678,1493,3,-3.35,12.94,9.27
1775515505.46,50.449200,30.452098,271.86,713.32,0.18,29.14,1417,1750,1680,1493,3,-3.35,12.94,9.27
1775515505.56,50.449181,30.452085,273.50,710.98,0.17,27.50,1410,1761,1508,1493,3,-3.67,13.77,9.55
1775515505.66,50.449181,30.452085,273.50,710.98,0.17,27.50,1412,1762,1673,1493,3,-3.67,13.77,9.55
1775515505.76,50.449181,30.452085,273.50,710.98,0.17,27.50,1412,1762,1675,1493,3,-3.67,13.77,9.55
1775515505.86,50.449161,30.452071,275.06,708.57,0.15,25.94,1405,1772,1511,1493,3,-3.90,14.44,9.76
1775515505.96,50.449161,30.452071,275.06,708.57,0.15,25.94,1407,1772,1668,1493,3,-3.90,14.44,9.76
1775515506.06,50.449141,30.452057,276.60,706.10,0.14,24.40,1401,1783,1508,1493,3,-4.13,15.03,10.09
1775515506.16,50.449141,30.452057,276.60,706.10,0.14,24.40,1403,1783,1662,1493,3,-4.13,15.03,10.09
1775515506.27,50.449120,30.452043,278.08,703.54,0.13,22.92,1396,1792,1508,1493,3,-4.45,15.76,10.34
1775515506.37,50.449120,30.452043,278.08,703.54,0.13,22.92,1398,1793,1656,1493,3,-4.45,15.76,10.34
1775515506.47,50.449120,30.452043,278.08,703.54,0.13,22.92,1398,1793,1657,1493,3,-4.45,15.76,10.34
1775515506.57,50.449098,30.452029,279.50,700.94,0.12,21.50,1393,1803,1509,1493,3,-4.74,16.50,10.64
1775515506.67,50.449098,30.452029,279.50,700.94,0.12,21.50,1394,1803,1652,1493,3,-4.74,16.50,10.64
1775515506.77,50.449076,30.452014,280.85,698.26,0.11,20.15,1389,1812,1510,1493,3,-4.97,17.12,10.91
1775515506.87,50.449076,30.452014,280.85,698.26,0.11,20.15,1391,1813,1646,1493,3,-4.97,17.12,10.91
1775515506.97,50.449076,30.452014,280.85,698.26,0.11,20.15,1391,1813,1647,1493,3,-4.97,17.12,10.91
1775515507.07,50.449053,30.451998,282.14,695.51,0.11,18.86,1388,1822,1512,1493,3,-5.19,17.78,11.22
1775515507.17,50.449053,30.451998,282.14,695.51,0.11,18.86,1387,1822,1642,1493,3,-5.19,17.78,11.22
1775515507.27,50.449030,30.451982,283.43,692.69,0.11,17.57,1384,1831,1506,1493,3,-5.30,18.32,11.51
1775515507.37,50.449030,30.451982,283.43,692.69,0.11,17.57,1384,1831,1636,1493,3,-5.30,18.32,11.51
1775515507.47,50.449030,30.451982,283.43,692.69,0.11,17.57,1384,1831,1637,1493,3,-5.30,18.32,11.51
1775515507.57,50.449007,30.451966,284.66,689.80,0.12,16.34,1382,1840,1507,1493,3,-5.51,18.95,11.73
1775515507.67,50.449007,30.451966,284.66,689.80,0.12,16.34,1381,1840,1632,1493,3,-5.51,18.95,11.73
1775515507.77,50.448982,30.451949,285.80,686.84,0.13,15.20,1380,1848,1512,1493,3,-5.63,19.46,11.99
1775515507.87,50.448982,30.451949,285.80,686.84,0.13,15.20,1378,1848,1627,1493,3,-5.63,19.46,11.99
1775515507.97,50.448982,30.451949,285.80,686.84,0.13,15.20,1378,1848,1627,1493,3,-5.63,19.46,11.99
1775515508.07,50.448957,30.451932,286.88,683.84,0.13,14.12,1376,1850,1515,1493,3,-5.79,20.07,12.23
1775515508.17,50.448957,30.451932,286.88,683.84,0.13,14.12,1376,1850,1623,1493,3,-5.79,20.07,12.23
1775515508.27,50.448932,30.451915,287.94,680.76,0.15,13.06,1375,1850,1511,1493,3,-5.91,20.41,12.46
1775515508.37,50.448932,30.451915,287.94,680.76,0.15,13.06,1373,1850,1618,1493,3,-5.91,20.41,12.46
1775515508.47,50.448932,30.451915,287.94,680.76,0.15,13.06,1373,1850,1619,1493,3,-5.91,20.41,12.46
1775515508.57,50.448906,30.451897,288.99,677.62,0.16,12.01,1373,1850,1509,1493,3,-6.07,20.58,12.70
1775515508.67,50.448906,30.451897,288.99,677.62,0.16,12.01,1371,1850,1614,1493,3,-6.07,20.58,12.70
1775515508.77,50.448880,30.451878,290.08,674.42,0.18,10.92,1372,1850,1499,1493,3,-6.22,20.66,12.89
1775515508.88,50.448880,30.451878,290.08,674.42,0.18,10.92,1369,1850,1609,1493,3,-6.22,20.66,12.89
1775515508.98,50.448880,30.451878,290.08,674.42,0.18,10.92,1369,1850,1609,1493,3,-6.22,20.66,12.89
1775515509.08,50.448853,30.451860,291.03,671.18,0.20,9.97,1373,1850,1509,1493,3,-6.35,20.67,13.00
1775515509.18,50.448853,30.451860,291.03,671.18,0.20,9.97,1370,1850,1605,1493,3,-6.35,20.67,13.00
1775515509.28,50.448827,30.451841,291.92,667.91,0.24,9.08,1376,1850,1512,1493,3,-6.40,20.66,13.12
1775515509.38,50.448827,30.451841,291.92,667.91,0.24,9.08,1371,1850,1601,1493,3,-6.40,20.66,13.12
1775515509.48,50.448827,30.451841,291.92,667.91,0.24,9.08,1371,1850,1601,1493,3,-6.40,20.66,13.12
1775515509.58,50.448800,30.451822,292.75,664.60,0.28,8.25,1377,1850,1514,1493,3,-6.33,20.65,13.20
1775515509.68,50.448800,30.451822,292.75,664.60,0.28,8.25,1372,1850,1597,1493,3,-6.33,20.65,13.20
1775515509.78,50.448772,30.451802,293.52,661.29,0.32,7.48,1381,1850,1516,1493,3,-6.27,20.66,13.27
1775515509.88,50.448772,30.451802,293.52,661.29,0.32,7.48,1374,1850,1593,1493,3,-6.27,20.66,13.27
1775515509.98,50.448772,30.451802,293.52,661.29,0.32,7.48,1374,1850,1594,1493,3,-6.27,20.66,13.27
1775515510.08,50.448745,30.451783,294.27,657.96,0.37,6.73,1382,1850,1515,1493,3,-6.12,20.67,13.39
1775515510.18,50.448745,30.451783,294.27,657.96,0.37,6.73,1376,1850,1590,1493,3,-6.12,20.67,13.39
1775515510.28,50.448718,30.451763,295.06,654.59,0.43,5.94,1386,1850,1506,1493,3,-6.06,20.64,13.50
1775515510.38,50.448718,30.451763,295.06,654.59,0.43,5.94,1378,1850,1586,1493,3,-6.06,20.64,13.50
1775515510.48,50.448718,30.451763,295.06,654.59,0.43,5.94,1378,1850,1586,1493,3,-6.06,20.64,13.50
1775515510.58,50.448690,30.451743,295.93,651.18,0.50,5.07,1390,1850,1495,1493,3,-5.89,20.63,13.57
1775515510.68,50.448690,30.451743,295.93,651.18,0.50,5.07,1380,1850,1582,1493,3,-5.89,20.63,13.57
1775515510.78,50.448662,30.451723,296.80,647.76,0.57,4.20,1392,1850,1490,1493,3,-5.78,20.64,13.62
1775515510.88,50.448662,30.451723,296.80,647.76,0.57,4.20,1382,1850,1577,1493,3,-5.78,20.64,13.62
1775515510.98,50.448662,30.451723,296.80,647.76,0.57,4.20,1383,1850,1577,1493,3,-5.78,20.64,13.62
1775515511.08,50.448634,30.451703,297.61,644.36,0.65,3.39,1396,1850,1492,1493,3,-5.59,20.62,13.62
1775515511.18,50.448634,30.451703,297.61,644.36,0.65,3.39,1385,1850,1573,1493,3,-5.59,20.62,13.62
1775515511.29,50.448606,30.451682,298.36,640.93,0.73,2.64,1400,1850,1494,1493,3,-5.48,20.63,13.63
1775515511.39,50.448606,30.451682,298.36,640.93,0.73,2.64,1388,1850,1569,1493,3,-5.48,20.63,13.63
1775515511.49,50.448606,30.451682,298.36,640.93,0.73,2.64,1388,1850,1569,1493,3,-5.48,20.63,13.63
1775515511.59,50.448579,30.451662,299.08,637.52,0.81,1.92,1402,1850,1493,1493,3,-5.20,20.63,13.62
1775515511.69,50.448579,30.451662,299.08,637.52,0.81,1.92,1391,1850,1565,1493,3,-5.20,20.63,13.62
1775515511.79,50.448551,30.451642,299.79,634.10,0.89,1.21,1404,1850,1491,1493,3,-5.09,20.64,13.65
1775515511.89,50.448551,30.451642,299.79,634.10,0.89,1.21,1393,1850,1561,1493,3,-5.09,20.64,13.65
1775515511.99,50.448551,30.451642,299.79,634.10,0.89,1.21,1394,1850,1561,1493,3,-5.09,20.64,13.65
1775515512.09,50.448523,30.451622,300.45,630.68,0.96,0.55,1406,1850,1491,1493,3,-4.94,20.63,13.64
1775515512.19,50.448523,30.451622,300.45,630.68,0.96,0.55,1396,1850,1557,1493,3,-4.94,20.63,13.64
1775515512.29,50.448495,30.451601,301.15,627.27,1.04,-0.15,1409,1850,1483,1493,3,-4.81,20.64,13.62
1775515512.39,50.448495,30.451601,301.15,627.27,1.04,-0.15,1399,1850,1553,1493,3,-4.81,20.64,13.62
1775515512.49,50.448495,30.451601,301.15,627.27,1.04,-0.15,1399,1850,1553,1493,3,-4.81,20.64,13.62
1775515512.59,50.448467,30.451581,301.84,623.86,1.11,-0.84,1412,1850,1480,1493,3,-4.60,20.65,13.58
1775515512.69,50.448467,30.451581,301.84,623.86,1.11,-0.84,1401,1850,1548,1493,3,-4.60,20.65,13.58
1775515512.79,50.448439,30.451561,302.50,620.46,1.18,-1.50,1412,1850,1479,1493,3,-4.53,20.64,13.59
1775515512.89,50.448439,30.451561,302.50,620.46,1.18,-1.50,1404,1850,1544,1493,3,-4.53,20.64,13.59
1775515512.99,50.448412,30.451541,303.16,617.06,1.24,-2.16,1415,1850,1474,1493,3,-4.34,20.61,13.56
1775515513.09,50.448412,30.451541,303.16,617.06,1.24,-2.16,1406,1850,1540,1493,3,-4.34,20.61,13.56
1775515513.19,50.448412,30.451541,303.16,617.06,1.24,-2.16,1406,1850,1540,1493,3,-4.34,20.61,13.56
1775515513.29,50.448384,30.451521,303.82,613.67,1.30,-2.82,1417,1850,1470,1493,3,-4.20,20.59,13.52
1775515513.39,50.448384,30.451521,303.82,613.67,1.30,-2.82,1408,1850,1536,1493,3,-4.20,20.59,13.52
1775515513.49,50.448384,30.451521,303.82,613.67,1.30,-2.82,1408,1850,1536,1493,3,-4.20,20.59,13.52
1775515513.60,50.448356,30.451501,304.45,610.30,1.36,-3.45,1417,1850,1469,1493,3,-4.06,20.58,13.45
1775515513.70,50.448356,30.451501,304.45,610.30,1.36,-3.45,1410,1850,1531,1493,3,-4.06,20.58,13.45
1775515513.80,50.448329,30.451482,305.05,606.95,1.40,-4.05,1418,1850,1468,1493,3,-4.01,20.59,13.40
1775515513.90,50.448329,30.451482,305.05,606.95,1.40,-4.05,1412,1850,1527,1493,3,-4.01,20.59,13.40
1775515514.00,50.448329,30.451482,305.05,606.95,1.40,-4.05,1412,1850,1527,1493,3,-4.01,20.59,13.40
1775515514.10,50.448302,30.451463,305.61,603.62,1.44,-4.61,1419,1850,1467,1493,3,-3.87,20.60,13.33
1775515514.20,50.448302,30.451463,305.61,603.62,1.44,-4.61,1413,1850,1523,1493,3,-3.87,20.60,13.33
1775515514.30,50.448274,30.451444,306.16,600.30,1.47,-5.16,1420,1850,1464,1493,3,-3.84,20.61,13.30
1775515514.40,50.448274,30.451444,306.16,600.30,1.47,-5.16,1415,1850,1519,1493,3,-3.84,20.61,13.30
1775515514.50,50.448274,30.451444,306.16,600.30,1.47,-5.16,1415,1850,1519,1493,3,-3.84,20.61,13.30
1775515514.60,50.448247,30.451425,306.68,596.99,1.50,-5.68,1419,1850,1464,1493,3,-3.71,20.61,13.29
1775515514.70,50.448247,30.451425,306.68,596.99,1.50,-5.68,1416,1850,1515,1493,3,-3.71,20.61,13.29
1775515514.80,50.448220,30.451406,307.16,593.66,1.52,-6.16,1420,1850,1464,1493,3,-3.68,20.61,13.24
1775515514.90,50.448220,30.451406,307.16,593.66,1.52,-6.16,1417,1850,1511,1493,3,-3.68,20.61,13.24
1775515515.00,50.448220,30.451406,307.16,593.66,1.52,-6.16,1417,1850,1511,1493,3,-3.68,20.61,13.24
1775515515.10,50.448193,30.451387,307.63,590.37,1.53,-6.63,1420,1850,1461,1493,3,-3.65,20.61,13.17
1775515515.20,50.448193,30.451387,307.63,590.37,1.53,-6.63,1418,1850,1507,1493,3,-3.65,20.61,13.17
1775515515.30,50.448166,30.451368,308.09,587.08,1.55,-7.09,1420,1850,1459,1493,3,-3.63,20.61,13.15
1775515515.40,50.448166,30.451368,308.09,587.08,1.55,-7.09,1418,1850,1504,1493,3,-3.63,20.61,13.15
1775515515.50,50.448166,30.451368,308.09,587.08,1.55,-7.09,1419,1850,1503,1493,3,-3.63,20.61,13.15
1775515515.60,50.448139,30.451349,308.56,583.78,1.55,-7.56,1418,1850,1453,1493,3,-3.58,20.63,13.14
1775515515.70,50.448139,30.451349,308.56,583.78,1.55,-7.56,1419,1850,1500,1493,3,-3.58,20.63,13.14
1775515515.80,50.448112,30.451331,309.04,580.50,1.54,-8.04,1418,1850,1449,1493,3,-3.60,20.63,13.08
1775515515.90,50.448112,30.451331,309.04,580.50,1.54,-8.04,1419,1850,1496,1493,3,-3.60,20.63,13.08
1775515516.00,50.448112,30.451331,309.04,580.50,1.54,-8.04,1419,1850,1495,1493,3,-3.60,20.63,13.08
1775515516.10,50.448085,30.451313,309.46,577.24,1.53,-8.46,1418,1850,1450,1493,3,-3.60,20.62,13.05
1775515516.20,50.448085,30.451313,309.46,577.24,1.53,-8.46,1419,1850,1492,1493,3,-3.60,20.62,13.05
1775515516.30,50.448058,30.451295,309.79,574.00,1.53,-8.79,1418,1850,1456,1493,3,-3.58,20.64,13.00
1775515516.41,50.448058,30.451295,309.79,574.00,1.53,-8.79,1419,1850,1489,1493,3,-3.58,20.64,13.00
1775515516.51,50.448058,30.451295,309.79,574.00,1.53,-8.79,1419,1850,1488,1493,3,-3.58,20.64,13.00
1775515516.61,50.448031,30.451277,310.06,570.76,1.51,-9.06,1416,1850,1459,1493,3,-3.59,20.64,12.94
1775515516.71,50.448031,30.451277,310.06,570.76,1.51,-9.06,1419,1850,1485,1493,3,-3.59,20.64,12.94
1775515516.81,50.448005,30.451259,310.31,567.52,1.49,-9.31,1416,1850,1459,1493,3,-3.61,20.64,12.94
1775515516.91,50.448005,30.451259,310.31,567.52,1.49,-9.31,1418,1850,1483,1493,3,-3.61,20.64,12.94
1775515517.01,50.447978,30.451241,310.53,564.28,1.47,-9.53,1414,1850,1459,1493,3,-3.64,20.64,12.92
1775515517.11,50.447978,30.451241,310.53,564.28,1.47,-9.53,1418,1850,1480,1493,3,-3.64,20.64,12.92
1775515517.21,50.447978,30.451241,310.53,564.28,1.47,-9.53,1418,1850,1480,1493,3,-3.64,20.64,12.92
1775515517.31,50.447951,30.451223,310.70,561.07,1.44,-9.70,1413,1850,1461,1493,3,-3.71,20.64,12.87
1775515517.41,50.447951,30.451223,310.70,561.07,1.44,-9.70,1417,1850,1478,1493,3,-3.71,20.64,12.87
1775515517.51,50.447924,30.451205,310.86,557.83,1.42,-9.86,1413,1850,1460,1493,3,-3.76,20.63,12.83
1775515517.61,50.447924,30.451205,310.86,557.83,1.42,-9.86,1417,1850,1475,1493,3,-3.76,20.63,12.83
1775515517.71,50.447924,30.451205,310.86,557.83,1.42,-9.86,1417,1850,1475,1493,3,-3.76,20.63,12.83
1775515517.81,50.447898,30.451187,311.02,554.63,1.39,-10.02,1412,1850,1457,1493,3,-3.79,20.61,12.84
1775515517.91,50.447898,30.451187,311.02,554.63,1.39,-10.02,1416,1850,1473,1493,3,-3.79,20.61,12.84
1775515518.01,50.447871,30.451169,311.15,551.42,1.36,-10.15,1411,1850,1459,1493,3,-3.81,20.60,12.81
1775515518.11,50.447871,30.451169,311.15,551.42,1.36,-10.15,1415,1850,1471,1493,3,-3.81,20.60,12.81
1775515518.21,50.447871,30.451169,311.15,551.42,1.36,-10.15,1415,1850,1470,1493,3,-3.81,20.60,12.81
1775515518.31,50.447845,30.451152,311.25,548.23,1.34,-10.25,1412,1850,1459,1493,3,-3.88,20.59,12.82
1775515518.41,50.447845,30.451152,311.25,548.23,1.34,-10.25,1415,1850,1468,1493,3,-3.88,20.59,12.82
1775515518.51,50.447819,30.451134,311.34,545.04,1.31,-10.34,1410,1850,1458,1493,3,-3.88,20.62,12.79
1775515518.61,50.447819,30.451134,311.34,545.04,1.31,-10.34,1414,1850,1466,1493,3,-3.88,20.62,12.79
1775515518.71,50.447819,30.451134,311.34,545.04,1.31,-10.34,1414,1850,1466,1493,3,-3.88,20.62,12.79
1775515518.82,50.447792,30.451116,311.43,541.85,1.29,-10.43,1410,1850,1456,1493,3,-3.92,20.63,12.77
1775515518.92,50.447792,30.451116,311.43,541.85,1.29,-10.43,1414,1850,1464,1493,3,-3.92,20.63,12.77
1775515519.02,50.447766,30.451099,311.48,538.68,1.25,-10.48,1408,1850,1458,1493,3,-3.96,20.60,12.72
1775515519.12,50.447766,30.451099,311.48,538.68,1.25,-10.48,1413,1850,1463,1493,3,-3.96,20.60,12.72
1775515519.22,50.447766,30.451099,311.48,538.68,1.25,-10.48,1413,1850,1462,1493,3,-3.96,20.60,12.72
1775515519.32,50.447740,30.451082,311.49,535.53,1.23,-10.49,1408,1850,1460,1493,3,-4.02,20.59,12.69
1775515519.42,50.447740,30.451082,311.49,535.53,1.23,-10.49,1412,1850,1461,1493,3,-4.02,20.59,12.69
1775515519.52,50.447714,30.451064,311.50,532.38,1.20,-10.50,1408,1850,1458,1493,3,-4.03,20.59,12.68
1775515519.62,50.447714,30.451064,311.50,532.38,1.20,-10.50,1412,1850,1459,1493,3,-4.03,20.59,12.68
1775515519.72,50.447714,30.451064,311.50,532.38,1.20,-10.50,1412,1850,1459,1493,3,-4.03,20.59,12.68
1775515519.82,50.447688,30.451047,311.50,529.23,1.18,-10.50,1408,1850,1458,1493,3,-4.07,20.60,12.63
1775515519.92,50.447688,30.451047,311.50,529.23,1.18,-10.50,1411,1850,1457,1493,3,-4.07,20.60,12.63
1775515520.02,50.447662,30.451029,311.50,526.10,1.17,-10.50,1408,1850,1457,1493,3,-4.08,20.61,12.61
1775515520.12,50.447662,30.451029,311.50,526.10,1.17,-10.50,1411,1850,1456,1493,3,-4.08,20.61,12.61
1775515520.22,50.447662,30.451029,311.50,526.10,1.17,-10.50,1411,1850,1455,1493,3,-4.08,20.61,12.61
1775515520.32,50.447636,30.451012,311.43,522.96,1.14,-10.43,1407,1850,1462,1493,3,-4.12,20.62,12.59
1775515520.42,50.447636,30.451012,311.43,522.96,1.14,-10.43,1410,1850,1455,1493,3,-4.12,20.62,12.59
1775515520.52,50.447611,30.450994,311.36,519.85,1.14,-10.36,1409,1850,1462,1493,3,-4.13,20.62,12.59
1775515520.62,50.447611,30.450994,311.36,519.85,1.14,-10.36,1410,1850,1454,1493,3,-4.13,20.62,12.59
1775515520.72,50.447611,30.450994,311.36,519.85,1.14,-10.36,1410,1850,1453,1493,3,-4.13,20.62,12.59
1775515520.82,50.447585,30.450977,311.27,516.72,1.13,-10.27,1409,1850,1462,1493,3,-4.15,20.62,12.55
1775515520.92,50.447585,30.450977,311.27,516.72,1.13,-10.27,1410,1850,1452,1493,3,-4.15,20.62,12.55
1775515521.02,50.447559,30.450959,311.21,513.60,1.13,-10.21,1410,1850,1459,1493,3,-4.13,20.63,12.47
1775515521.12,50.447559,30.450959,311.21,513.60,1.13,-10.21,1410,1850,1452,1493,3,-4.13,20.63,12.47
1775515521.22,50.447559,30.450959,311.21,513.60,1.13,-10.21,1411,1850,1451,1493,3,-4.13,20.63,12.47
1775515521.33,50.447533,30.450942,311.14,510.48,1.13,-10.14,1411,1850,1457,1493,3,-4.11,20.65,12.47
1775515521.43,50.447533,30.450942,311.14,510.48,1.13,-10.14,1411,1850,1450,1493,3,-4.11,20.65,12.47
1775515521.53,50.447508,30.450924,311.04,507.37,1.13,-10.04,1412,1850,1461,1493,3,-4.07,20.64,12.46
1775515521.63,50.447508,30.450924,311.04,507.37,1.13,-10.04,1411,1850,1450,1493,3,-4.07,20.64,12.46
1775515521.73,50.447508,30.450924,311.04,507.37,1.13,-10.04,1411,1850,1449,1493,3,-4.07,20.64,12.46
1775515521.83,50.447482,30.450906,310.91,504.24,1.13,-9.91,1411,1850,1462,1493,3,-4.04,20.63,12.44
1775515521.93,50.447482,30.450906,310.91,504.24,1.13,-9.91,1411,1850,1449,1493,3,-4.04,20.63,12.44
1775515522.03,50.447457,30.450889,310.76,501.13,1.14,-9.76,1412,1850,1464,1493,3,-4.03,20.62,12.44
1775515522.13,50.447457,30.450889,310.76,501.13,1.14,-9.76,1412,1850,1448,1493,3,-4.03,20.62,12.44
1775515522.23,50.447457,30.450889,310.76,501.13,1.14,-9.76,1412,1850,1448,1493,3,-4.03,20.62,12.44
1775515522.33,50.447431,30.450871,310.61,498.02,1.14,-9.61,1413,1850,1463,1493,3,-4.01,20.61,12.44
1775515522.43,50.447431,30.450871,310.61,498.02,1.14,-9.61,1412,1850,1447,1493,3,-4.01,20.61,12.44
1775515522.53,50.447406,30.450854,310.45,494.93,1.16,-9.45,1414,1850,1463,1493,3,-3.98,20.62,12.38
1775515522.63,50.447406,30.450854,310.45,494.93,1.16,-9.45,1413,1850,1447,1493,3,-3.98,20.62,12.38
1775515522.73,50.447406,30.450854,310.45,494.93,1.16,-9.45,1413,1850,1447,1493,3,-3.98,20.62,12.38
1775515522.83,50.447380,30.450836,310.33,491.84,1.18,-9.33,1416,1850,1459,1493,3,-3.94,20.64,12.35
1775515522.93,50.447380,30.450836,310.33,491.84,1.18,-9.33,1414,1850,1446,1493,3,-3.94,20.64,12.35
1775515523.03,50.447355,30.450818,310.17,488.74,1.18,-9.17,1415,1850,1463,1493,3,-3.89,20.65,12.41
1775515523.13,50.447355,30.450818,310.17,488.74,1.18,-9.17,1414,1850,1446,1493,3,-3.89,20.65,12.41
1775515523.23,50.447355,30.450818,310.17,488.74,1.18,-9.17,1414,1850,1446,1493,3,-3.89,20.65,12.41
1775515523.33,50.447329,30.450801,309.99,485.64,1.19,-8.99,1416,1850,1465,1493,3,-3.85,20.65,12.38
1775515523.43,50.447329,30.450801,309.99,485.64,1.19,-8.99,1415,1850,1446,1493,3,-3.85,20.65,12.38
1775515523.53,50.447304,30.450783,309.77,482.54,1.20,-8.77,1416,1850,1467,1493,3,-3.82,20.64,12.34
1775515523.64,50.447304,30.450783,309.77,482.54,1.20,-8.77,1415,1850,1446,1493,3,-3.82,20.64,12.34
1775515523.74,50.447304,30.450783,309.77,482.54,1.20,-8.77,1415,1850,1445,1493,3,-3.82,20.64,12.34
1775515523.84,50.447278,30.450765,309.58,479.44,1.21,-8.58,1417,1850,1465,1493,3,-3.78,20.64,12.35
1775515523.94,50.447278,30.450765,309.58,479.44,1.21,-8.58,1416,1850,1445,1493,3,-3.78,20.64,12.35
1775515524.04,50.447253,30.450748,309.38,476.34,1.21,-8.38,1416,1850,1466,1493,3,-3.75,20.64,12.35
1775515524.14,50.447253,30.450748,309.38,476.34,1.21,-8.38,1416,1850,1446,1493,3,-3.75,20.64,12.35
1775515524.24,50.447253,30.450748,309.38,476.34,1.21,-8.38,1416,1850,1445,1493,3,-3.75,20.64,12.35
1775515524.34,50.447227,30.450730,309.21,473.24,1.22,-8.21,1417,1850,1463,1493,3,-3.74,20.63,12.34
1775515524.44,50.447227,30.450730,309.21,473.24,1.22,-8.21,1416,1850,1445,1493,3,-3.74,20.63,12.34
1775515524.54,50.447202,30.450713,309.04,470.16,1.22,-8.04,1416,1850,1462,1493,3,-3.73,20.62,12.35
1775515524.64,50.447202,30.450713,309.04,470.16,1.22,-8.04,1416,1850,1445,1493,3,-3.73,20.62,12.35
1775515524.74,50.447202,30.450713,309.04,470.16,1.22,-8.04,1417,1850,1445,1493,3,-3.73,20.62,12.35
1775515524.84,50.447176,30.450696,308.87,467.07,1.21,-7.87,1416,1850,1462,1493,3,-3.72,20.61,12.34
1775515524.94,50.447176,30.450696,308.87,467.07,1.21,-7.87,1417,1850,1445,1493,3,-3.72,20.61,12.34
1775515525.04,50.447151,30.450678,308.75,463.99,1.22,-7.75,1418,1850,1457,1493,3,-3.72,20.60,12.32
1775515525.14,50.447151,30.450678,308.75,463.99,1.22,-7.75,1417,1850,1445,1493,3,-3.72,20.60,12.32
1775515525.24,50.447151,30.450678,308.75,463.99,1.22,-7.75,1417,1850,1444,1493,3,-3.72,20.60,12.32
1775515525.34,50.447126,30.450661,308.64,460.90,1.22,-7.64,1417,1850,1455,1493,3,-3.72,20.60,12.33
1775515525.44,50.447126,30.450661,308.64,460.90,1.22,-7.64,1417,1850,1444,1493,3,-3.72,20.60,12.33
1775515525.54,50.447100,30.450644,308.53,457.83,1.22,-7.53,1418,1850,1456,1493,3,-3.70,20.61,12.31
1775515525.64,50.447100,30.450644,308.53,457.83,1.22,-7.53,1418,1850,1444,1493,3,-3.70,20.61,12.31
1775515525.74,50.447100,30.450644,308.53,457.83,1.22,-7.53,1418,1850,1443,1493,3,-3.70,20.61,12.31
1775515525.84,50.447075,30.450626,308.41,454.74,1.23,-7.41,1419,1850,1455,1493,3,-3.67,20.62,12.32
1775515525.94,50.447075,30.450626,308.41,454.74,1.23,-7.41,1418,1850,1443,1493,3,-3.67,20.62,12.32
1775515526.05,50.447050,30.450609,308.31,451.66,1.24,-7.31,1419,1850,1453,1493,3,-3.63,20.62,12.28
1775515526.15,50.447050,30.450609,308.31,451.66,1.24,-7.31,1418,1850,1443,1493,3,-3.63,20.62,12.28
1775515526.25,50.447050,30.450609,308.31,451.66,1.24,-7.31,1419,1850,1442,1493,3,-3.63,20.62,12.28
1775515526.35,50.447024,30.450591,308.23,448.59,1.24,-7.23,1419,1850,1451,1493,3,-3.61,20.62,12.28
1775515526.45,50.447024,30.450591,308.23,448.59,1.24,-7.23,1419,1850,1442,1493,3,-3.61,20.62,12.28
1775515526.55,50.446999,30.450574,308.12,445.54,1.25,-7.12,1420,1850,1452,1493,3,-3.59,20.62,12.23
1775515526.65,50.446999,30.450574,308.12,445.54,1.25,-7.12,1419,1850,1442,1493,3,-3.59,20.62,12.23
1775515526.75,50.446999,30.450574,308.12,445.54,1.25,-7.12,1419,1850,1441,1493,3,-3.59,20.62,12.23
1775515526.85,50.446974,30.450557,308.00,442.49,1.24,-7.00,1419,1850,1454,1493,3,-3.57,20.63,12.25
1775515526.95,50.446974,30.450557,308.00,442.49,1.24,-7.00,1419,1850,1441,1493,3,-3.57,20.63,12.25
1775515527.05,50.446949,30.450540,307.86,439.42,1.23,-6.86,1418,1850,1455,1493,3,-3.55,20.63,12.27
1775515527.15,50.446949,30.450540,307.86,439.42,1.23,-6.86,1419,1850,1441,1493,3,-3.55,20.63,12.27
1775515527.25,50.446949,30.450540,307.86,439.42,1.23,-6.86,1419,1850,1441,1493,3,-3.55,20.63,12.27
1775515527.35,50.446923,30.450522,307.72,436.35,1.23,-6.72,1418,1850,1456,1493,3,-3.57,20.62,12.29
1775515527.45,50.446923,30.450522,307.72,436.35,1.23,-6.72,1419,1850,1441,1492,3,-3.57,20.62,12.29
1775515527.55,50.446898,30.450505,307.55,433.28,1.21,-6.55,1416,1850,1459,1492,3,-3.59,20.62,12.28
1775515527.65,50.446898,30.450505,307.55,433.28,1.21,-6.55,1419,1850,1441,1492,3,-3.59,20.62,12.28
1775515527.75,50.446898,30.450505,307.55,433.28,1.21,-6.55,1419,1850,1441,1492,3,-3.59,20.62,12.28
1775515527.85,50.446873,30.450488,307.38,430.21,1.19,-6.38,1415,1850,1458,1492,3,-3.62,20.60,12.28
1775515527.95,50.446873,30.450488,307.38,430.21,1.19,-6.38,1418,1850,1441,1492,3,-3.62,20.60,12.28
1775515528.05,50.446847,30.450471,307.19,427.14,1.17,-6.19,1415,1850,1460,1492,3,-3.66,20.60,12.25
1775515528.15,50.446847,30.450471,307.19,427.14,1.17,-6.19,1418,1850,1441,1492,3,-3.66,20.60,12.25
1775515528.25,50.446847,30.450471,307.19,427.14,1.17,-6.19,1418,1850,1441,1492,3,-3.66,20.60,12.25
1775515528.35,50.446822,30.450454,306.98,424.07,1.15,-5.98,1415,1850,1462,1492,3,-3.73,20.62,12.27
1775515528.45,50.446822,30.450454,306.98,424.07,1.15,-5.98,1418,1850,1441,1492,3,-3.73,20.62,12.27
1775515528.55,50.446797,30.450437,306.76,421.00,1.13,-5.76,1414,1850,1464,1492,3,-3.72,20.64,12.29
1775515528.65,50.446797,30.450437,306.76,421.00,1.13,-5.76,1417,1850,1442,1492,3,-3.72,20.64,12.29
1775515528.75,50.446797,30.450437,306.76,421.00,1.13,-5.76,1417,1850,1442,1492,3,-3.72,20.64,12.29
1775515528.86,50.446771,30.450420,306.50,417.93,1.11,-5.50,1415,1850,1470,1492,3,-3.74,20.64,12.32
1775515528.96,50.446771,30.450420,306.50,417.93,1.11,-5.50,1417,1850,1443,1492,3,-3.74,20.64,12.32
1775515529.06,50.446746,30.450403,306.16,414.86,1.09,-5.16,1414,1850,1478,1492,3,-3.74,20.64,12.29
1775515529.16,50.446746,30.450403,306.16,414.86,1.09,-5.16,1416,1850,1444,1492,3,-3.74,20.64,12.29
1775515529.26,50.446721,30.450386,305.88,411.78,1.07,-4.88,1413,1850,1474,1492,3,-3.77,20.62,12.29
1775515529.36,50.446721,30.450386,305.88,411.78,1.07,-4.88,1416,1850,1445,1492,3,-3.77,20.62,12.29
1775515529.46,50.446721,30.450386,305.88,411.78,1.07,-4.88,1416,1850,1445,1492,3,-3.77,20.62,12.29
1775515529.56,50.446695,30.450369,305.63,408.71,1.06,-4.63,1414,1850,1470,1492,3,-3.83,20.61,12.30
1775515529.66,50.446695,30.450369,305.63,408.71,1.06,-4.63,1416,1850,1446,1492,3,-3.83,20.61,12.30
1775515529.76,50.446670,30.450352,305.39,405.64,1.04,-4.39,1413,1850,1471,1492,3,-3.82,20.62,12.33
1775515529.86,50.446670,30.450352,305.39,405.64,1.04,-4.39,1415,1850,1447,1492,3,-3.82,20.62,12.33
1775515529.96,50.446670,30.450352,305.39,405.64,1.04,-4.39,1415,1850,1446,1492,3,-3.82,20.62,12.33
1775515530.06,50.446644,30.450335,305.13,402.55,1.02,-4.13,1411,1850,1473,1492,3,-3.83,20.64,12.33
1775515530.16,50.446644,30.450335,305.13,402.55,1.02,-4.13,1415,1850,1447,1492,3,-3.83,20.64,12.33
1775515530.26,50.446619,30.450317,304.87,399.46,1.00,-3.87,1412,1850,1474,1492,3,-3.88,20.64,12.37
1775515530.36,50.446619,30.450317,304.87,399.46,1.00,-3.87,1414,1850,1448,1492,3,-3.88,20.64,12.37
1775515530.46,50.446619,30.450317,304.87,399.46,1.00,-3.87,1414,1850,1448,1492,3,-3.88,20.64,12.37
1775515530.56,50.446593,30.450300,304.58,396.37,0.98,-3.58,1410,1850,1479,1492,3,-3.91,20.61,12.38
1775515530.66,50.446593,30.450300,304.58,396.37,0.98,-3.58,1414,1850,1450,1492,3,-3.91,20.61,12.38
1775515530.76,50.446593,30.450300,304.58,396.37,0.98,-3.58,1414,1850,1449,1492,3,-3.91,20.61,12.38
1775515530.86,50.446568,30.450283,304.27,393.27,0.96,-3.27,1410,1850,1481,1492,3,-3.96,20.60,12.41
1775515530.96,50.446568,30.450283,304.27,393.27,0.96,-3.27,1413,1850,1451,1492,3,-3.96,20.60,12.41
1775515531.06,50.446542,30.450266,303.96,390.19,0.94,-2.96,1410,1850,1484,1492,3,-3.96,20.59,12.46
1775515531.17,50.446542,30.450266,303.96,390.19,0.94,-2.96,1413,1850,1452,1492,3,-3.96,20.59,12.46
1775515531.27,50.446517,30.450248,303.66,387.06,0.92,-2.66,1410,1850,1484,1492,3,-4.01,20.61,12.48
1775515531.37,50.446517,30.450248,303.66,387.06,0.92,-2.66,1412,1850,1454,1492,3,-4.01,20.61,12.48
1775515531.47,50.446517,30.450248,303.66,387.06,0.92,-2.66,1413,1850,1454,1492,3,-4.01,20.61,12.48
1775515531.57,50.446491,30.450231,303.35,383.94,0.91,-2.35,1410,1850,1486,1492,3,-3.99,20.59,12.50
1775515531.67,50.446491,30.450231,303.35,383.94,0.91,-2.35,1412,1850,1455,1492,3,-3.99,20.59,12.50
1775515531.77,50.446465,30.450214,303.02,380.82,0.89,-2.02,1409,1850,1490,1492,3,-4.01,20.60,12.55
1775515531.87,50.446465,30.450214,303.02,380.82,0.89,-2.02,1412,1850,1457,1492,3,-4.01,20.60,12.55
1775515531.97,50.446465,30.450214,303.02,380.82,0.89,-2.02,1412,1850,1457,1492,3,-4.01,20.60,12.55
1775515532.07,50.446439,30.450196,302.71,377.67,0.89,-1.71,1412,1850,1489,1492,3,-4.05,20.61,12.56
1775515532.17,50.446439,30.450196,302.71,377.67,0.89,-1.71,1412,1850,1459,1492,3,-4.05,20.61,12.56
1775515532.27,50.446439,30.450196,302.71,377.67,0.89,-1.71,1412,1850,1458,1492,3,-4.05,20.61,12.56
1775515532.37,50.446413,30.450178,302.35,374.54,0.87,-1.35,1409,1850,1496,1492,3,-4.03,20.62,12.59
1775515532.47,50.446413,30.450178,302.35,374.54,0.87,-1.35,1412,1850,1460,1492,3,-4.03,20.62,12.59
1775515532.57,50.446387,30.450161,302.02,371.39,0.86,-1.02,1410,1850,1495,1492,3,-4.03,20.62,12.56
1775515532.67,50.446387,30.450161,302.02,371.39,0.86,-1.02,1411,1850,1462,1492,3,-4.03,20.62,12.56
1775515532.77,50.446387,30.450161,302.02,371.39,0.86,-1.02,1412,1850,1462,1492,3,-4.03,20.62,12.56
1775515532.87,50.446362,30.450143,301.78,368.26,0.87,-0.78,1412,1850,1488,1492,3,-4.07,20.62,12.55
1775515532.97,50.446362,30.450143,301.78,368.26,0.87,-0.78,1412,1850,1464,1492,3,-4.07,20.62,12.55
1775515533.07,50.446336,30.450126,301.57,365.14,0.86,-0.57,1411,1850,1485,1492,3,-4.06,20.62,12.55
1775515533.17,50.446336,30.450126,301.57,365.14,0.86,-0.57,1412,1850,1465,1492,3,-4.06,20.62,12.55
1775515533.27,50.446310,30.450108,301.41,362.01,0.86,-0.41,1412,1850,1482,1492,3,-4.03,20.62,12.56
1775515533.37,50.446310,30.450108,301.41,362.01,0.86,-0.41,1412,1850,1466,1492,3,-4.03,20.62,12.56
1775515533.47,50.446310,30.450108,301.41,362.01,0.86,-0.41,1412,1850,1466,1492,3,-4.03,20.62,12.56
1775515533.58,50.446284,30.450090,301.28,358.86,0.86,-0.28,1412,1850,1480,1492,3,-4.00,20.63,12.55
1775515533.68,50.446284,30.450090,301.28,358.86,0.86,-0.28,1412,1850,1466,1492,3,-4.00,20.63,12.55
1775515533.78,50.446258,30.450073,301.12,355.74,0.86,-0.12,1412,1850,1483,1492,3,-4.00,20.63,12.56
1775515533.88,50.446258,30.450073,301.12,355.74,0.86,-0.12,1412,1850,1467,1492,3,-4.00,20.63,12.56
