Timestamp,Lat,Lon,Alt,DistToTarget,XTE,AltError,RollPWM,PitchPWM,ThrottlePWM,YawPWM,Heading,RollDeg,PitchDeg,GroundSpeed
1775525266.09,50.450739,30.461242,0.00,1245.70,0.00,5.00,1500,1500,1545,1500,1,0.09,0.08,0.01
1775525266.19,50.450739,30.461242,0.00,1245.70,0.00,5.00,1500,1500,1545,1500,1,0.09,0.08,0.01
1775525266.30,50.450739,30.461242,0.00,1245.70,0.00,5.00,1500,1500,1545,1500,1,0.10,0.08,0.01
1775525266.40,50.450739,30.461242,0.00,1245.70,0.00,5.00,1500,1500,1545,1500,1,0.10,0.08,0.01
1775525266.50,50.450739,30.461242,0.00,1245.70,0.00,5.00,1500,1500,1546,1500,1,0.10,0.08,0.01
1775525266.60,50.450739,30.461242,0.00,1245.70,0.00,5.00,1500,1500,1546,1500,1,0.10,0.09,0.01
1775525266.70,50.450739,30.461242,0.00,1245.70,0.00,5.00,1500,1500,1546,1500,1,0.10,0.09,0.01
1775525266.80,50.450739,30.461242,0.00,1245.70,0.00,5.00,1500,1500,1547,1500,1,0.10,0.09,0.01
1775525266.90,50.450739,30.461242,0.00,1245.70,0.00,5.00,1500,1500,1547,1500,1,0.10,0.09,0.01
1775525267.00,50.450739,30.461242,0.00,1245.70,0.00,5.00,1500,1500,1547,1500,1,0.10,0.09,0.01
1775525267.10,50.450739,30.461242,0.00,1245.70,0.00,5.00,1500,1500,1548,1500,1,0.11,0.09,0.01
1775525267.20,50.450739,30.461242,0.00,1245.70,0.00,5.00,1500,1500,1548,1500,1,0.11,0.09,0.01
1775525267.30,50.450739,30.461242,0.00,1245.70,0.00,5.00,1500,1500,1548,1500,1,0.11,0.09,0.01
1775525267.40,50.450739,30.461242,0.00,1245.70,0.00,5.00,1500,1500,1548,1500,1,0.11,0.09,0.01
1775525267.50,50.450739,30.461242,0.00,1245.70,0.00,5.00,1500,1500,1549,1500,1,0.11,0.09,0.01
1775525267.60,50.450739,30.461242,0.00,1245.70,0.00,5.00,1500,1500,1549,1500,1,0.11,0.10,0.01
1775525267.70,50.450739,30.461242,0.00,1245.70,0.00,5.00,1500,1500,1549,1500,1,0.11,0.10,0.01
1775525267.80,50.450739,30.461242,0.00,1245.70,0.00,5.00,1500,1500,1550,1500,1,0.12,0.10,0.01
1775525267.90,50.450739,30.461242,0.00,1245.70,0.00,5.00,1500,1500,1550,1500,1,0.12,0.10,0.01
1775525268.00,50.450739,30.461242,0.00,1245.70,0.00,5.00,1500,1500,1550,1500,1,0.12,0.10,0.01
1775525268.10,50.450739,30.461242,0.03,1245.70,0.00,4.97,1500,1500,1547,1500,1,0.12,0.11,0.01
1775525268.20,50.450739,30.461242,0.03,1245.70,0.00,4.97,1500,1500,1551,1500,1,0.12,0.11,0.01
1775525268.30,50.450739,30.461242,0.08,1245.70,0.00,4.92,1500,1500,1546,1500,1,0.12,0.11,0.01
1775525268.40,50.450739,30.461242,0.08,1245.70,0.00,4.92,1500,1500,1551,1500,1,0.12,0.11,0.01
1775525268.50,50.450739,30.461242,0.08,1245.70,0.00,4.92,1500,1500,1551,1500,1,0.12,0.11,0.01
1775525268.60,50.450739,30.461242,0.11,1245.70,0.00,4.89,1500,1500,1548,1500,1,0.12,0.11,0.00
1775525268.70,50.450739,30.461242,0.11,1245.70,0.00,4.89,1500,1500,1552,1500,1,0.12,0.11,0.00
1775525268.80,50.450739,30.461242,0.34,1245.70,0.00,4.66,1500,1500,1528,1500,1,-0.01,-0.00,0.03
1775525268.90,50.450739,30.461242,0.34,1245.70,0.00,4.66,1500,1500,1551,1500,1,-0.01,-0.00,0.03
1775525269.00,50.450739,30.461242,0.34,1245.70,0.00,4.66,1500,1500,1551,1500,1,-0.01,-0.00,0.03
1775525269.11,50.450739,30.461242,0.76,1245.70,0.00,4.24,1500,1500,1506,1500,1,-0.08,-0.03,0.03
1775525269.21,50.450739,30.461242,0.76,1245.70,0.00,4.24,1500,1500,1549,1500,1,-0.08,-0.03,0.03
1775525269.31,50.450739,30.461242,1.20,1245.70,0.00,3.80,1500,1500,1503,1500,1,-0.09,-0.05,0.04
1775525269.41,50.450739,30.461242,1.20,1245.70,0.00,3.80,1500,1500,1547,1500,1,-0.09,-0.05,0.04
1775525269.51,50.450739,30.461242,1.20,1245.70,0.00,3.80,1500,1500,1547,1500,1,-0.09,-0.05,0.04
1775525269.61,50.450739,30.461242,1.67,1245.70,0.00,3.33,1500,1500,1498,1500,1,-0.05,-0.07,0.05
1775525269.71,50.450739,30.461242,1.67,1245.70,0.00,3.33,1500,1500,1545,1500,1,-0.05,-0.07,0.05
1775525269.81,50.450739,30.461241,2.14,1245.70,0.00,2.86,1500,1500,1495,1500,1,-0.04,-0.04,0.05
1775525269.91,50.450739,30.461241,2.14,1245.70,0.00,2.86,1500,1500,1542,1500,1,-0.04,-0.04,0.05
1775525270.01,50.450739,30.461241,2.14,1245.70,0.00,2.86,1500,1500,1542,1500,1,-0.04,-0.04,0.05
1775525270.11,50.450739,30.461241,2.68,1245.70,0.00,2.32,1500,1500,1486,1500,1,-0.03,-0.03,0.05
1775525270.21,50.450739,30.461241,2.68,1245.70,0.00,2.32,1500,1500,1539,1500,1,-0.03,-0.03,0.05
1775525270.31,50.450739,30.461241,3.24,1245.70,0.00,1.76,1500,1500,1480,1507,0,-0.02,-0.04,0.05
1775525270.41,50.450739,30.461241,3.24,1245.70,0.00,1.76,1500,1500,1536,1503,0,-0.02,-0.04,0.05
1775525270.51,50.450739,30.461241,3.24,1245.70,0.00,1.76,1500,1500,1536,1503,0,-0.02,-0.04,0.05
1775525270.61,50.450739,30.461241,3.74,1245.70,0.00,1.26,1500,1500,1484,1503,0,-0.01,-0.03,0.07
1775525270.71,50.450739,30.461241,3.74,1245.70,0.00,1.26,1500,1500,1534,1503,0,-0.01,-0.03,0.07
1775525270.81,50.450739,30.461241,4.19,1245.70,0.00,0.81,1500,1500,1485,1503,0,-0.01,-0.03,0.12
1775525270.91,50.450739,30.461241,4.19,1245.70,0.00,0.81,1500,1500,1531,1503,0,-0.01,-0.03,0.12
1775525271.01,50.450739,30.461240,4.67,1245.62,0.10,2.33,1427,1568,1513,1503,0,-0.00,-0.03,0.19
1775525271.11,50.450739,30.461240,4.67,1245.62,0.10,4.33,1427,1568,1725,1503,0,-0.00,-0.03,0.19
1775525271.21,50.450739,30.461240,4.67,1245.62,0.10,6.33,1427,1568,1737,1503,0,-0.00,-0.03,0.19
1775525271.31,50.450739,30.461240,5.22,1245.56,0.10,7.78,1426,1568,1691,1503,0,-1.41,1.27,0.31
1775525271.41,50.450739,30.461240,5.22,1245.56,0.10,9.78,1427,1568,1759,1503,0,-1.41,1.27,0.31
1775525271.51,50.450739,30.461240,5.22,1245.56,0.10,11.78,1427,1568,1772,1503,0,-1.41,1.27,0.31
1775525271.61,50.450738,30.461239,6.05,1245.45,0.10,12.95,1427,1569,1697,1503,0,-2.79,2.48,0.60
1775525271.72,50.450738,30.461239,6.05,1245.45,0.10,14.95,1427,1568,1792,1503,0,-2.79,2.48,0.60
1775525271.82,50.450737,30.461236,7.16,1245.26,0.09,15.84,1426,1568,1689,1503,0,-3.22,2.93,0.92
1775525271.92,50.450737,30.461236,7.16,1245.26,0.09,17.84,1427,1568,1800,1503,0,-3.22,2.93,0.92
1775525272.02,50.450737,30.461236,7.16,1245.26,0.09,19.84,1427,1568,1800,1503,0,-3.22,2.93,0.92
1775525272.12,50.450735,30.461234,8.52,1244.99,0.08,20.48,1425,1566,1695,1503,0,-3.32,3.03,1.27
1775525272.22,50.450735,30.461234,8.52,1244.99,0.08,22.48,1426,1568,1800,1503,0,-3.32,3.03,1.27
1775525272.32,50.450733,30.461230,10.24,1244.64,0.06,22.76,1424,1565,1675,1503,0,-3.35,3.05,1.60
1775525272.42,50.450733,30.461230,10.24,1244.64,0.06,24.76,1426,1567,1800,1503,0,-3.35,3.05,1.60
1775525272.52,50.450733,30.461230,10.24,1244.64,0.06,26.76,1426,1567,1800,1503,0,-3.35,3.05,1.60
1775525272.62,50.450730,30.461226,12.07,1244.21,0.02,26.93,1422,1562,1694,1503,0,-3.41,2.96,1.87
1775525272.72,50.450730,30.461226,12.07,1244.21,0.02,28.93,1425,1566,1800,1503,0,-3.41,2.96,1.87
1775525272.82,50.450727,30.461221,14.02,1243.72,-0.02,28.98,1421,1561,1698,1503,0,-3.47,2.85,2.16
1775525272.92,50.450727,30.461221,14.02,1243.72,-0.02,30.98,1424,1565,1800,1503,0,-3.47,2.85,2.16
1775525273.02,50.450727,30.461221,14.02,1243.72,-0.02,32.98,1424,1565,1800,1503,0,-3.47,2.85,2.16
1775525273.12,50.450723,30.461216,16.11,1243.15,-0.06,32.89,1419,1559,1705,1503,0,-3.54,2.74,2.44
1775525273.22,50.450723,30.461216,16.11,1243.15,-0.06,34.89,1423,1564,1800,1503,0,-3.54,2.74,2.44
1775525273.32,50.450719,30.461209,18.39,1242.51,-0.12,34.61,1416,1556,1694,1503,0,-3.59,2.65,2.69
1775525273.42,50.450719,30.461209,18.39,1242.51,-0.12,36.61,1422,1563,1800,1503,0,-3.59,2.65,2.69
1775525273.52,50.450719,30.461209,18.39,1242.51,-0.12,38.61,1422,1563,1800,1503,0,-3.59,2.65,2.69
1775525273.62,50.450715,30.461202,20.70,1241.80,-0.18,38.30,1415,1554,1711,1503,0,-3.73,2.54,2.94
1775525273.72,50.450715,30.461202,20.70,1241.80,-0.18,40.30,1420,1561,1800,1503,0,-3.73,2.54,2.94
1775525273.82,50.450710,30.461195,23.05,1241.03,-0.24,39.95,1413,1552,1716,1503,0,-3.75,2.48,3.19
1775525273.92,50.450710,30.461195,23.05,1241.03,-0.24,41.95,1419,1559,1800,1503,0,-3.75,2.48,3.19
1775525274.02,50.450704,30.461187,25.36,1240.21,-0.31,41.64,1410,1550,1729,1503,0,-3.90,2.32,3.41
1775525274.12,50.450704,30.461187,25.36,1240.21,-0.31,43.64,1417,1557,1800,1503,0,-3.90,2.32,3.41
1775525274.23,50.450704,30.461187,25.36,1240.21,-0.31,45.64,1417,1557,1800,1503,0,-3.90,2.32,3.41
1775525274.33,50.450699,30.461178,27.68,1239.32,-0.38,45.32,1409,1548,1749,1503,0,-4.05,2.18,3.64
1775525274.43,50.450699,30.461178,27.68,1239.32,-0.38,47.32,1416,1556,1800,1503,0,-4.05,2.18,3.64
1775525274.53,50.450693,30.461169,30.11,1238.39,-0.45,46.89,1408,1547,1746,1503,0,-4.16,2.08,3.87
1775525274.63,50.450693,30.461169,30.11,1238.39,-0.45,48.89,1414,1554,1800,1503,0,-4.16,2.08,3.87
1775525274.73,50.450693,30.461169,30.11,1238.39,-0.45,50.89,1414,1554,1800,1503,0,-4.16,2.08,3.87
1775525274.83,50.450686,30.461159,32.66,1237.39,-0.51,50.34,1406,1544,1754,1503,0,-4.26,1.96,4.05
1775525274.93,50.450686,30.461159,32.66,1237.39,-0.51,52.34,1412,1552,1800,1503,0,-4.26,1.96,4.05
1775525275.03,50.450679,30.461149,35.14,1236.36,-0.59,51.86,1404,1542,1769,1503,0,-4.31,1.89,4.22
1775525275.13,50.450679,30.461149,35.14,1236.36,-0.59,53.86,1411,1550,1800,1503,0,-4.31,1.89,4.22
1775525275.23,50.450679,30.461149,35.14,1236.36,-0.59,55.86,1411,1550,1800,1503,0,-4.31,1.89,4.22
1775525275.33,50.450673,30.461138,37.55,1235.28,-0.65,55.45,1402,1541,1797,1503,0,-4.46,1.73,4.44
1775525275.43,50.450673,30.461138,37.55,1235.28,-0.65,57.45,1409,1548,1800,1503,0,-4.46,1.73,4.44
1775525275.53,50.450665,30.461127,39.88,1234.15,-0.72,57.12,1400,1538,1800,1503,0,-4.54,1.67,4.61
1775525275.63,50.450665,30.461127,39.88,1234.15,-0.72,59.12,1407,1546,1800,1503,0,-4.54,1.67,4.61
1775525275.73,50.450665,30.461127,39.88,1234.15,-0.72,61.12,1407,1546,1800,1503,0,-4.54,1.67,4.61
1775525275.83,50.450658,30.461115,42.23,1232.96,-0.79,60.77,1399,1537,1800,1503,0,-4.70,1.50,4.82
1775525275.93,50.450658,30.461115,42.23,1232.96,-0.79,62.77,1406,1544,1800,1503,0,-4.70,1.50,4.82
1775525276.03,50.450650,30.461102,44.66,1231.74,-0.84,62.34,1399,1537,1800,1503,0,-4.77,1.42,5.01
1775525276.13,50.450650,30.461102,44.66,1231.74,-0.84,64.34,1404,1543,1800,1503,0,-4.77,1.42,5.01
1775525276.23,50.450650,30.461102,44.66,1231.74,-0.84,66.34,1404,1543,1800,1503,0,-4.77,1.42,5.01
1775525276.33,50.450642,30.461089,47.12,1230.47,-0.89,65.88,1398,1536,1800,1503,0,-4.85,1.31,5.18
1775525276.43,50.450642,30.461089,47.12,1230.47,-0.89,67.88,1403,1541,1800,1503,0,-4.85,1.31,5.18
1775525276.53,50.450642,30.461089,47.12,1230.47,-0.89,69.88,1403,1541,1800,1503,0,-4.85,1.31,5.18
1775525276.64,50.450634,30.461076,49.55,1229.16,-0.94,69.45,1397,1535,1800,1503,0,-4.89,1.27,5.32
1775525276.74,50.450634,30.461076,49.55,1229.16,-0.94,71.45,1402,1540,1800,1503,0,-4.89,1.27,5.32
1775525276.84,50.450626,30.461062,52.03,1227.81,-0.96,70.97,1399,1536,1800,1503,0,-4.94,1.19,5.50
1775525276.94,50.450626,30.461062,52.03,1227.81,-0.96,72.97,1401,1539,1800,1503,0,-4.94,1.19,5.50
1775525277.04,50.450626,30.461062,52.03,1227.81,-0.96,74.97,1401,1539,1800,1503,0,-4.94,1.19,5.50
1775525277.14,50.450618,30.461047,54.60,1226.41,-0.99,74.40,1398,1536,1800,1503,0,-4.99,1.13,5.65
1775525277.24,50.450618,30.461047,54.60,1226.41,-0.99,76.40,1401,1539,1800,1503,0,-4.99,1.13,5.65
1775525277.34,50.450609,30.461033,57.16,1224.99,-1.00,75.84,1398,1536,1800,1503,0,-5.00,1.12,5.80
1775525277.44,50.450609,30.461033,57.16,1224.99,-1.00,77.84,1400,1538,1800,1503,0,-5.00,1.12,5.80
1775525277.54,50.450600,30.461017,59.70,1223.52,-1.01,77.30,1399,1537,1800,1503,0,-5.00,1.12,5.92
1775525277.64,50.450600,30.461017,59.70,1223.52,-1.01,79.30,1400,1538,1800,1503,0,-5.00,1.12,5.92
1775525277.74,50.450600,30.461017,59.70,1223.52,-1.01,81.30,1400,1538,1800,1503,0,-5.00,1.12,5.92
1775525277.84,50.450591,30.461001,62.21,1222.00,-1.02,80.79,1398,1536,1800,1503,0,-5.00,1.10,6.07
1775525277.94,50.450591,30.461001,62.21,1222.00,-1.02,82.79,1399,1537,1800,1503,0,-5.00,1.10,6.07
1775525278.04,50.450582,30.460985,64.70,1220.47,-1.02,82.30,1399,1537,1800,1503,0,-5.03,1.08,6.20
1775525278.14,50.450582,30.460985,64.70,1220.47,-1.02,84.30,1399,1537,1800,1503,0,-5.03,1.08,6.20
1775525278.24,50.450582,30.460985,64.70,1220.47,-1.02,86.30,1399,1537,1800,1503,0,-5.03,1.08,6.20
1775525278.34,50.450573,30.460968,67.23,1218.90,-1.02,85.77,1400,1537,1800,1503,0,-5.07,1.07,6.30
1775525278.44,50.450573,30.460968,67.23,1218.90,-1.02,87.77,1399,1537,1800,1503,0,-5.07,1.07,6.30
1775525278.54,50.450563,30.460951,69.76,1217.30,-1.01,87.24,1400,1538,1800,1503,0,-5.07,1.06,6.43
1775525278.64,50.450563,30.460951,69.76,1217.30,-1.01,89.24,1399,1537,1800,1503,0,-5.07,1.06,6.43
1775525278.75,50.450563,30.460951,69.76,1217.30,-1.01,91.24,1399,1537,1800,1503,0,-5.07,1.06,6.43
1775525278.85,50.450553,30.460934,72.37,1215.67,-1.01,90.63,1399,1537,1800,1503,0,-5.07,1.06,6.53
1775525278.95,50.450553,30.460934,72.37,1215.67,-1.01,92.63,1399,1537,1800,1503,0,-5.07,1.06,6.53
1775525279.05,50.450544,30.460916,75.03,1214.02,-0.99,91.97,1401,1539,1800,1503,0,-5.09,1.06,6.65
1775525279.15,50.450544,30.460916,75.03,1214.02,-0.99,93.97,1399,1537,1800,1503,0,-5.09,1.06,6.65
1775525279.25,50.450544,30.460916,75.03,1214.02,-0.99,95.97,1399,1537,1800,1503,0,-5.09,1.06,6.65
1775525279.35,50.450534,30.460899,77.70,1212.34,-1.00,95.30,1399,1537,1800,1503,0,-5.09,1.08,6.69
1775525279.45,50.450534,30.460899,77.70,1212.34,-1.00,97.30,1399,1537,1800,1503,0,-5.09,1.08,6.69
1775525279.55,50.450524,30.460881,80.20,1210.67,-0.99,96.80,1400,1538,1800,1503,0,-5.09,1.07,6.74
1775525279.65,50.450524,30.460881,80.20,1210.67,-0.99,98.80,1399,1537,1800,1503,0,-5.09,1.07,6.74
1775525279.75,50.450524,30.460881,80.20,1210.67,-0.99,100.80,1399,1537,1800,1503,0,-5.09,1.07,6.74
1775525279.85,50.450514,30.460863,82.72,1208.96,-0.98,100.28,1400,1538,1800,1503,0,-5.06,1.06,6.82
1775525279.95,50.450514,30.460863,82.72,1208.96,-0.98,102.28,1399,1537,1800,1503,0,-5.06,1.06,6.82
1775525280.05,50.450504,30.460845,85.11,1207.25,-0.98,101.89,1399,1537,1800,1503,0,-5.05,1.05,6.83
1775525280.15,50.450504,30.460845,85.11,1207.25,-0.98,103.89,1399,1537,1800,1503,0,-5.05,1.05,6.83
1775525280.25,50.450504,30.460845,85.11,1207.25,-0.98,105.89,1399,1537,1800,1503,0,-5.05,1.05,6.83
1775525280.35,50.450493,30.460827,87.45,1205.53,-0.98,105.55,1400,1537,1800,1503,0,-5.05,1.05,6.90
1775525280.45,50.450493,30.460827,87.45,1205.53,-0.98,107.55,1399,1537,1800,1503,0,-5.05,1.05,6.90
1775525280.55,50.450483,30.460808,89.92,1203.81,-0.97,107.08,1400,1538,1800,1503,0,-5.05,1.05,6.99
1775525280.65,50.450483,30.460808,89.92,1203.81,-0.97,109.08,1399,1537,1800,1503,0,-5.05,1.05,6.99
1775525280.75,50.450483,30.460808,89.92,1203.81,-0.97,111.08,1399,1537,1800,1503,0,-5.05,1.05,6.99
1775525280.85,50.450473,30.460790,92.52,1202.06,-0.95,110.48,1401,1539,1800,1503,0,-5.04,1.05,7.03
1775525280.95,50.450473,30.460790,92.52,1202.06,-0.95,112.48,1399,1537,1800,1503,0,-5.04,1.05,7.03
1775525281.05,50.450463,30.460771,95.26,1200.29,-0.94,111.74,1401,1539,1800,1503,0,-5.05,1.06,7.08
1775525281.15,50.450463,30.460771,95.26,1200.29,-0.94,113.74,1400,1537,1800,1503,0,-5.05,1.06,7.08
1775525281.26,50.450463,30.460771,95.26,1200.29,-0.94,115.74,1400,1537,1800,1503,0,-5.05,1.06,7.08
1775525281.36,50.450452,30.460752,98.00,1198.53,-0.92,115.00,1401,1540,1800,1503,0,-5.03,1.09,7.08
1775525281.46,50.450452,30.460752,98.00,1198.53,-0.92,117.00,1400,1538,1800,1503,0,-5.03,1.09,7.08
1775525281.56,50.450442,30.460733,100.57,1196.76,-0.91,116.43,1402,1540,1800,1503,0,-5.02,1.12,7.06
1775525281.66,50.450442,30.460733,100.57,1196.76,-0.91,118.43,1400,1538,1800,1503,0,-5.02,1.12,7.06
1775525281.76,50.450442,30.460733,100.57,1196.76,-0.91,120.43,1400,1538,1800,1503,0,-5.02,1.12,7.06
1775525281.86,50.450431,30.460715,103.06,1195.00,-0.89,119.94,1402,1540,1800,1503,0,-4.96,1.16,7.10
1775525281.96,50.450431,30.460715,103.06,1195.00,-0.89,121.94,1400,1538,1800,1503,0,-4.96,1.16,7.10
1775525282.06,50.450421,30.460695,105.67,1193.19,-0.89,121.33,1401,1539,1800,1503,0,-4.95,1.17,7.14
1775525282.16,50.450421,30.460695,105.67,1193.19,-0.89,123.33,1400,1538,1800,1503,0,-4.95,1.17,7.14
1775525282.26,50.450421,30.460695,105.67,1193.19,-0.89,125.33,1400,1538,1800,1503,0,-4.95,1.17,7.14
1775525282.36,50.450410,30.460676,108.24,1191.40,-0.88,124.76,1401,1539,1800,1503,0,-4.96,1.15,7.18
1775525282.46,50.450410,30.460676,108.24,1191.40,-0.88,126.76,1400,1538,1800,1503,0,-4.96,1.15,7.18
1775525282.56,50.450399,30.460657,110.84,1189.61,-0.86,126.16,1402,1540,1800,1503,0,-4.97,1.15,7.18
1775525282.66,50.450399,30.460657,110.84,1189.61,-0.86,128.16,1401,1539,1800,1503,0,-4.97,1.15,7.18
1775525282.76,50.450399,30.460657,110.84,1189.61,-0.86,130.16,1401,1539,1800,1503,0,-4.97,1.15,7.18
1775525282.86,50.450389,30.460638,113.40,1187.81,-0.86,129.60,1400,1538,1800,1503,0,-4.95,1.17,7.20
1775525282.96,50.450389,30.460638,113.40,1187.81,-0.86,131.60,1400,1538,1800,1503,0,-4.95,1.17,7.20
1775525283.06,50.450378,30.460619,115.98,1186.00,-0.86,131.02,1402,1540,1800,1503,0,-4.95,1.17,7.23
1775525283.16,50.450378,30.460619,115.98,1186.00,-0.86,133.02,1401,1539,1800,1503,0,-4.95,1.17,7.23
1775525283.26,50.450378,30.460619,115.98,1186.00,-0.86,135.02,1400,1539,1800,1503,0,-4.95,1.17,7.23
1775525283.36,50.450367,30.460600,118.50,1184.19,-0.86,134.50,1400,1538,1800,1503,0,-4.95,1.17,7.24
1775525283.46,50.450367,30.460600,118.50,1184.19,-0.86,136.50,1400,1538,1800,1503,0,-4.95,1.17,7.24
1775525283.56,50.450356,30.460581,121.00,1182.39,-0.86,136.00,1400,1538,1800,1503,0,-4.97,1.16,7.27
1775525283.66,50.450356,30.460581,121.00,1182.39,-0.86,138.00,1400,1538,1800,1503,0,-4.97,1.16,7.27
1775525283.77,50.450356,30.460581,121.00,1182.39,-0.86,140.00,1400,1538,1800,1503,0,-4.97,1.16,7.27
1775525283.87,50.450346,30.460562,123.53,1180.57,-0.85,139.47,1401,1539,1800,1503,0,-4.99,1.13,7.27
1775525283.97,50.450346,30.460562,123.53,1180.57,-0.85,141.47,1400,1538,1800,1503,0,-4.99,1.13,7.27
1775525284.07,50.450335,30.460542,126.05,1178.74,-0.86,140.95,1400,1538,1800,1503,0,-5.00,1.12,7.28
1775525284.17,50.450335,30.460542,126.05,1178.74,-0.86,142.95,1400,1538,1800,1503,0,-5.00,1.12,7.28
1775525284.27,50.450335,30.460542,126.05,1178.74,-0.86,144.95,1400,1538,1800,1503,0,-5.00,1.12,7.28
1775525284.37,50.450324,30.460523,128.51,1176.92,-0.85,144.49,1401,1539,1800,1503,0,-5.00,1.12,7.30
1775525284.47,50.450324,30.460523,128.51,1176.92,-0.85,146.49,1400,1538,1800,1503,0,-5.00,1.12,7.30
1775525284.57,50.450313,30.460504,131.04,1175.09,-0.85,145.96,1400,1538,1800,1503,0,-4.99,1.12,7.31
1775525284.67,50.450313,30.460504,131.04,1175.09,-0.85,147.96,1400,1538,1800,1503,0,-4.99,1.12,7.31
1775525284.77,50.450302,30.460484,133.59,1173.26,-0.83,147.41,1402,1540,1800,1503,0,-4.98,1.13,7.32
1775525284.87,50.450302,30.460484,133.59,1173.26,-0.83,149.41,1400,1538,1800,1503,0,-4.98,1.13,7.32
1775525284.97,50.450302,30.460484,133.59,1173.26,-0.83,151.41,1400,1538,1800,1503,0,-4.98,1.13,7.32
1775525285.07,50.450291,30.460465,136.08,1171.43,-0.84,150.92,1400,1538,1800,1503,0,-4.96,1.15,7.31
1775525285.17,50.450291,30.460465,136.08,1171.43,-0.84,152.92,1400,1538,1800,1503,0,-4.96,1.15,7.31
1775525285.27,50.450281,30.460445,138.55,1169.60,-0.83,152.45,1401,1539,1800,1503,0,-4.98,1.14,7.33
1775525285.37,50.450281,30.460445,138.55,1169.60,-0.83,154.45,1400,1538,1800,1503,0,-4.98,1.14,7.33
1775525285.47,50.450281,30.460445,138.55,1169.60,-0.83,156.45,1400,1538,1800,1503,0,-4.98,1.14,7.33
1775525285.57,50.450270,30.460426,141.04,1167.78,-0.82,155.96,1401,1539,1800,1503,0,-4.98,1.14,7.32
1775525285.67,50.450270,30.460426,141.04,1167.78,-0.82,157.96,1400,1538,1800,1503,0,-4.98,1.14,7.32
1775525285.77,50.450259,30.460407,143.54,1165.96,-0.81,157.46,1401,1539,1800,1503,0,-4.98,1.13,7.33
1775525285.87,50.450259,30.460407,143.54,1165.96,-0.81,157.46,1400,1538,1800,1503,0,-4.98,1.13,7.33
1775525285.98,50.450259,30.460407,143.54,1165.96,-0.81,157.46,1400,1538,1800,1503,0,-4.98,1.13,7.33
1775525286.08,50.450248,30.460387,146.03,1164.12,-0.81,154.97,1400,1538,1800,1503,0,-4.98,1.13,7.33
1775525286.18,50.450248,30.460387,146.03,1164.12,-0.81,154.97,1400,1538,1800,1503,0,-4.98,1.13,7.33
1775525286.28,50.450237,30.460368,148.53,1162.29,-0.81,152.47,1400,1538,1800,1503,0,-4.99,1.13,7.30
1775525286.38,50.450237,30.460368,148.53,1162.29,-0.81,152.47,1400,1538,1800,1503,0,-4.99,1.13,7.30
1775525286.48,50.450237,30.460368,148.53,1162.29,-0.81,152.47,1400,1538,1800,1503,0,-4.99,1.13,7.30
1775525286.58,50.450226,30.460349,150.98,1160.46,-0.81,150.02,1400,1538,1800,1503,0,-4.99,1.14,7.31
1775525286.68,50.450226,30.460349,150.98,1160.46,-0.81,150.02,1400,1538,1800,1503,0,-4.99,1.14,7.31
1775525286.78,50.450215,30.460330,153.39,1158.64,-0.81,147.61,1401,1539,1800,1503,0,-4.99,1.14,7.32
1775525286.88,50.450215,30.460330,153.39,1158.64,-0.81,147.61,1400,1538,1800,1503,0,-4.99,1.14,7.32
1775525286.98,50.450215,30.460330,153.39,1158.64,-0.81,147.61,1400,1538,1800,1503,0,-4.99,1.14,7.32
1775525287.08,50.450205,30.460310,155.85,1156.81,-0.81,145.15,1400,1538,1800,1503,0,-4.98,1.15,7.34
1775525287.18,50.450205,30.460310,155.85,1156.81,-0.81,145.15,1400,1538,1800,1503,0,-4.98,1.15,7.34
1775525287.28,50.450205,30.460310,155.85,1156.81,-0.81,145.15,1400,1538,1800,1503,0,-4.98,1.15,7.34
1775525287.38,50.450194,30.460291,158.27,1154.97,-0.80,142.73,1400,1538,1800,1503,0,-5.00,1.14,7.33
1775525287.48,50.450194,30.460291,158.27,1154.97,-0.80,142.73,1400,1538,1800,1503,0,-5.00,1.14,7.33
1775525287.58,50.450183,30.460271,160.74,1153.13,-0.80,140.26,1401,1539,1800,1503,0,-5.01,1.13,7.36
1775525287.68,50.450183,30.460271,160.74,1153.13,-0.80,140.26,1400,1538,1800,1503,0,-5.01,1.13,7.36
1775525287.78,50.450183,30.460271,160.74,1153.13,-0.80,140.26,1400,1538,1800,1503,0,-5.01,1.13,7.36
1775525287.88,50.450172,30.460252,163.28,1151.30,-0.79,137.72,1400,1538,1800,1503,0,-5.00,1.13,7.36
1775525287.98,50.450172,30.460252,163.28,1151.30,-0.79,137.72,1400,1538,1800,1503,0,-5.00,1.13,7.36
1775525288.08,50.450161,30.460232,165.77,1149.46,-0.79,135.23,1401,1539,1800,1503,0,-5.00,1.13,7.36
1775525288.18,50.450161,30.460232,165.77,1149.46,-0.79,135.23,1400,1538,1800,1503,0,-5.00,1.13,7.36
1775525288.29,50.450161,30.460232,165.77,1149.46,-0.79,135.23,1400,1538,1800,1503,0,-5.00,1.13,7.36
1775525288.39,50.450150,30.460213,168.26,1147.60,-0.79,132.74,1399,1537,1800,1503,0,-5.01,1.13,7.37
1775525288.49,50.450150,30.460213,168.26,1147.60,-0.79,132.74,1400,1538,1800,1503,0,-5.01,1.13,7.37
1775525288.59,50.450139,30.460193,170.72,1145.76,-0.80,130.28,1399,1537,1800,1503,0,-5.00,1.12,7.35
1775525288.69,50.450139,30.460193,170.72,1145.76,-0.80,130.28,1399,1537,1800,1503,0,-5.00,1.12,7.35
1775525288.79,50.450139,30.460193,170.72,1145.76,-0.80,130.28,1399,1537,1800,1503,0,-5.00,1.12,7.35
1775525288.89,50.450128,30.460174,173.14,1143.91,-0.80,127.86,1399,1537,1800,1503,0,-5.04,1.09,7.37
1775525288.99,50.450128,30.460174,173.14,1143.91,-0.80,127.86,1399,1537,1800,1503,0,-5.04,1.09,7.37
1775525289.09,50.450117,30.460154,175.60,1142.07,-0.80,125.40,1399,1537,1800,1503,0,-5.07,1.07,7.40
1775525289.19,50.450117,30.460154,175.60,1142.07,-0.80,125.40,1399,1537,1800,1503,0,-5.07,1.07,7.40
1775525289.29,50.450117,30.460154,175.60,1142.07,-0.80,125.40,1399,1537,1800,1503,0,-5.07,1.07,7.40
1775525289.39,50.450106,30.460135,178.07,1140.22,-0.79,122.93,1400,1538,1800,1503,0,-5.08,1.06,7.38
1775525289.49,50.450106,30.460135,178.07,1140.22,-0.79,122.93,1399,1537,1800,1503,0,-5.08,1.06,7.38
1775525289.59,50.450095,30.460115,180.52,1138.37,-0.78,120.48,1400,1538,1800,1503,0,-5.09,1.06,7.40
1775525289.69,50.450095,30.460115,180.52,1138.37,-0.78,120.48,1399,1537,1800,1503,0,-5.09,1.06,7.40
1775525289.79,50.450084,30.460095,183.12,1136.52,-0.77,117.88,1401,1539,1800,1503,0,-5.04,1.06,7.39
1775525289.89,50.450084,30.460095,183.12,1136.52,-0.77,117.88,1400,1537,1800,1503,0,-5.04,1.06,7.39
1775525289.99,50.450084,30.460095,183.12,1136.52,-0.77,117.88,1400,1537,1800,1503,0,-5.04,1.06,7.39
1775525290.09,50.450073,30.460076,185.77,1134.68,-0.76,115.23,1401,1539,1800,1503,0,-5.01,1.09,7.38
1775525290.19,50.450073,30.460076,185.77,1134.68,-0.76,115.23,1400,1538,1800,1503,0,-5.01,1.09,7.38
1775525290.29,50.450062,30.460056,188.40,1132.82,-0.75,112.60,1401,1539,1800,1503,0,-4.98,1.12,7.37
1775525290.39,50.450062,30.460056,188.40,1132.82,-0.75,112.60,1400,1538,1800,1503,0,-4.98,1.12,7.37
1775525290.49,50.450062,30.460056,188.40,1132.82,-0.75,112.60,1400,1538,1800,1503,0,-4.98,1.12,7.37
1775525290.59,50.450051,30.460037,190.95,1130.98,-0.73,110.05,1402,1540,1800,1503,0,-4.97,1.14,7.36
1775525290.69,50.450051,30.460037,190.95,1130.98,-0.73,110.05,1400,1538,1800,1503,0,-4.97,1.14,7.36
1775525290.80,50.450041,30.460017,193.45,1129.15,-0.72,107.55,1402,1540,1800,1503,0,-4.96,1.16,7.35
1775525290.90,50.450041,30.460017,193.45,1129.15,-0.72,107.55,1400,1538,1800,1503,0,-4.96,1.16,7.35
1775525291.00,50.450041,30.460017,193.45,1129.15,-0.72,107.55,1400,1538,1800,1503,0,-4.96,1.16,7.35
1775525291.10,50.450030,30.459998,195.99,1127.31,-0.71,105.01,1401,1539,1800,1503,0,-4.95,1.19,7.38
1775525291.20,50.450030,30.459998,195.99,1127.31,-0.71,105.01,1400,1538,1800,1503,0,-4.95,1.19,7.38
1775525291.30,50.450019,30.459978,198.53,1125.47,-0.69,102.47,1403,1541,1800,1503,0,-4.96,1.19,7.39
1775525291.40,50.450019,30.459978,198.53,1125.47,-0.69,102.47,1401,1539,1800,1503,0,-4.96,1.19,7.39
1775525291.50,50.450019,30.459978,198.53,1125.47,-0.69,102.47,1401,1539,1800,1503,0,-4.96,1.19,7.39
1775525291.60,50.450008,30.459958,201.03,1123.63,-0.69,99.97,1402,1540,1800,1503,0,-4.94,1.19,7.39
1775525291.70,50.450008,30.459958,201.03,1123.63,-0.69,99.97,1401,1539,1800,1503,0,-4.94,1.19,7.39
1775525291.80,50.449997,30.459939,203.49,1121.80,-0.68,97.51,1401,1539,1800,1503,0,-4.94,1.19,7.39
1775525291.90,50.449997,30.459939,203.49,1121.80,-0.68,97.51,1401,1539,1800,1503,0,-4.94,1.19,7.39
1775525292.00,50.449997,30.459939,203.49,1121.80,-0.68,97.51,1401,1539,1800,1503,0,-4.94,1.19,7.39
1775525292.10,50.449986,30.459920,205.99,1119.97,-0.67,95.01,1403,1541,1800,1503,0,-4.93,1.20,7.40
1775525292.20,50.449986,30.459920,205.99,1119.97,-0.67,95.01,1401,1539,1800,1503,0,-4.93,1.20,7.40
1775525292.30,50.449975,30.459900,208.52,1118.12,-0.67,92.48,1401,1539,1800,1503,0,-4.90,1.22,7.39
1775525292.40,50.449975,30.459900,208.52,1118.12,-0.67,92.48,1401,1539,1800,1503,0,-4.90,1.22,7.39
1775525292.50,50.449975,30.459900,208.52,1118.12,-0.67,92.48,1401,1539,1800,1503,0,-4.90,1.22,7.39
1775525292.60,50.449964,30.459880,211.06,1116.28,-0.66,89.94,1402,1541,1786,1503,0,-4.89,1.20,7.36
1775525292.70,50.449964,30.459880,211.06,1116.28,-0.66,89.94,1401,1539,1800,1503,0,-4.89,1.20,7.36
1775525292.80,50.449953,30.459861,213.59,1114.44,-0.65,87.41,1402,1540,1773,1503,0,-4.93,1.19,7.37
1775525292.90,50.449953,30.459861,213.59,1114.44,-0.65,87.41,1401,1539,1800,1503,0,-4.93,1.19,7.37
1775525293.00,50.449953,30.459861,213.59,1114.44,-0.65,87.41,1401,1539,1800,1503,0,-4.93,1.19,7.37
1775525293.10,50.449943,30.459841,216.12,1112.60,-0.65,84.88,1402,1540,1757,1503,0,-4.94,1.19,7.37
1775525293.20,50.449943,30.459841,216.12,1112.60,-0.65,84.88,1401,1539,1800,1503,0,-4.94,1.19,7.37
1775525293.30,50.449932,30.459822,218.52,1110.76,-0.64,82.48,1401,1540,1754,1503,0,-4.92,1.19,7.33
1775525293.40,50.449932,30.459822,218.52,1110.76,-0.64,82.48,1401,1539,1800,1503,0,-4.92,1.19,7.33
1775525293.51,50.449932,30.459822,218.52,1110.76,-0.64,82.48,1401,1539,1800,1503,0,-4.92,1.19,7.33
1775525293.61,50.449921,30.459803,220.81,1108.92,-0.65,80.19,1400,1538,1752,1503,0,-4.92,1.21,7.35
1775525293.71,50.449921,30.459803,220.81,1108.92,-0.65,80.19,1401,1539,1800,1503,0,-4.92,1.21,7.35
1775525293.81,50.449910,30.459783,223.21,1107.09,-0.65,77.79,1401,1539,1728,1503,0,-4.93,1.18,7.39
1775525293.91,50.449910,30.459783,223.21,1107.09,-0.65,77.79,1401,1539,1800,1503,0,-4.93,1.18,7.39
1775525294.01,50.449910,30.459783,223.21,1107.09,-0.65,77.79,1401,1539,1800,1503,0,-4.93,1.18,7.39
1775525294.11,50.449899,30.459764,225.67,1105.24,-0.65,75.33,1401,1539,1706,1503,0,-4.94,1.17,7.39
1775525294.21,50.449899,30.459764,225.67,1105.24,-0.65,75.33,1401,1539,1800,1503,0,-4.94,1.17,7.39
1775525294.31,50.449888,30.459744,228.09,1103.40,-0.65,72.91,1401,1539,1696,1503,0,-4.95,1.17,7.39
1775525294.41,50.449888,30.459744,228.09,1103.40,-0.65,72.91,1401,1539,1800,1503,0,-4.95,1.17,7.39
1775525294.51,50.449888,30.459744,228.09,1103.40,-0.65,72.91,1401,1539,1800,1503,0,-4.95,1.17,7.39
1775525294.61,50.449877,30.459725,230.48,1101.54,-0.64,70.52,1402,1540,1684,1503,0,-4.94,1.19,7.39
1775525294.71,50.449877,30.459725,230.48,1101.54,-0.64,70.52,1401,1539,1800,1503,0,-4.94,1.19,7.39
1775525294.81,50.449866,30.459705,232.88,1099.69,-0.64,68.12,1401,1539,1669,1503,0,-4.94,1.19,7.38
1775525294.91,50.449866,30.459705,232.88,1099.69,-0.64,68.12,1401,1539,1800,1503,0,-4.94,1.19,7.38
1775525295.01,50.449866,30.459705,232.88,1099.69,-0.64,68.12,1401,1539,1800,1503,0,-4.94,1.19,7.38
1775525295.11,50.449855,30.459685,235.23,1097.85,-0.65,65.77,1400,1538,1661,1503,0,-4.94,1.20,7.39
1775525295.21,50.449855,30.459685,235.23,1097.85,-0.65,65.77,1401,1539,1800,1503,0,-4.94,1.20,7.39
1775525295.31,50.449844,30.459666,237.57,1096.01,-0.64,63.43,1401,1539,1647,1503,0,-4.95,1.18,7.38
1775525295.41,50.449844,30.459666,237.57,1096.01,-0.64,63.43,1401,1539,1800,1503,0,-4.95,1.18,7.38
1775525295.51,50.449844,30.459666,237.57,1096.01,-0.64,63.43,1401,1539,1800,1503,0,-4.95,1.18,7.38
1775525295.61,50.449833,30.459647,239.83,1094.17,-0.65,61.17,1400,1538,1641,1503,0,-4.95,1.16,7.35
1775525295.71,50.449833,30.459647,239.83,1094.17,-0.65,61.17,1400,1538,1800,1503,0,-4.95,1.16,7.35
1775525295.81,50.449822,30.459627,242.07,1092.33,-0.66,58.93,1399,1537,1630,1503,0,-4.95,1.15,7.33
1775525295.91,50.449822,30.459627,242.07,1092.33,-0.66,58.93,1400,1538,1800,1503,0,-4.95,1.15,7.33
1775525296.01,50.449822,30.459627,242.07,1092.33,-0.66,58.93,1400,1538,1800,1503,0,-4.95,1.15,7.33
1775525296.11,50.449811,30.459608,244.20,1090.50,-0.68,56.80,1397,1535,1628,1503,0,-4.98,1.12,7.32
1775525296.22,50.449811,30.459608,244.20,1090.50,-0.68,56.80,1399,1537,1800,1503,0,-4.98,1.12,7.32
1775525296.32,50.449800,30.459589,246.33,1088.68,-0.68,54.67,1399,1537,1615,1503,0,-5.03,1.11,7.32
1775525296.42,50.449800,30.459589,246.33,1088.68,-0.68,54.67,1399,1537,1800,1503,0,-5.03,1.11,7.32
1775525296.52,50.449800,30.459589,246.33,1088.68,-0.68,54.67,1399,1537,1800,1503,0,-5.03,1.11,7.32
1775525296.62,50.449789,30.459570,248.43,1086.84,-0.69,52.57,1398,1536,1606,1503,0,-5.08,1.05,7.30
1775525296.72,50.449789,30.459570,248.43,1086.84,-0.69,52.57,1399,1537,1800,1503,0,-5.08,1.05,7.30
1775525296.82,50.449778,30.459550,250.44,1085.02,-0.70,50.56,1396,1538,1602,1503,0,-5.11,1.02,7.30
1775525296.92,50.449778,30.459550,250.44,1085.02,-0.70,50.56,1396,1539,1800,1503,0,-5.11,1.02,7.30
1775525297.02,50.449778,30.459550,250.44,1085.02,-0.70,50.56,1396,1539,1800,1503,0,-5.11,1.02,7.30
1775525297.12,50.449767,30.459531,252.42,1083.19,-0.71,48.58,1384,1547,1594,1503,0,-5.16,1.05,7.31
1775525297.22,50.449767,30.459531,252.42,1083.19,-0.71,48.58,1385,1548,1791,1503,0,-5.16,1.05,7.31
1775525297.32,50.449756,30.459512,254.36,1081.37,-0.71,46.64,1373,1557,1586,1503,0,-5.36,1.23,7.29
1775525297.42,50.449756,30.459512,254.36,1081.37,-0.71,46.64,1374,1558,1779,1503,0,-5.36,1.23,7.29
1775525297.52,50.449756,30.459512,254.36,1081.37,-0.71,46.64,1374,1558,1779,1503,0,-5.36,1.23,7.29
1775525297.62,50.449745,30.459493,256.17,1079.55,-0.72,44.83,1363,1565,1588,1503,0,-5.99,1.76,7.35
1775525297.72,50.449745,30.459493,256.17,1079.55,-0.72,44.83,1363,1566,1769,1503,0,-5.99,1.76,7.35
1775525297.82,50.449734,30.459473,258.09,1077.69,-0.73,42.91,1351,1574,1566,1503,0,-6.59,2.27,7.45
1775525297.92,50.449734,30.459473,258.09,1077.69,-0.73,42.91,1352,1575,1757,1503,0,-6.59,2.27,7.45
1775525298.02,50.449734,30.459473,258.09,1077.69,-0.73,42.91,1352,1575,1757,1503,0,-6.59,2.27,7.45
1775525298.12,50.449723,30.459453,260.01,1075.81,-0.74,40.99,1341,1584,1553,1503,0,-7.33,2.88,7.56
1775525298.22,50.449723,30.459453,260.01,1075.81,-0.74,40.99,1341,1585,1745,1503,0,-7.33,2.88,7.56
1775525298.32,50.449712,30.459433,262.00,1073.91,-0.73,39.00,1330,1595,1536,1503,0,-7.95,3.38,7.70
1775525298.42,50.449712,30.459433,262.00,1073.91,-0.73,39.00,1330,1595,1734,1503,0,-7.95,3.38,7.70
1775525298.52,50.449700,30.459413,263.91,1071.97,-0.73,37.09,1319,1604,1532,1503,0,-8.70,4.07,7.88
1775525298.63,50.449700,30.459413,263.91,1071.97,-0.73,37.09,1319,1604,1722,1503,0,-8.70,4.07,7.88
1775525298.73,50.449700,30.459413,263.91,1071.97,-0.73,37.09,1319,1604,1722,1503,0,-8.70,4.07,7.88
1775525298.83,50.449688,30.459392,265.79,1069.97,-0.74,35.21,1308,1612,1523,1503,0,-9.45,4.75,8.09
1775525298.93,50.449688,30.459392,265.79,1069.97,-0.74,35.21,1308,1613,1711,1503,0,-9.45,4.75,8.09
1775525299.03,50.449676,30.459370,267.69,1067.93,-0.75,33.31,1297,1621,1511,1503,0,-10.12,5.31,8.29
1775525299.13,50.449676,30.459370,267.69,1067.93,-0.75,33.31,1297,1622,1699,1503,0,-10.12,5.31,8.29
1775525299.23,50.449676,30.459370,267.69,1067.93,-0.75,33.31,1297,1622,1699,1503,0,-10.12,5.31,8.29
1775525299.33,50.449663,30.459348,269.50,1065.83,-0.76,31.50,1286,1629,1508,1503,0,-10.86,5.91,8.50
1775525299.43,50.449663,30.459348,269.50,1065.83,-0.76,31.50,1287,1631,1689,1503,0,-10.86,5.91,8.50
1775525299.53,50.449651,30.459325,271.20,1063.67,-0.77,29.80,1276,1638,1510,1503,0,-11.50,6.44,8.75
1775525299.63,50.449651,30.459325,271.20,1063.67,-0.77,29.80,1277,1639,1682,1503,0,-11.50,6.44,8.75
1775525299.73,50.449651,30.459325,271.20,1063.67,-0.77,29.80,1277,1639,1684,1503,0,-11.50,6.44,8.75
1775525299.83,50.449637,30.459302,272.83,1061.45,-0.79,28.17,1266,1645,1513,1503,0,-12.15,7.01,9.06
1775525299.93,50.449637,30.459302,272.83,1061.45,-0.79,28.17,1267,1646,1677,1503,0,-12.15,7.01,9.06
1775525300.03,50.449624,30.459278,274.45,1059.16,-0.79,26.55,1257,1653,1508,1503,0,-12.73,7.47,9.28
1775525300.13,50.449624,30.459278,274.45,1059.16,-0.79,26.55,1258,1654,1671,1503,0,-12.73,7.47,9.28
1775525300.23,50.449624,30.459278,274.45,1059.16,-0.79,26.55,1258,1654,1672,1503,0,-12.73,7.47,9.28
1775525300.33,50.449610,30.459253,275.92,1056.81,-0.79,25.08,1249,1661,1518,1503,0,-13.35,7.96,9.62
1775525300.43,50.449610,30.459253,275.92,1056.81,-0.79,25.08,1249,1661,1667,1503,0,-13.35,7.96,9.62
1775525300.53,50.449610,30.459253,275.92,1056.81,-0.79,25.08,1249,1661,1668,1503,0,-13.35,7.96,9.62
1775525300.63,50.449595,30.459227,277.41,1054.36,-0.81,23.59,1239,1667,1512,1503,0,-13.83,8.40,9.94
1775525300.73,50.449595,30.459227,277.41,1054.36,-0.81,23.59,1241,1668,1662,1503,0,-13.83,8.40,9.94
1775525300.83,50.449580,30.459201,278.87,1051.81,-0.82,22.13,1231,1674,1509,1503,0,-14.30,8.79,10.24
1775525300.93,50.449580,30.459201,278.87,1051.81,-0.82,22.13,1232,1675,1656,1503,0,-14.30,8.79,10.24
1775525301.03,50.449580,30.459201,278.87,1051.81,-0.82,22.13,1232,1675,1657,1503,0,-14.30,8.79,10.24
1775525301.14,50.449564,30.459173,280.20,1049.22,-0.85,20.80,1221,1678,1518,1503,0,-14.84,9.23,10.50
1775525301.24,50.449564,30.459173,280.20,1049.22,-0.85,20.80,1224,1681,1652,1503,0,-14.84,9.23,10.50
1775525301.34,50.449548,30.459146,281.54,1046.57,-0.88,19.46,1213,1683,1512,1503,0,-15.35,9.62,10.78
1775525301.44,50.449548,30.459146,281.54,1046.57,-0.88,19.46,1216,1687,1646,1503,0,-15.35,9.62,10.78
1775525301.54,50.449548,30.459146,281.54,1046.57,-0.88,19.46,1216,1686,1647,1503,0,-15.35,9.62,10.78
1775525301.64,50.449532,30.459117,282.85,1043.84,-0.92,18.15,1203,1687,1510,1503,0,-15.88,9.97,11.11
1775525301.74,50.449532,30.459117,282.85,1043.84,-0.92,18.15,1207,1692,1642,1503,0,-15.88,9.97,11.11
1775525301.84,50.449515,30.459088,284.19,1041.03,-0.96,16.81,1194,1693,1501,1503,0,-16.36,10.27,11.39
1775525301.94,50.449515,30.459088,284.19,1041.03,-0.96,16.81,1199,1697,1636,1503,0,-16.36,10.27,11.39
1775525302.04,50.449515,30.459088,284.19,1041.03,-0.96,16.81,1198,1697,1637,1503,0,-16.36,10.27,11.39
1775525302.14,50.449497,30.459058,285.54,1038.16,-1.00,15.46,1186,1698,1495,1503,0,-16.93,10.61,11.63
1775525302.24,50.449497,30.459058,285.54,1038.16,-1.00,15.46,1190,1703,1630,1503,0,-16.93,10.61,11.63
1775525302.34,50.449480,30.459027,286.80,1035.23,-1.04,14.20,1178,1703,1498,1503,0,-17.36,10.93,11.89
1775525302.44,50.449480,30.459027,286.80,1035.23,-1.04,14.20,1182,1708,1624,1503,0,-17.36,10.93,11.89
1775525302.54,50.449461,30.458996,288.02,1032.23,-1.08,12.98,1170,1708,1497,1503,0,-17.91,11.27,12.15
1775525302.64,50.449461,30.458996,288.02,1032.23,-1.08,12.98,1174,1713,1619,1503,0,-17.91,11.27,12.15
1775525302.74,50.449461,30.458996,288.02,1032.23,-1.08,12.98,1174,1713,1620,1503,0,-17.91,11.27,12.15
1775525302.84,50.449443,30.458964,289.18,1029.15,-1.13,11.82,1161,1711,1497,1503,0,-18.45,11.64,12.42
1775525302.94,50.449443,30.458964,289.18,1029.15,-1.13,11.82,1166,1717,1614,1503,0,-18.45,11.64,12.42
1775525303.04,50.449424,30.458931,290.30,1026.01,-1.19,10.70,1155,1713,1496,1503,0,-18.92,11.94,12.66
1775525303.14,50.449424,30.458931,290.30,1026.01,-1.19,10.70,1160,1719,1609,1503,0,-18.92,11.94,12.66
1775525303.24,50.449424,30.458931,290.30,1026.01,-1.19,10.70,1160,1719,1609,1503,0,-18.92,11.94,12.66
1775525303.34,50.449404,30.458898,291.34,1022.82,-1.23,9.66,1154,1713,1500,1503,0,-19.38,12.17,12.89
1775525303.45,50.449404,30.458898,291.34,1022.82,-1.23,9.66,1159,1718,1604,1503,0,-19.38,12.17,12.89
1775525303.55,50.449385,30.458864,292.27,1019.57,-1.29,8.73,1152,1710,1507,1503,0,-19.66,12.29,13.02
1775525303.65,50.449385,30.458864,292.27,1019.57,-1.29,8.73,1157,1716,1600,1503,0,-19.66,12.29,13.02
1775525303.75,50.449385,30.458864,292.27,1019.57,-1.29,8.73,1157,1716,1600,1503,0,-19.66,12.29,13.02
1775525303.85,50.449365,30.458830,293.16,1016.30,-1.33,7.84,1152,1710,1507,1503,0,-19.81,12.21,13.26
1775525303.95,50.449365,30.458830,293.16,1016.30,-1.33,7.84,1156,1715,1596,1503,0,-19.81,12.21,13.26
1775525304.05,50.449345,30.458795,294.03,1012.97,-1.39,6.97,1150,1707,1504,1503,0,-19.93,12.13,13.39
1775525304.15,50.449345,30.458795,294.03,1012.97,-1.39,6.97,1155,1713,1591,1503,0,-19.93,12.13,13.39
1775525304.25,50.449345,30.458795,294.03,1012.97,-1.39,6.97,1155,1713,1592,1503,0,-19.93,12.13,13.39
1775525304.35,50.449324,30.458760,294.80,1009.61,-1.43,6.20,1150,1707,1510,1503,0,-20.03,12.02,13.54
1775525304.45,50.449324,30.458760,294.80,1009.61,-1.43,6.20,1153,1712,1588,1503,0,-20.03,12.02,13.54
1775525304.55,50.449304,30.458725,295.56,1006.22,-1.48,5.44,1150,1705,1508,1503,0,-20.08,11.93,13.65
1775525304.65,50.449304,30.458725,295.56,1006.22,-1.48,5.44,1152,1710,1584,1503,0,-20.08,11.93,13.65
1775525304.75,50.449304,30.458725,295.56,1006.22,-1.48,5.44,1152,1710,1584,1503,0,-20.08,11.93,13.65
1775525304.85,50.449283,30.458689,296.36,1002.78,-1.52,4.64,1150,1705,1501,1503,0,-20.15,11.80,13.79
1775525304.95,50.449283,30.458689,296.36,1002.78,-1.52,4.64,1151,1709,1580,1503,0,-20.15,11.80,13.79
1775525305.05,50.449262,30.458653,297.18,999.31,-1.57,3.82,1150,1703,1493,1503,0,-20.18,11.75,13.89
1775525305.15,50.449262,30.458653,297.18,999.31,-1.57,3.82,1150,1708,1576,1503,0,-20.18,11.75,13.89
1775525305.25,50.449262,30.458653,297.18,999.31,-1.57,3.82,1150,1708,1576,1503,0,-20.18,11.75,13.89
1775525305.35,50.449241,30.458616,297.95,995.81,-1.60,3.05,1150,1703,1495,1503,0,-20.23,11.64,13.95
1775525305.45,50.449241,30.458616,297.95,995.81,-1.60,3.05,1150,1707,1572,1503,0,-20.23,11.64,13.95
1775525305.55,50.449220,30.458579,298.67,992.31,-1.64,2.33,1150,1701,1495,1503,0,-20.27,11.60,13.99
1775525305.65,50.449220,30.458579,298.67,992.31,-1.64,2.33,1150,1705,1568,1503,0,-20.27,11.60,13.99
1775525305.75,50.449220,30.458579,298.67,992.31,-1.64,2.33,1150,1705,1568,1503,0,-20.27,11.60,13.99
1775525305.85,50.449199,30.458543,299.38,988.81,-1.66,1.62,1150,1701,1493,1503,0,-20.27,11.52,14.02
1775525305.95,50.449199,30.458543,299.38,988.81,-1.66,1.62,1150,1704,1564,1503,0,-20.27,11.52,14.02
1775525306.05,50.449178,30.458506,300.06,985.30,-1.69,0.94,1150,1700,1491,1503,0,-20.27,11.45,14.06
1775525306.15,50.449178,30.458506,300.06,985.30,-1.69,0.94,1150,1703,1560,1503,0,-20.27,11.45,14.06
1775525306.25,50.449178,30.458506,300.06,985.30,-1.69,0.94,1150,1703,1560,1503,0,-20.27,11.45,14.06
1775525306.36,50.449157,30.458469,300.71,981.79,-1.72,0.29,1150,1699,1492,1503,0,-20.30,11.38,14.04
1775525306.46,50.449157,30.458469,300.71,981.79,-1.72,0.29,1150,1702,1556,1503,0,-20.30,11.38,14.04
1775525306.56,50.449136,30.458432,301.34,978.29,-1.74,-0.34,1150,1700,1489,1503,0,-20.30,11.31,14.08
1775525306.66,50.449136,30.458432,301.34,978.29,-1.74,-0.34,1150,1702,1552,1503,0,-20.30,11.31,14.08
1775525306.76,50.449136,30.458432,301.34,978.29,-1.74,-0.34,1150,1702,1552,1503,0,-20.30,11.31,14.08
1775525306.86,50.449115,30.458395,301.92,974.78,-1.75,-0.92,1150,1700,1490,1503,0,-20.28,11.28,14.05
1775525306.96,50.449115,30.458395,301.92,974.78,-1.75,-0.92,1150,1701,1548,1503,0,-20.28,11.28,14.05
1775525307.06,50.449094,30.458358,302.43,971.26,-1.76,-1.43,1150,1700,1495,1503,0,-20.27,11.30,14.00
1775525307.16,50.449094,30.458358,302.43,971.26,-1.76,-1.43,1150,1701,1545,1503,0,-20.27,11.30,14.00
1775525307.26,50.449094,30.458358,302.43,971.26,-1.76,-1.43,1150,1701,1545,1503,0,-20.27,11.30,14.00
1775525307.36,50.449073,30.458321,302.94,967.75,-1.76,-1.94,1150,1700,1491,1503,0,-20.28,11.27,14.02
1775525307.46,50.449073,30.458321,302.94,967.75,-1.76,-1.94,1150,1700,1542,1503,0,-20.28,11.27,14.02
1775525307.56,50.449052,30.458284,303.45,964.24,-1.77,-2.45,1150,1700,1487,1503,0,-20.28,11.25,14.04
1775525307.66,50.449052,30.458284,303.45,964.24,-1.77,-2.45,1150,1700,1538,1503,0,-20.28,11.25,14.04
1775525307.76,50.449052,30.458284,303.45,964.24,-1.77,-2.45,1150,1700,1538,1503,0,-20.28,11.25,14.04
1775525307.86,50.449031,30.458247,303.90,960.74,-1.77,-2.90,1150,1699,1491,1503,0,-20.27,11.23,14.04
1775525307.96,50.449031,30.458247,303.90,960.74,-1.77,-2.90,1150,1699,1535,1503,0,-20.27,11.23,14.04
1775525308.06,50.449010,30.458210,304.36,957.22,-1.77,-3.36,1150,1700,1486,1503,0,-20.27,11.23,14.06
1775525308.16,50.449010,30.458210,304.36,957.22,-1.77,-3.36,1150,1699,1532,1503,0,-20.27,11.23,14.06
1775525308.26,50.449010,30.458210,304.36,957.22,-1.77,-3.36,1150,1699,1532,1503,0,-20.27,11.23,14.06
1775525308.36,50.448990,30.458173,304.85,953.71,-1.77,-3.85,1150,1699,1480,1503,0,-20.29,11.18,14.04
1775525308.46,50.448990,30.458173,304.85,953.71,-1.77,-3.85,1150,1699,1528,1503,0,-20.29,11.18,14.04
1775525308.56,50.448969,30.458136,305.32,950.21,-1.76,-4.32,1150,1699,1478,1503,0,-20.29,11.18,14.00
1775525308.66,50.448969,30.458136,305.32,950.21,-1.76,-4.32,1150,1699,1525,1503,0,-20.29,11.18,14.00
1775525308.76,50.448969,30.458136,305.32,950.21,-1.76,-4.32,1150,1699,1525,1503,0,-20.29,11.18,14.00
1775525308.87,50.448948,30.458099,305.69,946.71,-1.76,-4.69,1150,1699,1485,1503,0,-20.27,11.19,13.97
1775525308.97,50.448948,30.458099,305.69,946.71,-1.76,-4.69,1150,1699,1522,1503,0,-20.27,11.19,13.97
1775525309.07,50.448927,30.458062,306.03,943.20,-1.76,-5.03,1150,1698,1486,1503,0,-20.28,11.18,13.95
1775525309.17,50.448927,30.458062,306.03,943.20,-1.76,-5.03,1150,1698,1519,1503,0,-20.28,11.18,13.95
1775525309.27,50.448927,30.458062,306.03,943.20,-1.76,-5.03,1150,1698,1519,1503,0,-20.28,11.18,13.95
1775525309.37,50.448906,30.458025,306.32,939.71,-1.76,-5.32,1150,1699,1488,1503,0,-20.28,11.16,13.94
1775525309.47,50.448906,30.458025,306.32,939.71,-1.76,-5.32,1150,1698,1517,1503,0,-20.28,11.16,13.94
1775525309.57,50.448886,30.457988,306.64,936.22,-1.74,-5.64,1150,1700,1483,1503,0,-20.28,11.14,13.90
1775525309.67,50.448886,30.457988,306.64,936.22,-1.74,-5.64,1150,1698,1514,1503,0,-20.28,11.14,13.90
1775525309.77,50.448886,30.457988,306.64,936.22,-1.74,-5.64,1150,1698,1514,1503,0,-20.28,11.14,13.90
1775525309.87,50.448865,30.457951,306.99,932.75,-1.74,-5.99,1150,1699,1476,1503,0,-20.27,11.16,13.86
1775525309.97,50.448865,30.457951,306.99,932.75,-1.74,-5.99,1150,1698,1511,1503,0,-20.27,11.16,13.86
1775525310.07,50.448844,30.457914,307.29,929.27,-1.74,-6.29,1150,1698,1479,1503,0,-20.28,11.16,13.85
1775525310.17,50.448844,30.457914,307.29,929.27,-1.74,-6.29,1150,1698,1508,1503,0,-20.28,11.16,13.85
1775525310.27,50.448844,30.457914,307.29,929.27,-1.74,-6.29,1150,1698,1508,1503,0,-20.28,11.16,13.85
1775525310.37,50.448824,30.457878,307.61,925.82,-1.74,-6.61,1150,1697,1474,1503,0,-20.30,11.17,13.81
1775525310.47,50.448824,30.457878,307.61,925.82,-1.74,-6.61,1150,1698,1505,1503,0,-20.30,11.17,13.81
1775525310.57,50.448803,30.457841,307.93,922.36,-1.75,-6.93,1150,1697,1470,1503,0,-20.30,11.14,13.82
1775525310.67,50.448803,30.457841,307.93,922.36,-1.75,-6.93,1150,1697,1503,1503,0,-20.30,11.14,13.82
1775525310.77,50.448803,30.457841,307.93,922.36,-1.75,-6.93,1150,1697,1502,1503,0,-20.30,11.14,13.82
1775525310.87,50.448783,30.457805,308.17,918.92,-1.75,-7.17,1150,1696,1477,1503,0,-20.28,11.06,13.76
1775525310.97,50.448783,30.457805,308.17,918.92,-1.75,-7.17,1150,1697,1500,1503,0,-20.28,11.06,13.76
1775525311.08,50.448762,30.457768,308.37,915.48,-1.74,-7.37,1150,1698,1479,1503,0,-20.27,11.03,13.74
1775525311.18,50.448762,30.457768,308.37,915.48,-1.74,-7.37,1150,1697,1498,1503,0,-20.27,11.03,13.74
1775525311.28,50.448762,30.457768,308.37,915.48,-1.74,-7.37,1150,1697,1497,1503,0,-20.27,11.03,13.74
1775525311.38,50.448742,30.457732,308.52,912.04,-1.73,-7.52,1150,1698,1480,1503,0,-20.27,11.03,13.68
1775525311.48,50.448742,30.457732,308.52,912.04,-1.73,-7.52,1150,1697,1496,1503,0,-20.27,11.03,13.68
1775525311.58,50.448722,30.457696,308.68,908.63,-1.71,-7.68,1150,1699,1479,1503,0,-20.26,11.05,13.67
1775525311.68,50.448722,30.457696,308.68,908.63,-1.71,-7.68,1150,1697,1494,1503,0,-20.26,11.05,13.67
1775525311.78,50.448722,30.457696,308.68,908.63,-1.71,-7.68,1150,1697,1493,1503,0,-20.26,11.05,13.67
1775525311.88,50.448701,30.457660,308.82,905.23,-1.69,-7.82,1150,1699,1477,1503,0,-20.27,11.07,13.66
1775525311.98,50.448701,30.457660,308.82,905.23,-1.69,-7.82,1150,1697,1491,1503,0,-20.27,11.07,13.66
1775525312.08,50.448681,30.457624,308.96,901.83,-1.68,-7.96,1150,1700,1477,1503,0,-20.27,11.07,13.63
1775525312.18,50.448681,30.457624,308.96,901.83,-1.68,-7.96,1150,1698,1490,1503,0,-20.27,11.07,13.63
1775525312.28,50.448661,30.457588,309.05,898.44,-1.65,-8.05,1150,1701,1480,1503,0,-20.27,11.12,13.61
1775525312.38,50.448661,30.457588,309.05,898.44,-1.65,-8.05,1150,1698,1488,1503,0,-20.27,11.12,13.61
1775525312.48,50.448661,30.457588,309.05,898.44,-1.65,-8.05,1150,1698,1488,1503,0,-20.27,11.12,13.61
1775525312.58,50.448642,30.457552,309.09,895.06,-1.62,-8.09,1150,1703,1482,1503,0,-20.27,11.17,13.60
1775525312.68,50.448642,30.457552,309.09,895.06,-1.62,-8.09,1150,1699,1486,1503,0,-20.27,11.17,13.60
1775525312.78,50.448642,30.457552,309.09,895.06,-1.62,-8.09,1150,1698,1486,1503,0,-20.27,11.17,13.60
1775525312.88,50.448622,30.457516,309.16,891.68,-1.60,-8.16,1150,1701,1479,1503,0,-20.29,11.25,13.59
1775525312.98,50.448622,30.457516,309.16,891.68,-1.60,-8.16,1150,1699,1484,1503,0,-20.29,11.25,13.59
1775525313.08,50.448602,30.457480,309.24,888.29,-1.57,-8.24,1150,1702,1475,1503,0,-20.28,11.24,13.58
1775525313.18,50.448602,30.457480,309.24,888.29,-1.57,-8.24,1150,1699,1483,1503,0,-20.28,11.24,13.58
1775525313.28,50.448602,30.457480,309.24,888.29,-1.57,-8.24,1150,1699,1483,1503,0,-20.28,11.24,13.58
1775525313.38,50.448581,30.457443,309.31,884.87,-1.56,-8.31,1150,1701,1474,1503,0,-20.28,11.25,13.50
1775525313.48,50.448581,30.457443,309.31,884.87,-1.56,-8.31,1150,1699,1481,1503,0,-20.28,11.25,13.50
1775525313.58,50.448561,30.457408,309.37,881.50,-1.55,-8.37,1150,1701,1475,1503,0,-20.28,11.26,13.49
1775525313.69,50.448561,30.457408,309.37,881.50,-1.55,-8.37,1150,1699,1480,1503,0,-20.28,11.26,13.49
1775525313.79,50.448561,30.457408,309.37,881.50,-1.55,-8.37,1150,1699,1479,1503,0,-20.28,11.26,13.49
1775525313.89,50.448541,30.457372,309.41,878.13,-1.53,-8.41,1150,1701,1474,1503,0,-20.28,11.26,13.50
1775525313.99,50.448541,30.457372,309.41,878.13,-1.53,-8.41,1150,1700,1478,1503,0,-20.28,11.26,13.50
1775525314.09,50.448521,30.457336,309.36,874.74,-1.53,-8.36,1150,1700,1483,1503,0,-20.27,11.25,13.47
1775525314.19,50.448521,30.457336,309.36,874.74,-1.53,-8.36,1150,1699,1477,1503,0,-20.27,11.25,13.47
1775525314.29,50.448521,30.457336,309.36,874.74,-1.53,-8.36,1150,1699,1477,1503,0,-20.27,11.25,13.47
1775525314.39,50.448501,30.457300,309.20,871.36,-1.53,-8.20,1150,1700,1493,1503,0,-20.28,11.26,13.49
1775525314.49,50.448501,30.457300,309.20,871.36,-1.53,-8.20,1150,1699,1477,1503,0,-20.28,11.26,13.49
1775525314.59,50.448481,30.457265,309.09,867.99,-1.52,-8.09,1150,1700,1488,1503,0,-20.29,11.24,13.49
1775525314.69,50.448481,30.457265,309.09,867.99,-1.52,-8.09,1150,1699,1476,1503,0,-20.29,11.24,13.49
1775525314.79,50.448481,30.457265,309.09,867.99,-1.52,-8.09,1150,1699,1476,1503,0,-20.29,11.24,13.49
1775525314.89,50.448461,30.457229,308.98,864.62,-1.50,-7.98,1150,1701,1487,1503,0,-20.29,11.22,13.51
1775525314.99,50.448461,30.457229,308.98,864.62,-1.50,-7.98,1150,1699,1476,1503,0,-20.29,11.22,13.51
1775525315.09,50.448441,30.457193,308.93,861.24,-1.49,-7.93,1150,1701,1480,1503,0,-20.27,11.21,13.46
1775525315.19,50.448441,30.457193,308.93,861.24,-1.49,-7.93,1150,1699,1475,1503,0,-20.27,11.21,13.46
1775525315.29,50.448441,30.457193,308.93,861.24,-1.49,-7.93,1150,1699,1474,1503,0,-20.27,11.21,13.46
1775525315.39,50.448421,30.457157,308.92,857.85,-1.48,-7.92,1150,1701,1475,1503,0,-20.25,11.22,13.48
1775525315.49,50.448421,30.457157,308.92,857.85,-1.48,-7.92,1150,1700,1474,1503,0,-20.25,11.22,13.48
1775525315.59,50.448401,30.457121,308.91,854.47,-1.47,-7.91,1150,1701,1474,1503,0,-20.25,11.21,13.49
1775525315.69,50.448401,30.457121,308.91,854.47,-1.47,-7.91,1150,1700,1473,1503,0,-20.25,11.21,13.49
1775525315.79,50.448381,30.457085,308.93,851.10,-1.45,-7.93,1150,1702,1470,1503,0,-20.26,11.25,13.49
1775525315.89,50.448381,30.457085,308.93,851.10,-1.45,-7.93,1150,1700,1472,1503,0,-20.26,11.25,13.49
1775525315.99,50.448381,30.457085,308.93,851.10,-1.45,-7.93,1150,1700,1471,1503,0,-20.26,11.25,13.49
1775525316.09,50.448361,30.457050,308.94,847.73,-1.45,-7.94,1150,1701,1469,1503,0,-20.26,11.27,13.48
1775525316.19,50.448361,30.457050,308.94,847.73,-1.45,-7.94,1150,1700,1470,1503,0,-20.26,11.27,13.48
1775525316.30,50.448341,30.457014,308.95,844.36,-1.44,-7.95,1150,1701,1469,1503,0,-20.27,11.28,13.46
1775525316.40,50.448341,30.457014,308.95,844.36,-1.44,-7.95,1150,1700,1469,1503,0,-20.27,11.28,13.46
1775525316.50,50.448341,30.457014,308.95,844.36,-1.44,-7.95,1150,1700,1469,1503,0,-20.27,11.28,13.46
1775525316.60,50.448321,30.456978,308.92,841.00,-1.42,-7.92,1150,1701,1472,1503,0,-20.26,11.28,13.43
1775525316.70,50.448321,30.456978,308.92,841.00,-1.42,-7.92,1150,1700,1468,1503,0,-20.26,11.28,13.43
1775525316.80,50.448301,30.456943,308.87,837.64,-1.41,-7.87,1150,1702,1472,1503,0,-20.25,11.29,13.43
1775525316.90,50.448301,30.456943,308.87,837.64,-1.41,-7.87,1150,1700,1467,1503,0,-20.25,11.29,13.43
1775525317.00,50.448301,30.456943,308.87,837.64,-1.41,-7.87,1150,1700,1467,1503,0,-20.25,11.29,13.43
1775525317.10,50.448281,30.456907,308.82,834.30,-1.41,-7.82,1150,1700,1472,1503,0,-20.24,11.31,13.41
1775525317.20,50.448281,30.456907,308.82,834.30,-1.41,-7.82,1150,1700,1466,1503,0,-20.24,11.31,13.41
1775525317.30,50.448261,30.456872,308.78,830.95,-1.41,-7.78,1150,1701,1469,1503,0,-20.23,11.30,13.39
1775525317.40,50.448261,30.456872,308.78,830.95,-1.41,-7.78,1150,1700,1465,1503,0,-20.23,11.30,13.39
1775525317.50,50.448261,30.456872,308.78,830.95,-1.41,-7.78,1150,1700,1465,1503,0,-20.23,11.30,13.39
1775525317.60,50.448242,30.456837,308.73,827.61,-1.41,-7.73,1150,1699,1470,1503,0,-20.24,11.27,13.38
1775525317.70,50.448242,30.456837,308.73,827.61,-1.41,-7.73,1150,1700,1464,1503,0,-20.24,11.27,13.38
1775525317.80,50.448222,30.456802,308.67,824.28,-1.40,-7.67,1150,1701,1470,1503,0,-20.25,11.23,13.34
1775525317.90,50.448222,30.456802,308.67,824.28,-1.40,-7.67,1150,1700,1464,1503,0,-20.25,11.23,13.34
1775525318.00,50.448222,30.456802,308.67,824.28,-1.40,-7.67,1150,1700,1463,1503,0,-20.25,11.23,13.34
1775525318.10,50.448202,30.456766,308.63,820.96,-1.40,-7.63,1150,1699,1467,1503,0,-20.25,11.25,13.33
1775525318.20,50.448202,30.456766,308.63,820.96,-1.40,-7.63,1150,1699,1463,1503,0,-20.25,11.25,13.33
1775525318.30,50.448202,30.456766,308.63,820.96,-1.40,-7.63,1150,1699,1462,1503,0,-20.25,11.25,13.33
1775525318.40,50.448182,30.456731,308.60,817.64,-1.40,-7.60,1150,1700,1465,1503,0,-20.25,11.26,13.30
1775525318.50,50.448182,30.456731,308.60,817.64,-1.40,-7.60,1150,1699,1461,1503,0,-20.25,11.26,13.30
1775525318.60,50.448163,30.456696,308.52,814.33,-1.39,-7.52,1150,1699,1469,1503,0,-20.28,11.22,13.24
1775525318.71,50.448163,30.456696,308.52,814.33,-1.39,-7.52,1150,1699,1461,1503,0,-20.28,11.22,13.24
1775525318.81,50.448143,30.456661,308.43,811.02,-1.39,-7.43,1150,1699,1470,1503,0,-20.28,11.20,13.24
1775525318.91,50.448143,30.456661,308.43,811.02,-1.39,-7.43,1150,1699,1461,1503,0,-20.28,11.20,13.24
1775525319.01,50.448143,30.456661,308.43,811.02,-1.39,-7.43,1150,1699,1460,1503,0,-20.28,11.20,13.24
1775525319.11,50.448123,30.456626,308.39,807.71,-1.40,-7.39,1150,1698,1464,1503,0,-20.28,11.19,13.24
1775525319.21,50.448123,30.456626,308.39,807.71,-1.40,-7.39,1150,1699,1460,1503,0,-20.28,11.19,13.24
1775525319.31,50.448104,30.456591,308.32,804.40,-1.40,-7.32,1150,1699,1466,1503,0,-20.28,11.17,13.25
1775525319.41,50.448104,30.456591,308.32,804.40,-1.40,-7.32,1150,1698,1459,1503,0,-20.28,11.17,13.25
1775525319.51,50.448104,30.456591,308.32,804.40,-1.40,-7.32,1150,1698,1459,1503,0,-20.28,11.17,13.25
1775525319.61,50.448084,30.456556,308.27,801.07,-1.39,-7.27,1150,1699,1464,1503,0,-20.29,11.15,13.25
1775525319.71,50.448084,30.456556,308.27,801.07,-1.39,-7.27,1150,1698,1458,1503,0,-20.29,11.15,13.25
1775525319.81,50.448064,30.456521,308.25,797.75,-1.40,-7.25,1150,1697,1459,1503,0,-20.28,11.15,13.26
1775525319.91,50.448064,30.456521,308.25,797.75,-1.40,-7.25,1150,1698,1457,1503,0,-20.28,11.15,13.26
1775525320.01,50.448064,30.456521,308.25,797.75,-1.40,-7.25,1150,1698,1457,1503,0,-20.28,11.15,13.26
1775525320.11,50.448044,30.456486,308.19,794.43,-1.41,-7.19,1150,1697,1463,1503,0,-20.25,11.11,13.25
1775525320.21,50.448044,30.456486,308.19,794.43,-1.41,-7.19,1150,1698,1456,1503,0,-20.25,11.11,13.25
1775525320.31,50.448024,30.456451,308.11,791.12,-1.41,-7.11,1150,1698,1465,1503,0,-20.27,11.09,13.26
1775525320.41,50.448024,30.456451,308.11,791.12,-1.41,-7.11,1150,1697,1456,1503,0,-20.27,11.09,13.26
1775525320.51,50.448024,30.456451,308.11,791.12,-1.41,-7.11,1150,1697,1456,1503,0,-20.27,11.09,13.26
1775525320.61,50.448005,30.456416,308.00,787.81,-1.40,-7.00,1150,1697,1467,1503,0,-20.30,11.10,13.22
1775525320.71,50.448005,30.456416,308.00,787.81,-1.40,-7.00,1150,1697,1455,1503,0,-20.30,11.10,13.22
1775525320.81,50.447985,30.456381,307.92,784.51,-1.42,-6.92,1150,1695,1464,1503,0,-20.30,11.09,13.20
1775525320.91,50.447985,30.456381,307.92,784.51,-1.42,-6.92,1150,1697,1455,1503,0,-20.30,11.09,13.20
1775525321.01,50.447985,30.456381,307.92,784.51,-1.42,-6.92,1150,1697,1455,1503,0,-20.30,11.09,13.20
1775525321.11,50.447965,30.456347,307.83,781.22,-1.43,-6.83,1150,1695,1463,1503,0,-20.28,11.04,13.21
1775525321.22,50.447965,30.456347,307.83,781.22,-1.43,-6.83,1150,1696,1454,1503,0,-20.28,11.04,13.21
1775525321.32,50.447946,30.456312,307.75,777.92,-1.44,-6.75,1150,1694,1463,1503,0,-20.27,11.01,13.19
1775525321.42,50.447946,30.456312,307.75,777.92,-1.44,-6.75,1150,1696,1454,1503,0,-20.27,11.01,13.19
1775525321.52,50.447946,30.456312,307.75,777.92,-1.44,-6.75,1150,1695,1454,1503,0,-20.27,11.01,13.19
1775525321.62,50.447926,30.456277,307.61,774.61,-1.44,-6.61,1150,1695,1468,1503,0,-20.27,10.96,13.20
1775525321.72,50.447926,30.456277,307.61,774.61,-1.44,-6.61,1150,1695,1454,1503,0,-20.27,10.96,13.20
1775525321.82,50.447906,30.456242,307.42,771.32,-1.44,-6.42,1150,1695,1473,1503,0,-20.27,10.94,13.22
1775525321.92,50.447906,30.456242,307.42,771.32,-1.44,-6.42,1150,1695,1454,1503,0,-20.27,10.94,13.22
1775525322.02,50.447906,30.456242,307.42,771.32,-1.44,-6.42,1150,1695,1454,1503,0,-20.27,10.94,13.22
1775525322.12,50.447887,30.456207,307.27,768.03,-1.44,-6.27,1150,1695,1469,1503,0,-20.27,10.93,13.21
1775525322.22,50.447887,30.456207,307.27,768.03,-1.44,-6.27,1150,1695,1454,1503,0,-20.27,10.93,13.21
1775525322.32,50.447867,30.456173,307.08,764.73,-1.44,-6.08,1150,1695,1474,1503,0,-20.28,10.92,13.21
1775525322.42,50.447867,30.456173,307.08,764.73,-1.44,-6.08,1150,1695,1454,1503,0,-20.28,10.92,13.21
1775525322.52,50.447867,30.456173,307.08,764.73,-1.44,-6.08,1150,1695,1454,1503,0,-20.28,10.92,13.21
1775525322.62,50.447848,30.456138,306.88,761.45,-1.44,-5.88,1150,1696,1474,1503,0,-20.28,10.91,13.19
1775525322.72,50.447848,30.456138,306.88,761.45,-1.44,-5.88,1150,1695,1454,1503,0,-20.28,10.91,13.19
1775525322.82,50.447828,30.456103,306.71,758.15,-1.44,-5.71,1150,1694,1472,1503,0,-20.29,10.94,13.19
1775525322.92,50.447828,30.456103,306.71,758.15,-1.44,-5.71,1150,1694,1455,1503,0,-20.29,10.94,13.19
1775525323.02,50.447828,30.456103,306.71,758.15,-1.44,-5.71,1150,1694,1454,1503,0,-20.29,10.94,13.19
1775525323.12,50.447809,30.456068,306.51,754.87,-1.43,-5.51,1150,1695,1474,1503,0,-20.29,10.92,13.17
1775525323.22,50.447809,30.456068,306.51,754.87,-1.43,-5.51,1150,1694,1455,1503,0,-20.29,10.92,13.17
1775525323.32,50.447789,30.456034,306.32,751.59,-1.43,-5.32,1150,1695,1475,1503,0,-20.29,10.88,13.14
1775525323.42,50.447789,30.456034,306.32,751.59,-1.43,-5.32,1150,1694,1455,1503,0,-20.29,10.88,13.14
1775525323.53,50.447789,30.456034,306.32,751.59,-1.43,-5.32,1150,1694,1455,1503,0,-20.29,10.88,13.14
1775525323.63,50.447769,30.455998,306.12,748.29,-1.41,-5.12,1150,1697,1476,1503,0,-20.30,10.88,13.15
1775525323.73,50.447769,30.455998,306.12,748.29,-1.41,-5.12,1150,1694,1456,1503,0,-20.30,10.88,13.15
1775525323.83,50.447750,30.455963,305.96,744.99,-1.40,-4.96,1150,1696,1472,1503,0,-20.31,10.92,13.16
1775525323.93,50.447750,30.455963,305.96,744.99,-1.40,-4.96,1150,1695,1456,1503,0,-20.31,10.92,13.16
1775525324.03,50.447750,30.455963,305.96,744.99,-1.40,-4.96,1150,1694,1456,1503,0,-20.31,10.92,13.16
1775525324.13,50.447730,30.455929,305.82,741.69,-1.39,-4.82,1150,1696,1470,1503,0,-20.30,10.96,13.19
1775525324.23,50.447730,30.455929,305.82,741.69,-1.39,-4.82,1150,1695,1456,1503,0,-20.30,10.96,13.19
1775525324.33,50.447711,30.455893,305.65,738.40,-1.36,-4.65,1150,1699,1474,1503,0,-20.29,10.96,13.18
1775525324.43,50.447711,30.455893,305.65,738.40,-1.36,-4.65,1150,1695,1456,1503,0,-20.29,10.96,13.18
1775525324.53,50.447711,30.455893,305.65,738.40,-1.36,-4.65,1150,1695,1456,1503,0,-20.29,10.96,13.18
1775525324.63,50.447691,30.455858,305.48,735.10,-1.33,-4.48,1150,1698,1475,1503,0,-20.29,11.02,13.18
1775525324.73,50.447691,30.455858,305.48,735.10,-1.33,-4.48,1150,1696,1457,1503,0,-20.29,11.02,13.18
1775525324.83,50.447672,30.455823,305.30,731.80,-1.32,-4.30,1150,1698,1475,1503,0,-20.29,11.02,13.19
1775525324.93,50.447672,30.455823,305.30,731.80,-1.32,-4.30,1150,1696,1457,1503,0,-20.29,11.02,13.19
1775525325.03,50.447672,30.455823,305.30,731.80,-1.32,-4.30,1150,1696,1457,1503,0,-20.29,11.02,13.19
1775525325.13,50.447652,30.455788,305.06,728.50,-1.30,-4.06,1150,1698,1481,1503,0,-20.29,11.03,13.20
1775525325.23,50.447652,30.455788,305.06,728.50,-1.30,-4.06,1150,1696,1458,1503,0,-20.29,11.03,13.20
1775525325.33,50.447633,30.455753,304.82,725.22,-1.27,-3.82,1150,1700,1483,1503,0,-20.29,11.07,13.21
1775525325.43,50.447633,30.455753,304.82,725.22,-1.27,-3.82,1150,1697,1459,1503,0,-20.29,11.07,13.21
1775525325.53,50.447614,30.455718,304.57,721.90,-1.25,-3.57,1150,1699,1485,1503,0,-20.29,11.10,13.25
1775525325.63,50.447614,30.455718,304.57,721.90,-1.25,-3.57,1150,1697,1460,1503,0,-20.29,11.10,13.25
1775525325.73,50.447614,30.455718,304.57,721.90,-1.25,-3.57,1150,1697,1460,1503,0,-20.29,11.10,13.25
1775525325.83,50.447594,30.455683,304.32,718.56,-1.23,-3.32,1150,1700,1486,1503,0,-20.28,11.12,13.22
1775525325.93,50.447594,30.455683,304.32,718.56,-1.23,-3.32,1150,1697,1461,1503,0,-20.28,11.12,13.22
1775525326.03,50.447594,30.455683,304.32,718.56,-1.23,-3.32,1150,1697,1461,1503,0,-20.28,11.12,13.22
1775525326.13,50.447574,30.455648,304.09,715.25,-1.21,-3.09,1150,1700,1485,1503,0,-20.26,11.15,13.25
1775525326.23,50.447574,30.455648,304.09,715.25,-1.21,-3.09,1150,1698,1462,1503,0,-20.26,11.15,13.25
1775525326.34,50.447555,30.455612,303.85,711.92,-1.20,-2.85,1150,1700,1487,1503,0,-20.24,11.15,13.27
