Timestamp,Lat,Lon,Alt,DistToTarget,XTE,AltError,RollPWM,PitchPWM,ThrottlePWM,YawPWM,Heading,RollDeg,PitchDeg,GroundSpeed
1775514659.05,50.450739,30.453154,0.00,900.25,0.00,15.00,1500,1500,1800,1500,1,0.09,0.08,0.01
1775514659.15,50.450739,30.453154,0.00,900.25,0.00,15.00,1500,1500,1605,1500,1,0.09,0.08,0.01
1775514659.25,50.450739,30.453154,0.00,900.25,0.00,15.00,1500,1500,1606,1500,1,0.10,0.08,0.01
1775514659.35,50.450739,30.453154,0.00,900.25,0.00,15.00,1500,1500,1607,1500,1,0.10,0.08,0.01
1775514659.45,50.450739,30.453154,0.00,900.25,0.00,15.00,1500,1500,1608,1500,1,0.10,0.08,0.01
1775514659.55,50.450739,30.453154,0.00,900.25,0.00,15.00,1500,1500,1609,1500,1,0.10,0.08,0.01
1775514659.65,50.450739,30.453154,0.00,900.25,0.00,15.00,1500,1500,1610,1500,1,0.10,0.08,0.01
1775514659.75,50.450739,30.453154,0.00,900.25,0.00,15.00,1500,1500,1611,1500,1,0.10,0.09,0.01
1775514659.85,50.450739,30.453154,0.00,900.25,0.00,15.00,1500,1500,1612,1500,1,0.10,0.09,0.01
1775514659.95,50.450739,30.453154,0.00,900.25,0.00,15.00,1500,1500,1613,1500,1,0.10,0.09,0.01
1775514660.05,50.450739,30.453154,0.00,900.25,0.00,15.00,1500,1500,1614,1500,1,0.10,0.09,0.01
1775514660.15,50.450739,30.453154,0.00,900.25,0.00,15.00,1500,1500,1614,1500,1,0.10,0.09,0.01
1775514660.25,50.450739,30.453154,0.00,900.25,0.00,15.00,1500,1500,1615,1500,1,0.11,0.09,0.01
1775514660.35,50.450739,30.453154,0.00,900.25,0.00,15.00,1500,1500,1616,1500,1,0.11,0.09,0.01
1775514660.45,50.450739,30.453154,0.00,900.25,0.00,15.00,1500,1500,1617,1500,1,0.11,0.09,0.01
1775514660.55,50.450739,30.453154,0.00,900.25,0.00,15.00,1500,1500,1618,1500,1,0.11,0.10,0.01
1775514660.65,50.450739,30.453154,0.00,900.25,0.00,15.00,1500,1500,1619,1500,1,0.11,0.10,0.01
1775514660.75,50.450739,30.453154,0.00,900.25,0.00,15.00,1500,1500,1620,1500,1,0.11,0.10,0.01
1775514660.85,50.450739,30.453154,0.00,900.25,0.00,15.00,1500,1500,1621,1500,1,0.11,0.10,0.01
1775514660.95,50.450739,30.453154,0.00,900.25,0.00,15.00,1500,1500,1622,1500,1,0.11,0.10,0.01
1775514661.05,50.450739,30.453154,0.06,900.25,0.00,14.94,1500,1500,1616,1500,1,0.12,0.10,0.01
1775514661.15,50.450739,30.453154,0.06,900.25,0.00,14.94,1500,1500,1623,1500,1,0.12,0.10,0.01
1775514661.25,50.450739,30.453154,0.18,900.25,0.00,14.82,1500,1500,1611,1500,1,0.07,0.07,0.01
1775514661.36,50.450739,30.453154,0.18,900.25,0.00,14.82,1500,1500,1624,1500,1,0.07,0.07,0.01
1775514661.46,50.450739,30.453154,0.18,900.25,0.00,14.82,1500,1500,1625,1500,1,0.07,0.07,0.01
1775514661.56,50.450739,30.453154,0.61,900.25,0.00,14.38,1500,1500,1580,1500,1,-0.02,-0.01,0.01
1775514661.66,50.450739,30.453154,0.61,900.25,0.00,14.38,1500,1500,1624,1500,1,-0.02,-0.01,0.01
1775514661.76,50.450739,30.453154,1.30,900.25,0.00,13.70,1500,1500,1553,1500,1,-0.06,-0.05,0.01
1775514661.86,50.450739,30.453154,1.30,900.25,0.00,13.70,1500,1500,1622,1500,1,-0.06,-0.05,0.01
1775514661.96,50.450739,30.453154,1.30,900.25,0.00,13.70,1500,1500,1623,1500,1,-0.06,-0.05,0.01
1775514662.06,50.450739,30.453154,2.07,900.25,0.00,12.93,1500,1500,1542,1500,1,-0.05,-0.05,0.04
1775514662.16,50.450739,30.453154,2.07,900.25,0.00,12.93,1500,1500,1620,1500,1,-0.05,-0.05,0.04
1775514662.26,50.450739,30.453154,3.00,900.25,0.00,12.00,1500,1500,1522,1507,0,-0.04,-0.04,0.15
1775514662.36,50.450739,30.453154,3.00,900.25,0.00,12.00,1500,1500,1615,1503,0,-0.04,-0.04,0.15
1775514662.46,50.450739,30.453154,3.00,900.25,0.00,12.00,1500,1500,1616,1503,0,-0.04,-0.04,0.15
1775514662.56,50.450739,30.453153,4.00,900.25,0.00,11.00,1500,1500,1511,1503,0,-0.02,-0.03,0.22
1775514662.66,50.450739,30.453153,4.00,900.25,0.00,11.00,1500,1500,1611,1503,0,-0.02,-0.03,0.22
1775514662.76,50.450738,30.453153,5.02,900.25,0.00,9.98,1500,1500,1504,1503,0,-0.02,-0.02,0.29
1775514662.86,50.450738,30.453153,5.02,900.25,0.00,9.98,1500,1500,1606,1503,0,-0.02,-0.02,0.29
1775514662.96,50.450738,30.453153,5.02,900.25,0.00,9.98,1500,1500,1607,1503,0,-0.02,-0.02,0.29
1775514663.06,50.450738,30.453152,5.95,900.25,0.00,9.05,1500,1500,1510,1503,0,-0.01,-0.01,0.37
1775514663.16,50.450738,30.453152,5.95,900.25,0.00,9.05,1500,1500,1603,1503,0,-0.01,-0.01,0.37
1775514663.26,50.450737,30.453151,6.88,900.25,0.00,8.12,1500,1500,1505,1503,0,0.01,-0.01,0.44
1775514663.36,50.450737,30.453151,6.88,900.25,0.00,8.12,1500,1500,1598,1503,0,0.01,-0.01,0.44
1775514663.46,50.450737,30.453151,6.88,900.25,0.00,8.12,1500,1500,1598,1503,0,0.01,-0.01,0.44
1775514663.56,50.450736,30.453150,7.74,900.25,0.00,7.26,1500,1500,1508,1503,0,0.02,0.01,0.53
1775514663.66,50.450736,30.453150,7.74,900.25,0.00,7.26,1500,1500,1594,1503,0,0.02,0.01,0.53
1775514663.76,50.450735,30.453149,8.63,900.25,0.00,6.37,1500,1500,1501,1503,0,0.00,0.01,0.64
1775514663.86,50.450735,30.453149,8.63,900.25,0.00,6.37,1500,1500,1590,1503,0,0.00,0.01,0.64
1775514663.96,50.450735,30.453149,8.63,900.25,0.00,6.37,1500,1500,1590,1503,0,0.00,0.01,0.64
1775514664.07,50.450734,30.453147,9.55,900.25,0.00,5.45,1500,1500,1493,1503,0,-0.01,0.01,0.73
1775514664.17,50.450734,30.453147,9.55,900.25,0.00,5.45,1500,1500,1585,1503,0,-0.01,0.01,0.73
1775514664.27,50.450733,30.453146,10.47,900.25,0.00,4.53,1500,1500,1489,1503,0,-0.01,0.01,0.82
1775514664.37,50.450733,30.453146,10.47,900.25,0.00,4.53,1500,1500,1580,1503,0,-0.01,0.01,0.82
1775514664.47,50.450733,30.453146,10.47,900.25,0.00,4.53,1500,1500,1580,1503,0,-0.01,0.01,0.82
1775514664.57,50.450731,30.453144,11.35,900.25,0.00,3.65,1500,1500,1487,1503,0,-0.02,0.00,0.92
1775514664.67,50.450731,30.453144,11.35,900.25,0.00,3.65,1500,1500,1576,1503,0,-0.02,0.00,0.92
1775514664.77,50.450729,30.453142,12.19,900.25,0.00,2.81,1500,1500,1487,1503,0,-0.03,-0.01,1.01
1775514664.87,50.450729,30.453142,12.19,900.25,0.00,2.81,1500,1500,1571,1503,0,-0.03,-0.01,1.01
1775514664.97,50.450729,30.453142,12.19,900.25,0.00,2.81,1500,1500,1571,1503,0,-0.03,-0.01,1.01
1775514665.07,50.450727,30.453140,12.97,900.25,0.00,2.03,1500,1500,1489,1503,0,-0.02,-0.02,1.10
1775514665.17,50.450727,30.453140,12.97,900.25,0.00,2.03,1500,1500,1567,1503,0,-0.02,-0.02,1.10
1775514665.27,50.450725,30.453138,13.78,900.25,0.00,1.22,1500,1500,1482,1503,0,0.01,-0.02,1.21
1775514665.37,50.450725,30.453138,13.78,900.25,0.00,1.22,1500,1500,1562,1503,0,0.01,-0.02,1.21
1775514665.47,50.450725,30.453138,13.78,900.25,0.00,1.22,1500,1500,1562,1503,0,0.01,-0.02,1.21
1775514665.57,50.450723,30.453135,14.63,898.07,0.51,2.37,1551,1631,1800,1900,0,0.02,0.00,1.30
1775514665.67,50.450723,30.453135,14.63,898.07,0.51,4.37,1476,1598,1725,1503,0,0.02,0.00,1.30
1775514665.77,50.450720,30.453132,15.55,897.74,0.58,5.45,1487,1603,1640,1503,0,0.38,1.34,1.42
1775514665.87,50.450720,30.453132,15.55,897.74,0.58,7.45,1478,1599,1745,1503,0,0.38,1.34,1.42
1775514665.97,50.450720,30.453132,15.55,897.74,0.58,9.45,1478,1599,1757,1503,0,0.38,1.34,1.42
1775514666.07,50.450718,30.453130,16.70,897.36,0.63,10.30,1494,1604,1648,1471,4,0.35,3.92,1.65
1775514666.17,50.450718,30.453130,16.70,897.36,0.63,12.30,1487,1601,1776,1490,4,0.35,3.92,1.65
1775514666.27,50.450714,30.453127,18.03,896.92,0.67,12.97,1496,1604,1647,1483,5,0.16,4.79,1.98
1775514666.38,50.450714,30.453127,18.03,896.92,0.67,14.97,1490,1602,1793,1487,5,0.16,4.79,1.98
1775514666.48,50.450714,30.453127,18.03,896.92,0.67,16.97,1490,1602,1800,1487,5,0.16,4.79,1.98
1775514666.58,50.450710,30.453123,19.54,896.38,0.68,17.46,1492,1603,1660,1487,5,0.03,5.09,2.34
1775514666.68,50.450710,30.453123,19.54,896.38,0.68,19.46,1491,1602,1800,1487,5,0.03,5.09,2.34
1775514666.78,50.450704,30.453120,21.30,895.75,0.68,19.70,1488,1602,1650,1495,4,-0.01,5.18,2.71
1775514666.88,50.450704,30.453120,21.30,895.75,0.68,21.70,1489,1602,1800,1490,4,-0.01,5.18,2.71
1775514666.98,50.450699,30.453116,23.20,895.05,0.65,21.80,1485,1601,1652,1490,4,-0.01,5.20,3.01
1775514667.08,50.450699,30.453116,23.20,895.05,0.65,23.80,1488,1602,1800,1490,4,-0.01,5.20,3.01
1775514667.18,50.450699,30.453116,23.20,895.05,0.65,25.80,1488,1602,1800,1490,4,-0.01,5.20,3.01
1775514667.28,50.450692,30.453112,25.10,894.27,0.62,25.90,1482,1599,1682,1490,4,0.01,5.19,3.28
1775514667.38,50.450692,30.453112,25.10,894.27,0.62,27.90,1487,1601,1800,1490,4,0.01,5.19,3.28
1775514667.48,50.450685,30.453108,27.03,893.43,0.58,27.97,1480,1599,1694,1490,4,0.01,5.09,3.55
1775514667.58,50.450685,30.453108,27.03,893.43,0.58,29.97,1486,1601,1800,1490,4,0.01,5.09,3.55
1775514667.68,50.450685,30.453108,27.03,893.43,0.58,31.97,1486,1601,1800,1490,4,0.01,5.09,3.55
1775514667.78,50.450677,30.453104,28.95,892.51,0.52,32.05,1477,1598,1719,1490,4,0.02,5.03,3.78
1775514667.88,50.450677,30.453104,28.95,892.51,0.52,34.05,1484,1600,1800,1490,4,0.02,5.03,3.78
1775514667.98,50.450669,30.453099,30.93,891.53,0.46,34.07,1473,1596,1724,1490,4,-0.02,4.98,4.03
1775514668.08,50.450669,30.453099,30.93,891.53,0.46,36.07,1482,1600,1800,1490,4,-0.02,4.98,4.03
1775514668.18,50.450669,30.453099,30.93,891.53,0.46,38.07,1482,1600,1800,1490,4,-0.02,4.98,4.03
1775514668.28,50.450660,30.453094,33.05,890.50,0.40,37.95,1472,1596,1730,1490,4,-0.13,4.87,4.28
1775514668.38,50.450660,30.453094,33.05,890.50,0.40,39.95,1480,1599,1800,1490,4,-0.13,4.87,4.28
1775514668.48,50.450651,30.453089,35.37,889.41,0.32,39.63,1467,1594,1719,1490,4,-0.21,4.87,4.52
1775514668.58,50.450651,30.453089,35.37,889.41,0.32,41.63,1478,1598,1800,1490,4,-0.21,4.87,4.52
1775514668.69,50.450651,30.453089,35.37,889.41,0.32,43.63,1478,1598,1800,1490,4,-0.21,4.87,4.52
1775514668.79,50.450641,30.453083,37.76,888.25,0.25,43.24,1465,1594,1732,1490,4,-0.35,4.80,4.72
1775514668.89,50.450641,30.453083,37.76,888.25,0.25,45.24,1476,1597,1800,1490,4,-0.35,4.80,4.72
1775514668.99,50.450641,30.453083,37.76,888.25,0.25,47.24,1476,1597,1800,1490,4,-0.35,4.80,4.72
1775514669.09,50.450631,30.453077,40.14,887.05,0.18,46.86,1463,1593,1753,1490,4,-0.42,4.77,4.90
1775514669.19,50.450631,30.453077,40.14,887.05,0.18,48.86,1473,1596,1800,1490,4,-0.42,4.77,4.90
1775514669.29,50.450620,30.453071,42.49,885.81,0.10,48.51,1460,1592,1765,1490,4,-0.56,4.72,5.07
1775514669.39,50.450620,30.453071,42.49,885.81,0.10,50.51,1471,1595,1800,1490,4,-0.56,4.72,5.07
1775514669.49,50.450620,30.453071,42.49,885.81,0.10,52.51,1471,1595,1800,1490,4,-0.56,4.72,5.07
1775514669.59,50.450610,30.453065,44.94,884.52,0.03,52.06,1459,1591,1774,1490,4,-0.78,4.66,5.27
1775514669.69,50.450610,30.453065,44.94,884.52,0.03,54.06,1468,1595,1800,1490,4,-0.78,4.66,5.27
1775514669.79,50.450598,30.453058,47.42,883.20,-0.03,53.58,1458,1591,1780,1490,4,-0.80,4.62,5.38
1775514669.89,50.450598,30.453058,47.42,883.20,-0.03,55.58,1467,1594,1800,1490,4,-0.80,4.62,5.38
1775514669.99,50.450587,30.453051,49.87,881.82,-0.08,55.13,1458,1591,1792,1490,4,-1.01,4.59,5.57
1775514670.09,50.450587,30.453051,49.87,881.82,-0.08,57.13,1465,1593,1800,1490,4,-1.01,4.59,5.57
1775514670.19,50.450587,30.453051,49.87,881.82,-0.08,59.13,1465,1593,1800,1490,4,-1.01,4.59,5.57
1775514670.29,50.450575,30.453044,52.44,880.41,-0.11,58.56,1458,1591,1800,1490,4,-1.10,4.53,5.74
1775514670.39,50.450575,30.453044,52.44,880.41,-0.11,60.56,1464,1593,1800,1490,4,-1.10,4.53,5.74
1775514670.49,50.450563,30.453036,55.07,878.95,-0.15,59.93,1458,1591,1800,1490,4,-1.12,4.51,5.93
1775514670.59,50.450563,30.453036,55.07,878.95,-0.15,61.93,1463,1592,1800,1490,4,-1.12,4.51,5.93
1775514670.69,50.450563,30.453036,55.07,878.95,-0.15,63.93,1463,1592,1800,1490,4,-1.12,4.51,5.93
1775514670.79,50.450551,30.453028,57.82,877.45,-0.16,63.18,1460,1592,1800,1490,4,-1.17,4.50,6.09
1775514670.89,50.450551,30.453028,57.82,877.45,-0.16,65.18,1462,1592,1800,1490,4,-1.17,4.50,6.09
1775514670.99,50.450538,30.453019,60.59,875.91,-0.16,64.41,1462,1592,1800,1490,4,-1.16,4.50,6.23
1775514671.10,50.450538,30.453019,60.59,875.91,-0.16,66.41,1462,1592,1800,1490,4,-1.16,4.50,6.23
1775514671.20,50.450538,30.453019,60.59,875.91,-0.16,68.41,1462,1592,1800,1490,4,-1.16,4.50,6.23
1775514671.30,50.450525,30.453010,63.35,874.32,-0.15,67.65,1464,1593,1800,1490,4,-1.15,4.50,6.35
1775514671.40,50.450525,30.453010,63.35,874.32,-0.15,69.65,1462,1592,1800,1490,4,-1.15,4.50,6.35
1775514671.50,50.450512,30.453000,66.02,872.72,-0.12,68.98,1467,1594,1800,1490,4,-1.11,4.52,6.47
1775514671.60,50.450512,30.453000,66.02,872.72,-0.12,70.98,1463,1593,1800,1490,4,-1.11,4.52,6.47
1775514671.70,50.450512,30.453000,66.02,872.72,-0.12,72.98,1463,1593,1800,1490,4,-1.11,4.52,6.47
1775514671.80,50.450499,30.452991,68.79,871.08,-0.09,72.21,1468,1594,1800,1490,4,-1.01,4.55,6.60
1775514671.90,50.450499,30.452991,68.79,871.08,-0.09,74.21,1464,1593,1800,1490,4,-1.01,4.55,6.60
1775514672.00,50.450485,30.452981,71.54,869.42,-0.06,73.46,1470,1595,1800,1490,4,-0.99,4.58,6.68
1775514672.10,50.450485,30.452981,71.54,869.42,-0.06,75.46,1465,1593,1800,1490,4,-0.99,4.58,6.68
1775514672.20,50.450485,30.452981,71.54,869.42,-0.06,77.46,1465,1593,1800,1490,4,-0.99,4.58,6.68
1775514672.30,50.450471,30.452971,74.21,867.73,-0.02,76.79,1472,1596,1800,1490,4,-0.87,4.59,6.76
1775514672.40,50.450471,30.452971,74.21,867.73,-0.02,78.79,1467,1594,1800,1490,4,-0.87,4.59,6.76
1775514672.50,50.450457,30.452961,76.92,866.03,0.03,78.08,1474,1597,1800,1490,4,-0.79,4.60,6.87
1775514672.60,50.450457,30.452961,76.92,866.03,0.03,80.08,1468,1594,1800,1490,4,-0.79,4.60,6.87
1775514672.70,50.450457,30.452961,76.92,866.03,0.03,82.08,1468,1594,1800,1490,4,-0.79,4.60,6.87
1775514672.80,50.450443,30.452950,79.72,864.30,0.07,81.28,1475,1597,1800,1490,4,-0.64,4.63,6.95
1775514672.90,50.450443,30.452950,79.72,864.30,0.07,83.28,1469,1595,1800,1490,4,-0.64,4.63,6.95
1775514673.00,50.450429,30.452940,82.54,862.54,0.11,82.46,1477,1598,1800,1490,4,-0.59,4.67,6.99
1775514673.10,50.450429,30.452940,82.54,862.54,0.11,84.46,1471,1596,1800,1490,4,-0.59,4.67,6.99
1775514673.20,50.450429,30.452940,82.54,862.54,0.11,86.46,1471,1596,1800,1490,4,-0.59,4.67,6.99
1775514673.30,50.450415,30.452929,85.26,860.80,0.16,85.74,1479,1598,1800,1490,4,-0.47,4.74,7.04
1775514673.40,50.450415,30.452929,85.26,860.80,0.16,87.74,1472,1596,1800,1490,4,-0.47,4.74,7.04
1775514673.50,50.450400,30.452919,87.96,859.04,0.20,87.04,1480,1599,1800,1490,4,-0.39,4.79,7.08
1775514673.61,50.450400,30.452919,87.96,859.04,0.20,89.04,1474,1597,1800,1490,4,-0.39,4.79,7.08
1775514673.71,50.450400,30.452919,87.96,859.04,0.20,91.04,1474,1597,1800,1490,4,-0.39,4.79,7.08
1775514673.81,50.450386,30.452909,90.61,857.27,0.23,90.39,1479,1598,1800,1490,4,-0.26,4.85,7.12
1775514673.91,50.450386,30.452909,90.61,857.27,0.23,92.39,1475,1597,1800,1490,4,-0.26,4.85,7.12
1775514674.01,50.450371,30.452898,93.22,855.49,0.27,91.78,1482,1599,1800,1490,4,-0.25,4.88,7.16
1775514674.11,50.450371,30.452898,93.22,855.49,0.27,93.78,1476,1597,1800,1490,4,-0.25,4.88,7.16
1775514674.21,50.450371,30.452898,93.22,855.49,0.27,95.78,1476,1597,1800,1490,4,-0.25,4.88,7.16
1775514674.31,50.450357,30.452887,95.89,853.69,0.31,95.11,1482,1600,1800,1490,4,-0.20,4.89,7.20
1775514674.41,50.450357,30.452887,95.89,853.69,0.31,97.11,1478,1598,1800,1490,4,-0.20,4.89,7.20
1775514674.51,50.450342,30.452877,98.43,851.89,0.33,96.57,1481,1599,1800,1490,4,-0.17,4.89,7.24
1775514674.61,50.450342,30.452877,98.43,851.89,0.33,98.57,1478,1598,1800,1490,4,-0.17,4.89,7.24
1775514674.71,50.450342,30.452877,98.43,851.89,0.33,100.57,1478,1598,1800,1490,4,-0.17,4.89,7.24
1775514674.81,50.450327,30.452866,100.99,850.07,0.35,100.01,1483,1600,1800,1490,4,-0.11,4.90,7.30
1775514674.91,50.450327,30.452866,100.99,850.07,0.35,102.01,1479,1598,1800,1490,4,-0.11,4.90,7.30
1775514675.01,50.450312,30.452856,103.62,848.24,0.37,101.38,1483,1600,1800,1490,4,-0.10,4.92,7.34
1775514675.11,50.450312,30.452856,103.62,848.24,0.37,103.38,1480,1599,1800,1490,4,-0.10,4.92,7.34
1775514675.21,50.450312,30.452856,103.62,848.24,0.37,105.38,1480,1599,1800,1490,4,-0.10,4.92,7.34
1775514675.31,50.450297,30.452845,106.21,846.39,0.39,104.79,1482,1599,1800,1490,4,-0.08,4.92,7.36
1775514675.41,50.450297,30.452845,106.21,846.39,0.39,106.79,1481,1599,1800,1490,4,-0.08,4.92,7.36
1775514675.51,50.450282,30.452835,108.63,844.55,0.40,106.37,1482,1600,1800,1490,4,-0.04,4.92,7.35
1775514675.61,50.450282,30.452835,108.63,844.55,0.40,108.37,1481,1599,1800,1490,4,-0.04,4.92,7.35
1775514675.71,50.450282,30.452835,108.63,844.55,0.40,110.37,1481,1599,1800,1490,4,-0.04,4.92,7.35
1775514675.81,50.450267,30.452824,111.03,842.72,0.40,109.97,1482,1599,1800,1490,4,-0.01,4.93,7.41
1775514675.91,50.450267,30.452824,111.03,842.72,0.40,111.97,1481,1599,1800,1490,4,-0.01,4.93,7.41
1775514676.01,50.450251,30.452814,113.47,840.86,0.40,111.53,1480,1599,1800,1490,4,-0.00,4.94,7.42
1775514676.12,50.450251,30.452814,113.47,840.86,0.40,113.53,1481,1599,1800,1490,4,-0.00,4.94,7.42
1775514676.22,50.450251,30.452814,113.47,840.86,0.40,115.53,1481,1599,1800,1490,4,-0.00,4.94,7.42
1775514676.32,50.450236,30.452804,115.91,839.01,0.38,115.09,1479,1598,1800,1490,4,0.01,4.94,7.44
1775514676.42,50.450236,30.452804,115.91,839.01,0.38,117.09,1481,1599,1800,1490,4,0.01,4.94,7.44
1775514676.52,50.450221,30.452793,118.35,837.15,0.37,116.65,1479,1598,1800,1490,4,0.02,4.92,7.47
1775514676.62,50.450221,30.452793,118.35,837.15,0.37,118.65,1480,1599,1800,1490,4,0.02,4.92,7.47
1775514676.72,50.450221,30.452793,118.35,837.15,0.37,120.65,1480,1599,1800,1490,4,0.02,4.92,7.47
1775514676.82,50.450205,30.452783,120.86,835.29,0.35,120.14,1477,1597,1800,1490,4,0.02,4.91,7.48
1775514676.92,50.450205,30.452783,120.86,835.29,0.35,122.14,1480,1599,1800,1490,4,0.02,4.91,7.48
1775514677.02,50.450190,30.452773,123.40,833.42,0.32,121.60,1475,1597,1800,1490,4,-0.01,4.89,7.49
1775514677.12,50.450190,30.452773,123.40,833.42,0.32,123.60,1479,1598,1800,1490,4,-0.01,4.89,7.49
1775514677.22,50.450190,30.452773,123.40,833.42,0.32,125.60,1479,1598,1800,1490,4,-0.01,4.89,7.49
1775514677.32,50.450174,30.452763,125.97,831.53,0.29,125.03,1473,1596,1800,1490,4,-0.12,4.88,7.55
1775514677.42,50.450174,30.452763,125.97,831.53,0.29,127.03,1478,1598,1800,1490,4,-0.12,4.88,7.55
1775514677.52,50.450159,30.452752,128.62,829.64,0.26,126.38,1473,1596,1800,1490,4,-0.23,4.84,7.57
1775514677.62,50.450159,30.452752,128.62,829.64,0.26,128.38,1477,1598,1800,1490,4,-0.23,4.84,7.57
1775514677.72,50.450159,30.452752,128.62,829.64,0.26,130.38,1477,1598,1800,1490,4,-0.23,4.84,7.57
1775514677.82,50.450143,30.452742,131.21,827.76,0.23,129.79,1473,1596,1800,1490,4,-0.32,4.82,7.57
1775514677.92,50.450143,30.452742,131.21,827.76,0.23,131.79,1476,1597,1800,1490,4,-0.32,4.82,7.57
1775514678.02,50.450127,30.452732,133.75,825.86,0.20,131.25,1471,1596,1800,1490,4,-0.32,4.82,7.58
1775514678.12,50.450127,30.452732,133.75,825.86,0.20,133.25,1475,1597,1800,1490,4,-0.32,4.82,7.58
1775514678.22,50.450112,30.452722,136.28,823.98,0.18,132.72,1471,1595,1800,1490,4,-0.40,4.78,7.60
1775514678.32,50.450112,30.452722,136.28,823.98,0.18,134.72,1474,1597,1800,1490,4,-0.40,4.78,7.60
1775514678.42,50.450112,30.452722,136.28,823.98,0.18,136.72,1474,1597,1800,1490,4,-0.40,4.78,7.60
1775514678.53,50.450096,30.452711,138.77,822.09,0.16,136.23,1471,1596,1800,1490,4,-0.45,4.76,7.60
1775514678.63,50.450096,30.452711,138.77,822.09,0.16,138.23,1474,1596,1800,1490,4,-0.45,4.76,7.60
1775514678.73,50.450080,30.452701,141.29,820.20,0.14,137.71,1471,1595,1800,1490,4,-0.46,4.76,7.62
1775514678.83,50.450080,30.452701,141.29,820.20,0.14,139.71,1473,1596,1800,1490,4,-0.46,4.76,7.62
1775514678.93,50.450080,30.452701,141.29,820.20,0.14,141.71,1473,1596,1800,1490,4,-0.46,4.76,7.62
1775514679.03,50.450065,30.452690,143.82,818.32,0.13,141.18,1471,1596,1800,1490,4,-0.46,4.72,7.60
1775514679.13,50.450065,30.452690,143.82,818.32,0.13,143.18,1473,1596,1800,1490,4,-0.46,4.72,7.60
1775514679.23,50.450049,30.452680,146.39,816.42,0.11,142.61,1470,1595,1800,1490,4,-0.46,4.72,7.60
1775514679.33,50.450049,30.452680,146.39,816.42,0.11,144.61,1472,1596,1800,1490,4,-0.46,4.72,7.60
1775514679.43,50.450049,30.452680,146.39,816.42,0.11,146.61,1472,1596,1800,1490,4,-0.46,4.72,7.60
1775514679.53,50.450034,30.452669,148.96,814.53,0.10,146.04,1470,1595,1800,1490,4,-0.51,4.73,7.58
1775514679.63,50.450034,30.452669,148.96,814.53,0.10,148.04,1472,1596,1800,1490,4,-0.51,4.73,7.58
1775514679.73,50.450034,30.452669,148.96,814.53,0.10,150.04,1472,1596,1800,1490,4,-0.51,4.73,7.58
1775514679.83,50.450018,30.452659,151.54,812.64,0.09,149.46,1470,1595,1800,1490,4,-0.57,4.73,7.59
1775514679.93,50.450018,30.452659,151.54,812.64,0.09,149.46,1472,1596,1800,1490,4,-0.57,4.73,7.59
1775514680.03,50.450002,30.452648,154.15,810.74,0.09,146.85,1472,1596,1800,1490,4,-0.57,4.72,7.60
1775514680.13,50.450002,30.452648,154.15,810.74,0.09,146.85,1472,1596,1800,1490,4,-0.57,4.72,7.60
1775514680.23,50.450002,30.452648,154.15,810.74,0.09,146.85,1472,1596,1800,1490,4,-0.57,4.72,7.60
1775514680.33,50.449987,30.452637,156.70,808.85,0.09,144.30,1472,1596,1800,1490,4,-0.55,4.73,7.61
1775514680.43,50.449987,30.452637,156.70,808.85,0.09,144.30,1472,1596,1800,1490,4,-0.55,4.73,7.61
1775514680.53,50.449971,30.452627,159.28,806.95,0.09,141.72,1472,1596,1800,1490,4,-0.53,4.74,7.59
1775514680.63,50.449971,30.452627,159.28,806.95,0.09,141.72,1472,1596,1800,1490,4,-0.53,4.74,7.59
1775514680.73,50.449971,30.452627,159.28,806.95,0.09,141.72,1472,1596,1800,1490,4,-0.53,4.74,7.59
1775514680.84,50.449956,30.452616,161.73,805.06,0.11,139.27,1474,1597,1800,1490,4,-0.52,4.75,7.57
1775514680.94,50.449956,30.452616,161.73,805.06,0.11,139.27,1472,1596,1800,1490,4,-0.52,4.75,7.57
1775514681.04,50.449940,30.452605,164.28,803.18,0.12,136.72,1474,1597,1800,1490,4,-0.51,4.75,7.60
1775514681.14,50.449940,30.452605,164.28,803.18,0.12,136.72,1473,1596,1800,1490,4,-0.51,4.75,7.60
1775514681.24,50.449940,30.452605,164.28,803.18,0.12,136.72,1473,1596,1800,1490,4,-0.51,4.75,7.60
1775514681.34,50.449924,30.452594,166.79,801.27,0.13,134.21,1474,1597,1800,1490,4,-0.50,4.76,7.58
1775514681.44,50.449924,30.452594,166.79,801.27,0.13,134.21,1473,1596,1800,1490,4,-0.50,4.76,7.58
1775514681.54,50.449909,30.452583,169.22,799.37,0.14,131.78,1474,1597,1800,1490,4,-0.47,4.77,7.61
1775514681.64,50.449909,30.452583,169.22,799.37,0.14,131.78,1473,1596,1800,1490,4,-0.47,4.77,7.61
1775514681.74,50.449893,30.452573,171.69,797.47,0.14,129.31,1475,1597,1800,1490,4,-0.42,4.78,7.62
1775514681.84,50.449893,30.452573,171.69,797.47,0.14,129.31,1474,1596,1800,1490,4,-0.42,4.78,7.62
1775514681.94,50.449893,30.452573,171.69,797.47,0.14,129.31,1474,1596,1800,1490,4,-0.42,4.78,7.62
1775514682.04,50.449877,30.452562,174.18,795.55,0.15,126.82,1474,1597,1800,1490,4,-0.37,4.78,7.64
1775514682.14,50.449877,30.452562,174.18,795.55,0.15,126.82,1474,1596,1800,1490,4,-0.37,4.78,7.64
1775514682.24,50.449862,30.452551,176.59,793.65,0.16,124.41,1475,1597,1800,1490,4,-0.36,4.77,7.60
1775514682.34,50.449862,30.452551,176.59,793.65,0.16,124.41,1474,1597,1800,1490,4,-0.36,4.77,7.60
1775514682.44,50.449862,30.452551,176.59,793.65,0.16,124.41,1474,1597,1800,1490,4,-0.36,4.77,7.60
1775514682.54,50.449846,30.452540,179.07,791.75,0.16,121.93,1475,1597,1800,1490,4,-0.34,4.78,7.62
1775514682.64,50.449846,30.452540,179.07,791.75,0.16,121.93,1474,1597,1800,1490,4,-0.34,4.78,7.62
1775514682.74,50.449830,30.452529,181.67,789.84,0.16,119.33,1474,1597,1800,1490,4,-0.36,4.80,7.65
1775514682.84,50.449830,30.452529,181.67,789.84,0.16,119.33,1474,1597,1800,1490,4,-0.36,4.80,7.65
1775514682.94,50.449830,30.452529,181.67,789.84,0.16,119.33,1474,1597,1800,1490,4,-0.36,4.80,7.65
1775514683.04,50.449815,30.452519,184.32,787.93,0.17,116.68,1475,1597,1800,1490,4,-0.35,4.80,7.66
1775514683.14,50.449815,30.452519,184.32,787.93,0.17,116.68,1474,1597,1800,1490,4,-0.35,4.80,7.66
1775514683.24,50.449799,30.452508,187.01,786.01,0.17,113.99,1475,1597,1800,1490,4,-0.35,4.81,7.66
1775514683.34,50.449799,30.452508,187.01,786.01,0.17,113.99,1475,1597,1800,1490,4,-0.35,4.81,7.66
1775514683.44,50.449799,30.452508,187.01,786.01,0.17,113.99,1475,1597,1800,1490,4,-0.35,4.81,7.66
1775514683.54,50.449783,30.452497,189.69,784.09,0.17,111.31,1474,1597,1800,1490,4,-0.35,4.81,7.65
1775514683.64,50.449783,30.452497,189.69,784.09,0.17,111.31,1475,1597,1800,1490,4,-0.35,4.81,7.65
1775514683.75,50.449767,30.452486,192.38,782.18,0.17,108.62,1475,1597,1800,1490,4,-0.35,4.81,7.67
1775514683.85,50.449767,30.452486,192.38,782.18,0.17,108.62,1475,1597,1800,1490,4,-0.35,4.81,7.67
1775514683.95,50.449767,30.452486,192.38,782.18,0.17,108.62,1475,1597,1800,1490,4,-0.35,4.81,7.67
1775514684.05,50.449752,30.452475,195.09,780.27,0.17,105.91,1474,1597,1800,1490,4,-0.33,4.82,7.66
1775514684.15,50.449752,30.452475,195.09,780.27,0.17,105.91,1475,1597,1800,1490,4,-0.33,4.82,7.66
1775514684.25,50.449736,30.452465,197.78,778.37,0.17,103.22,1475,1597,1800,1490,4,-0.31,4.80,7.64
1775514684.35,50.449736,30.452465,197.78,778.37,0.17,103.22,1475,1597,1800,1490,4,-0.31,4.80,7.64
1775514684.45,50.449736,30.452465,197.78,778.37,0.17,103.22,1475,1597,1800,1490,4,-0.31,4.80,7.64
1775514684.55,50.449720,30.452454,200.49,776.46,0.17,100.51,1474,1597,1800,1490,4,-0.31,4.80,7.67
1775514684.65,50.449720,30.452454,200.49,776.46,0.17,100.51,1475,1597,1800,1490,4,-0.31,4.80,7.67
1775514684.75,50.449705,30.452443,203.33,774.55,0.16,97.67,1473,1596,1800,1490,4,-0.31,4.80,7.70
1775514684.85,50.449705,30.452443,203.33,774.55,0.16,97.67,1474,1597,1800,1490,4,-0.31,4.80,7.70
1775514684.95,50.449705,30.452443,203.33,774.55,0.16,97.67,1474,1597,1800,1490,4,-0.31,4.80,7.70
1775514685.05,50.449689,30.452432,206.19,772.63,0.15,94.81,1473,1596,1782,1490,4,-0.36,4.79,7.67
1775514685.15,50.449689,30.452432,206.19,772.63,0.15,94.81,1474,1597,1800,1490,4,-0.36,4.79,7.67
1775514685.25,50.449673,30.452422,209.06,770.71,0.15,91.94,1474,1597,1766,1490,4,-0.39,4.79,7.67
1775514685.35,50.449673,30.452422,209.06,770.71,0.15,91.94,1474,1597,1800,1490,4,-0.39,4.79,7.67
1775514685.45,50.449673,30.452422,209.06,770.71,0.15,91.94,1474,1597,1800,1490,4,-0.39,4.79,7.67
1775514685.55,50.449657,30.452411,211.89,768.78,0.15,89.11,1473,1596,1752,1490,4,-0.40,4.80,7.68
1775514685.65,50.449657,30.452411,211.89,768.78,0.15,89.11,1474,1597,1800,1490,4,-0.40,4.80,7.68
1775514685.75,50.449641,30.452400,214.66,766.87,0.15,86.34,1474,1597,1743,1490,4,-0.39,4.81,7.62
1775514685.85,50.449641,30.452400,214.66,766.87,0.15,86.34,1474,1597,1800,1490,4,-0.39,4.81,7.62
1775514685.95,50.449641,30.452400,214.66,766.87,0.15,86.34,1474,1597,1800,1490,4,-0.39,4.81,7.62
1775514686.05,50.449626,30.452389,217.33,764.96,0.15,83.67,1475,1597,1736,1490,4,-0.39,4.81,7.63
1775514686.15,50.449626,30.452389,217.33,764.96,0.15,83.67,1474,1597,1800,1490,4,-0.39,4.81,7.63
1775514686.25,50.449610,30.452378,219.96,763.05,0.15,81.04,1474,1596,1723,1490,4,-0.37,4.82,7.60
1775514686.35,50.449610,30.452378,219.96,763.05,0.15,81.04,1474,1597,1800,1490,4,-0.37,4.82,7.60
1775514686.46,50.449610,30.452378,219.96,763.05,0.15,81.04,1474,1597,1800,1490,4,-0.37,4.82,7.60
1775514686.56,50.449594,30.452368,222.54,761.15,0.14,78.46,1474,1596,1714,1490,4,-0.35,4.79,7.59
1775514686.66,50.449594,30.452368,222.54,761.15,0.14,78.46,1474,1597,1800,1490,4,-0.35,4.79,7.59
1775514686.76,50.449578,30.452357,225.04,759.24,0.14,75.96,1473,1596,1706,1490,4,-0.38,4.79,7.59
1775514686.86,50.449578,30.452357,225.04,759.24,0.14,75.96,1474,1597,1800,1490,4,-0.38,4.79,7.59
1775514686.96,50.449578,30.452357,225.04,759.24,0.14,75.96,1474,1597,1800,1490,4,-0.38,4.79,7.59
1775514687.06,50.449563,30.452346,227.59,757.34,0.14,73.41,1473,1596,1686,1490,4,-0.41,4.79,7.61
1775514687.16,50.449563,30.452346,227.59,757.34,0.14,73.41,1474,1597,1800,1490,4,-0.41,4.79,7.61
1775514687.26,50.449547,30.452336,230.17,755.43,0.13,70.83,1473,1596,1668,1490,4,-0.42,4.79,7.60
1775514687.36,50.449547,30.452336,230.17,755.43,0.13,70.83,1474,1596,1800,1490,4,-0.42,4.79,7.60
1775514687.46,50.449547,30.452336,230.17,755.43,0.13,70.83,1474,1596,1800,1490,4,-0.42,4.79,7.60
1775514687.56,50.449531,30.452325,232.76,753.50,0.13,68.24,1473,1596,1651,1490,4,-0.42,4.78,7.62
1775514687.66,50.449531,30.452325,232.76,753.50,0.13,68.24,1474,1596,1800,1490,4,-0.42,4.78,7.62
1775514687.76,50.449515,30.452314,235.26,751.61,0.13,65.74,1474,1597,1645,1490,4,-0.41,4.77,7.60
1775514687.86,50.449515,30.452314,235.26,751.61,0.13,65.74,1474,1596,1800,1490,4,-0.41,4.77,7.60
1775514687.96,50.449515,30.452314,235.26,751.61,0.13,65.74,1474,1596,1800,1490,4,-0.41,4.77,7.60
1775514688.06,50.449500,30.452303,237.71,749.70,0.13,63.29,1474,1597,1636,1490,4,-0.40,4.77,7.61
1775514688.16,50.449500,30.452303,237.71,749.70,0.13,63.29,1474,1596,1800,1490,4,-0.40,4.77,7.61
1775514688.26,50.449484,30.452293,240.15,747.80,0.13,60.85,1473,1596,1621,1490,4,-0.39,4.77,7.62
1775514688.36,50.449484,30.452293,240.15,747.80,0.13,60.85,1474,1596,1800,1490,4,-0.39,4.77,7.62
1775514688.46,50.449484,30.452293,240.15,747.80,0.13,60.85,1474,1596,1800,1490,4,-0.39,4.77,7.62
1775514688.56,50.449469,30.452282,242.56,745.90,0.13,58.44,1474,1597,1611,1490,4,-0.39,4.75,7.64
1775514688.66,50.449469,30.452282,242.56,745.90,0.13,58.44,1474,1596,1800,1490,4,-0.39,4.75,7.64
1775514688.76,50.449453,30.452271,244.94,743.99,0.13,56.06,1474,1597,1599,1490,4,-0.40,4.75,7.64
1775514688.86,50.449453,30.452271,244.94,743.99,0.13,56.06,1474,1597,1800,1490,4,-0.40,4.75,7.64
1775514688.97,50.449453,30.452271,244.94,743.99,0.13,56.06,1474,1597,1800,1490,4,-0.40,4.75,7.64
1775514689.07,50.449437,30.452261,247.25,742.09,0.13,53.75,1473,1596,1592,1490,4,-0.39,4.77,7.63
1775514689.17,50.449437,30.452261,247.25,742.09,0.13,53.75,1474,1597,1800,1490,4,-0.39,4.77,7.63
1775514689.27,50.449421,30.452250,249.58,740.19,0.13,51.42,1474,1597,1576,1490,4,-0.38,4.77,7.63
1775514689.37,50.449421,30.452250,249.58,740.19,0.13,51.42,1474,1597,1800,1490,4,-0.38,4.77,7.63
1775514689.47,50.449421,30.452250,249.58,740.19,0.13,51.42,1474,1597,1800,1490,4,-0.38,4.77,7.63
1775514689.57,50.449406,30.452239,251.93,738.29,0.13,49.07,1468,1610,1560,1490,4,-0.38,4.77,7.61
1775514689.67,50.449406,30.452239,251.93,738.29,0.13,49.07,1469,1610,1794,1490,4,-0.38,4.77,7.61
1775514689.77,50.449390,30.452228,254.19,736.40,0.13,46.81,1464,1626,1555,1490,4,-0.47,5.00,7.59
1775514689.87,50.449390,30.452228,254.19,736.40,0.13,46.81,1463,1626,1780,1490,4,-0.47,5.00,7.59
1775514689.97,50.449390,30.452228,254.19,736.40,0.13,46.81,1464,1626,1780,1490,4,-0.47,5.00,7.59
1775514690.07,50.449375,30.452218,256.41,734.51,0.13,44.59,1458,1642,1546,1490,4,-0.75,5.81,7.63
1775514690.17,50.449375,30.452218,256.41,734.51,0.13,44.59,1458,1642,1767,1490,4,-0.75,5.81,7.63
1775514690.27,50.449359,30.452207,258.54,732.61,0.13,42.46,1453,1657,1542,1490,4,-1.03,6.60,7.64
1775514690.37,50.449359,30.452207,258.54,732.61,0.13,42.46,1453,1657,1754,1490,4,-1.03,6.60,7.64
1775514690.47,50.449359,30.452207,258.54,732.61,0.13,42.46,1453,1657,1754,1490,4,-1.03,6.60,7.64
1775514690.57,50.449343,30.452196,260.56,730.70,0.14,40.44,1449,1672,1541,1490,4,-1.39,7.67,7.77
1775514690.67,50.449343,30.452196,260.56,730.70,0.14,40.44,1448,1671,1742,1490,4,-1.39,7.67,7.77
1775514690.77,50.449327,30.452185,262.60,728.74,0.15,38.40,1444,1686,1527,1490,4,-1.67,8.56,7.94
1775514690.87,50.449327,30.452185,262.60,728.74,0.15,38.40,1443,1686,1730,1490,4,-1.67,8.56,7.94
1775514690.97,50.449327,30.452185,262.60,728.74,0.15,38.40,1443,1686,1730,1490,4,-1.67,8.56,7.94
1775514691.07,50.449311,30.452174,264.52,726.75,0.16,36.48,1440,1700,1527,1490,4,-1.96,9.47,8.10
1775514691.17,50.449311,30.452174,264.52,726.75,0.16,36.48,1439,1700,1718,1490,4,-1.96,9.47,8.10
1775514691.27,50.449294,30.452162,266.39,724.71,0.16,34.61,1434,1713,1521,1490,4,-2.23,10.34,8.34
1775514691.37,50.449294,30.452162,266.39,724.71,0.16,34.61,1434,1713,1707,1490,4,-2.23,10.34,8.34
1775514691.47,50.449294,30.452162,266.39,724.71,0.16,34.61,1434,1713,1707,1490,4,-2.23,10.34,8.34
1775514691.57,50.449277,30.452150,268.22,722.61,0.16,32.78,1430,1726,1514,1490,4,-2.53,11.26,8.58
1775514691.67,50.449277,30.452150,268.22,722.61,0.16,32.78,1429,1726,1696,1490,4,-2.53,11.26,8.58
1775514691.77,50.449259,30.452138,270.01,720.42,0.16,30.99,1425,1738,1507,1490,4,-2.80,12.06,8.77
1775514691.88,50.449259,30.452138,270.01,720.42,0.16,30.99,1425,1738,1685,1490,4,-2.80,12.06,8.77
1775514691.98,50.449259,30.452138,270.01,720.42,0.16,30.99,1425,1738,1685,1490,4,-2.80,12.06,8.77
1775514692.08,50.449241,30.452125,271.56,718.21,0.16,29.44,1422,1750,1523,1490,4,-3.11,12.90,9.03
1775514692.18,50.449241,30.452125,271.56,718.21,0.16,29.44,1421,1749,1680,1490,4,-3.11,12.90,9.03
1775514692.28,50.449222,30.452113,273.10,715.93,0.16,27.90,1417,1760,1518,1490,4,-3.33,13.63,9.27
1775514692.38,50.449222,30.452113,273.10,715.93,0.16,27.90,1417,1760,1674,1490,4,-3.33,13.63,9.27
1775514692.48,50.449222,30.452113,273.10,715.93,0.16,27.90,1417,1760,1675,1490,4,-3.33,13.63,9.27
1775514692.58,50.449202,30.452099,274.57,713.58,0.16,26.43,1414,1771,1522,1490,4,-3.58,14.38,9.55
1775514692.68,50.449202,30.452099,274.57,713.58,0.16,26.43,1414,1771,1670,1490,4,-3.58,14.38,9.55
1775514692.78,50.449182,30.452086,276.00,711.16,0.16,25.00,1409,1780,1520,1490,4,-3.76,14.98,9.84
1775514692.88,50.449182,30.452086,276.00,711.16,0.16,25.00,1410,1781,1664,1490,4,-3.76,14.98,9.84
1775514692.98,50.449182,30.452086,276.00,711.16,0.16,25.00,1410,1781,1666,1490,4,-3.76,14.98,9.84
1775514693.08,50.449162,30.452072,277.32,708.67,0.16,23.68,1406,1790,1528,1490,4,-4.00,15.69,10.17
1775514693.18,50.449162,30.452072,277.32,708.67,0.16,23.68,1407,1790,1661,1490,4,-4.00,15.69,10.17
1775514693.28,50.449141,30.452057,278.64,706.09,0.15,22.36,1403,1799,1523,1490,4,-4.20,16.27,10.48
1775514693.38,50.449141,30.452057,278.64,706.09,0.15,22.36,1403,1799,1655,1490,4,-4.20,16.27,10.48
1775514693.48,50.449141,30.452057,278.64,706.09,0.15,22.36,1403,1799,1657,1490,4,-4.20,16.27,10.48
1775514693.58,50.449119,30.452042,279.93,703.44,0.15,21.07,1399,1808,1522,1490,4,-4.42,16.89,10.80
1775514693.68,50.449119,30.452042,279.93,703.44,0.15,21.07,1400,1808,1652,1490,4,-4.42,16.89,10.80
1775514693.78,50.449096,30.452027,281.25,700.67,0.13,19.75,1394,1817,1513,1490,4,-4.61,17.42,11.11
1775514693.88,50.449096,30.452027,281.25,700.67,0.13,19.75,1396,1818,1646,1490,4,-4.61,17.42,11.11
1775514693.98,50.449073,30.452011,282.47,697.88,0.13,18.53,1392,1826,1519,1490,4,-4.83,18.02,11.32
1775514694.08,50.449073,30.452011,282.47,697.88,0.13,18.53,1393,1826,1641,1490,4,-4.83,18.02,11.32
1775514694.18,50.449073,30.452011,282.47,697.88,0.13,18.53,1393,1826,1642,1490,4,-4.83,18.02,11.32
1775514694.28,50.449050,30.451995,283.58,695.05,0.13,17.42,1391,1834,1526,1490,4,-5.04,18.68,11.53
1775514694.38,50.449050,30.451995,283.58,695.05,0.13,17.42,1390,1834,1638,1490,4,-5.04,18.68,11.53
1775514694.48,50.449026,30.451979,284.63,692.16,0.13,16.37,1387,1841,1527,1490,4,-5.14,19.20,11.72
1775514694.58,50.449026,30.451979,284.63,692.16,0.13,16.37,1387,1841,1633,1490,4,-5.14,19.20,11.72
1775514694.69,50.449026,30.451979,284.63,692.16,0.13,16.37,1387,1841,1634,1490,4,-5.14,19.20,11.72
1775514694.79,50.449002,30.451962,285.61,689.21,0.13,15.39,1386,1849,1532,1490,4,-5.32,19.73,12.02
1775514694.89,50.449002,30.451962,285.61,689.21,0.13,15.39,1385,1848,1630,1490,4,-5.32,19.73,12.02
1775514694.99,50.448977,30.451945,286.65,686.19,0.13,14.35,1382,1850,1522,1490,4,-5.46,20.17,12.25
1775514695.09,50.448977,30.451945,286.65,686.19,0.13,14.35,1382,1850,1626,1490,4,-5.46,20.17,12.25
1775514695.19,50.448977,30.451945,286.65,686.19,0.13,14.35,1382,1850,1627,1490,4,-5.46,20.17,12.25
1775514695.29,50.448951,30.451928,287.64,683.10,0.14,13.36,1381,1850,1522,1490,4,-5.62,20.49,12.53
1775514695.39,50.448951,30.451928,287.64,683.10,0.14,13.36,1380,1850,1622,1490,4,-5.62,20.49,12.53
1775514695.49,50.448951,30.451928,287.64,683.10,0.14,13.36,1380,1850,1623,1490,4,-5.62,20.49,12.53
1775514695.59,50.448926,30.451910,288.61,679.96,0.14,12.39,1379,1850,1522,1490,4,-5.74,20.60,12.72
1775514695.69,50.448926,30.451910,288.61,679.96,0.14,12.39,1378,1850,1619,1490,4,-5.74,20.60,12.72
1775514695.79,50.448899,30.451892,289.59,676.74,0.16,11.41,1379,1850,1516,1490,4,-5.80,20.65,12.94
1775514695.89,50.448899,30.451892,289.59,676.74,0.16,11.41,1376,1850,1614,1490,4,-5.80,20.65,12.94
1775514695.99,50.448899,30.451892,289.59,676.74,0.16,11.41,1376,1850,1615,1490,4,-5.80,20.65,12.94
1775514696.09,50.448872,30.451873,290.58,673.48,0.19,10.42,1381,1850,1511,1490,4,-5.89,20.65,13.08
1775514696.19,50.448872,30.451873,290.58,673.48,0.19,10.42,1376,1850,1610,1490,4,-5.89,20.65,13.08
1775514696.29,50.448845,30.451854,291.57,670.19,0.24,9.43,1384,1850,1506,1490,4,-6.00,20.65,13.23
1775514696.39,50.448845,30.451854,291.57,670.19,0.24,9.43,1378,1850,1605,1490,4,-6.00,20.65,13.23
1775514696.49,50.448845,30.451854,291.57,670.19,0.24,9.43,1378,1850,1606,1490,4,-6.00,20.65,13.23
1775514696.59,50.448818,30.451834,292.54,666.87,0.29,8.46,1388,1850,1504,1490,4,-5.94,20.66,13.32
1775514696.69,50.448818,30.451834,292.54,666.87,0.29,8.46,1380,1850,1601,1490,4,-5.94,20.66,13.32
1775514696.79,50.448791,30.451815,293.48,663.51,0.36,7.52,1390,1850,1502,1490,4,-5.83,20.64,13.33
1775514696.89,50.448791,30.451815,293.48,663.51,0.36,7.52,1382,1850,1596,1490,4,-5.83,20.64,13.33
1775514696.99,50.448791,30.451815,293.48,663.51,0.36,7.52,1382,1850,1597,1490,4,-5.83,20.64,13.33
1775514697.09,50.448764,30.451795,294.22,660.18,0.43,6.78,1394,1850,1520,1490,4,-5.61,20.63,13.39
1775514697.19,50.448764,30.451795,294.22,660.18,0.43,6.78,1384,1850,1593,1490,4,-5.61,20.63,13.39
1775514697.30,50.448736,30.451775,294.99,656.82,0.51,6.01,1398,1850,1512,1490,4,-5.50,20.64,13.46
1775514697.40,50.448736,30.451775,294.99,656.82,0.51,6.01,1387,1850,1589,1490,4,-5.50,20.64,13.46
1775514697.50,50.448736,30.451775,294.99,656.82,0.51,6.01,1387,1850,1590,1490,4,-5.50,20.64,13.46
1775514697.60,50.448709,30.451755,295.76,653.44,0.58,5.24,1400,1850,1508,1490,4,-5.28,20.65,13.55
1775514697.70,50.448709,30.451755,295.76,653.44,0.58,5.24,1390,1850,1586,1490,4,-5.28,20.65,13.55
1775514697.80,50.448681,30.451735,296.54,650.04,0.67,4.46,1405,1850,1504,1490,4,-5.22,20.63,13.59
1775514697.90,50.448681,30.451735,296.54,650.04,0.67,4.46,1393,1850,1582,1490,4,-5.22,20.63,13.59
1775514698.00,50.448653,30.451714,297.32,646.61,0.76,3.68,1408,1850,1499,1490,4,-4.97,20.61,13.64
1775514698.10,50.448653,30.451714,297.32,646.61,0.76,3.68,1396,1850,1577,1490,4,-4.97,20.61,13.64
1775514698.20,50.448653,30.451714,297.32,646.61,0.76,3.68,1396,1850,1578,1490,4,-4.97,20.61,13.64
1775514698.30,50.448625,30.451694,298.05,643.20,0.84,2.95,1410,1850,1501,1490,4,-4.75,20.59,13.65
1775514698.40,50.448625,30.451694,298.05,643.20,0.84,2.95,1399,1850,1574,1490,4,-4.75,20.59,13.65
1775514698.50,50.448598,30.451673,298.76,639.79,0.92,2.24,1413,1850,1498,1490,4,-4.61,20.61,13.65
1775514698.60,50.448598,30.451673,298.76,639.79,0.92,2.24,1401,1850,1570,1490,4,-4.61,20.61,13.65
1775514698.70,50.448598,30.451673,298.76,639.79,0.92,2.24,1401,1850,1570,1490,4,-4.61,20.61,13.65
1775514698.80,50.448570,30.451653,299.45,636.37,1.00,1.55,1415,1850,1496,1490,4,-4.44,20.63,13.66
1775514698.90,50.448570,30.451653,299.45,636.37,1.00,1.55,1404,1850,1566,1490,4,-4.44,20.63,13.66
1775514699.00,50.448542,30.451633,300.15,632.96,1.07,0.85,1416,1850,1492,1490,4,-4.30,20.64,13.61
1775514699.10,50.448542,30.451633,300.15,632.96,1.07,0.85,1407,1850,1562,1490,4,-4.30,20.64,13.61
1775514699.20,50.448542,30.451633,300.15,632.96,1.07,0.85,1407,1850,1562,1490,4,-4.30,20.64,13.61
1775514699.30,50.448514,30.451613,300.84,629.58,1.14,0.16,1419,1850,1490,1489,4,-4.14,20.62,13.61
1775514699.40,50.448514,30.451613,300.84,629.58,1.14,0.16,1409,1850,1558,1489,4,-4.14,20.62,13.61
1775514699.50,50.448487,30.451593,301.52,626.20,1.20,-0.52,1419,1850,1486,1489,4,-4.06,20.61,13.55
1775514699.60,50.448487,30.451593,301.52,626.20,1.20,-0.52,1411,1850,1553,1489,4,-4.06,20.61,13.55
1775514699.70,50.448487,30.451593,301.52,626.20,1.20,-0.52,1411,1850,1553,1489,4,-4.06,20.61,13.55
1775514699.80,50.448459,30.451574,302.26,622.84,1.25,-1.26,1420,1850,1475,1489,4,-3.89,20.62,13.49
1775514699.91,50.448459,30.451574,302.26,622.84,1.25,-1.26,1413,1850,1549,1489,4,-3.89,20.62,13.49
1775514700.01,50.448431,30.451554,303.02,619.45,1.29,-2.02,1421,1850,1468,1489,4,-3.85,20.60,13.48
1775514700.11,50.448431,30.451554,303.02,619.45,1.29,-2.02,1415,1850,1544,1489,4,-3.85,20.60,13.48
1775514700.21,50.448431,30.451554,303.02,619.45,1.29,-2.02,1415,1850,1544,1489,4,-3.85,20.60,13.48
1775514700.31,50.448404,30.451535,303.70,616.10,1.33,-2.70,1422,1850,1472,1489,4,-3.72,20.60,13.44
1775514700.41,50.448404,30.451535,303.70,616.10,1.33,-2.70,1417,1850,1539,1489,4,-3.72,20.60,13.44
1775514700.51,50.448377,30.451515,304.36,612.75,1.37,-3.36,1422,1850,1470,1489,4,-3.66,20.62,13.40
1775514700.61,50.448377,30.451515,304.36,612.75,1.37,-3.36,1418,1850,1535,1489,4,-3.66,20.62,13.40
1775514700.71,50.448377,30.451515,304.36,612.75,1.37,-3.36,1418,1850,1535,1489,4,-3.66,20.62,13.40
1775514700.81,50.448349,30.451496,304.99,609.41,1.39,-3.99,1423,1850,1467,1489,4,-3.55,20.64,13.37
1775514700.91,50.448349,30.451496,304.99,609.41,1.39,-3.99,1419,1850,1531,1489,4,-3.55,20.64,13.37
1775514701.01,50.448322,30.451477,305.57,606.06,1.40,-4.57,1421,1850,1469,1489,4,-3.52,20.63,13.34
1775514701.11,50.448322,30.451477,305.57,606.06,1.40,-4.57,1420,1850,1527,1489,4,-3.52,20.63,13.34
1775514701.21,50.448322,30.451477,305.57,606.06,1.40,-4.57,1420,1850,1526,1489,4,-3.52,20.63,13.34
1775514701.31,50.448294,30.451458,306.10,602.74,1.42,-5.10,1422,1850,1470,1489,4,-3.49,20.63,13.29
1775514701.41,50.448294,30.451458,306.10,602.74,1.42,-5.10,1420,1850,1523,1489,4,-3.49,20.63,13.29
1775514701.51,50.448267,30.451439,306.59,599.42,1.41,-5.59,1420,1850,1471,1489,4,-3.48,20.62,13.25
1775514701.61,50.448267,30.451439,306.59,599.42,1.41,-5.59,1420,1850,1519,1489,4,-3.48,20.62,13.25
1775514701.71,50.448267,30.451439,306.59,599.42,1.41,-5.59,1421,1850,1519,1489,4,-3.48,20.62,13.25
1775514701.81,50.448240,30.451421,307.06,596.11,1.41,-6.06,1420,1850,1469,1489,4,-3.50,20.63,13.24
1775514701.91,50.448240,30.451421,307.06,596.11,1.41,-6.06,1421,1850,1515,1489,4,-3.50,20.63,13.24
1775514702.01,50.448212,30.451402,307.49,592.79,1.40,-6.49,1419,1850,1469,1489,4,-3.51,20.64,13.24
1775514702.11,50.448212,30.451402,307.49,592.79,1.40,-6.49,1421,1850,1512,1489,4,-3.51,20.64,13.24
1775514702.21,50.448212,30.451402,307.49,592.79,1.40,-6.49,1421,1850,1511,1489,4,-3.51,20.64,13.24
1775514702.31,50.448185,30.451384,307.90,589.48,1.38,-6.90,1417,1850,1467,1489,4,-3.52,20.63,13.22
1775514702.42,50.448185,30.451384,307.90,589.48,1.38,-6.90,1420,1850,1508,1489,4,-3.52,20.63,13.22
1775514702.52,50.448158,30.451366,308.20,586.18,1.36,-7.20,1416,1850,1476,1489,4,-3.54,20.62,13.17
1775514702.62,50.448158,30.451366,308.20,586.18,1.36,-7.20,1420,1850,1505,1489,4,-3.54,20.62,13.17
1775514702.72,50.448158,30.451366,308.20,586.18,1.36,-7.20,1420,1850,1505,1489,4,-3.54,20.62,13.17
1775514702.82,50.448131,30.451347,308.46,582.90,1.33,-7.46,1416,1850,1477,1489,4,-3.61,20.62,13.08
1775514702.92,50.448131,30.451347,308.46,582.90,1.33,-7.46,1419,1850,1502,1489,4,-3.61,20.62,13.08
1775514703.02,50.448104,30.451329,308.74,579.64,1.32,-7.74,1417,1850,1472,1489,4,-3.63,20.61,13.06
1775514703.12,50.448104,30.451329,308.74,579.64,1.32,-7.74,1419,1850,1500,1489,4,-3.63,20.61,13.06
1775514703.22,50.448104,30.451329,308.74,579.64,1.32,-7.74,1419,1850,1499,1489,4,-3.63,20.61,13.06
1775514703.32,50.448077,30.451311,309.02,576.37,1.29,-8.02,1414,1850,1469,1489,4,-3.65,20.59,13.04
1775514703.42,50.448077,30.451311,309.02,576.37,1.29,-8.02,1418,1850,1497,1489,4,-3.65,20.59,13.04
1775514703.52,50.448050,30.451293,309.33,573.13,1.26,-8.33,1414,1850,1464,1489,4,-3.66,20.58,12.98
1775514703.62,50.448050,30.451293,309.33,573.13,1.26,-8.33,1418,1850,1494,1489,4,-3.66,20.58,12.98
1775514703.72,50.448050,30.451293,309.33,573.13,1.26,-8.33,1418,1850,1493,1489,4,-3.66,20.58,12.98
1775514703.82,50.448023,30.451275,309.64,569.91,1.24,-8.64,1414,1850,1460,1489,4,-3.73,20.59,12.96
1775514703.92,50.448023,30.451275,309.64,569.91,1.24,-8.64,1417,1850,1490,1489,4,-3.73,20.59,12.96
1775514704.02,50.447997,30.451257,309.97,566.68,1.22,-8.97,1413,1850,1455,1489,4,-3.73,20.61,12.91
1775514704.12,50.447997,30.451257,309.97,566.68,1.22,-8.97,1417,1850,1487,1489,4,-3.73,20.61,12.91
1775514704.22,50.447997,30.451257,309.97,566.68,1.22,-8.97,1417,1850,1487,1489,4,-3.73,20.61,12.91
1775514704.32,50.447970,30.451239,310.27,563.44,1.21,-9.27,1415,1850,1455,1489,4,-3.79,20.61,12.87
1775514704.42,50.447970,30.451239,310.27,563.44,1.21,-9.27,1416,1850,1484,1489,4,-3.79,20.61,12.87
1775514704.52,50.447943,30.451221,310.52,560.23,1.19,-9.52,1413,1850,1456,1489,4,-3.77,20.63,12.84
1775514704.62,50.447943,30.451221,310.52,560.23,1.19,-9.52,1416,1850,1481,1489,4,-3.77,20.63,12.84
1775514704.72,50.447943,30.451221,310.52,560.23,1.19,-9.52,1416,1850,1481,1489,4,-3.77,20.63,12.84
1775514704.82,50.447917,30.451204,310.75,557.04,1.17,-9.75,1414,1850,1456,1489,4,-3.79,20.63,12.79
1775514704.93,50.447917,30.451204,310.75,557.04,1.17,-9.75,1416,1850,1478,1489,4,-3.79,20.63,12.79
1775514705.03,50.447891,30.451186,310.91,553.86,1.16,-9.91,1414,1850,1460,1489,4,-3.80,20.63,12.78
1775514705.13,50.447891,30.451186,310.91,553.86,1.16,-9.91,1416,1850,1476,1489,4,-3.80,20.63,12.78
1775514705.23,50.447891,30.451186,310.91,553.86,1.16,-9.91,1416,1850,1475,1489,4,-3.80,20.63,12.78
1775514705.33,50.447865,30.451168,311.04,550.69,1.15,-10.04,1414,1850,1461,1489,4,-3.81,20.64,12.70
1775514705.43,50.447865,30.451168,311.04,550.69,1.15,-10.04,1416,1850,1473,1489,4,-3.81,20.64,12.70
1775514705.53,50.447839,30.451150,311.21,547.52,1.15,-10.21,1415,1850,1455,1489,4,-3.80,20.65,12.65
1775514705.63,50.447839,30.451150,311.21,547.52,1.15,-10.21,1416,1850,1471,1489,4,-3.80,20.65,12.65
1775514705.73,50.447839,30.451150,311.21,547.52,1.15,-10.21,1416,1850,1471,1489,4,-3.80,20.65,12.65
1775514705.83,50.447813,30.451132,311.37,544.37,1.15,-10.37,1415,1850,1454,1489,4,-3.79,20.62,12.64
1775514705.93,50.447813,30.451132,311.37,544.37,1.15,-10.37,1416,1850,1468,1489,4,-3.79,20.62,12.64
1775514706.03,50.447787,30.451115,311.45,541.22,1.14,-10.45,1415,1850,1459,1489,4,-3.77,20.60,12.62
1775514706.13,50.447787,30.451115,311.45,541.22,1.14,-10.45,1416,1850,1467,1489,4,-3.77,20.60,12.62
1775514706.23,50.447761,30.451097,311.51,538.05,1.14,-10.51,1416,1850,1459,1489,4,-3.77,20.61,12.62
1775514706.33,50.447761,30.451097,311.51,538.05,1.14,-10.51,1416,1850,1465,1489,4,-3.77,20.61,12.62
1775514706.43,50.447761,30.451097,311.51,538.05,1.14,-10.51,1416,1850,1464,1489,4,-3.77,20.61,12.62
1775514706.53,50.447735,30.451079,311.56,534.89,1.13,-10.56,1415,1850,1459,1489,4,-3.76,20.62,12.62
1775514706.63,50.447735,30.451079,311.56,534.89,1.13,-10.56,1416,1850,1463,1489,4,-3.76,20.62,12.62
1775514706.73,50.447735,30.451079,311.56,534.89,1.13,-10.56,1416,1850,1462,1489,4,-3.76,20.62,12.62
1775514706.83,50.447709,30.451061,311.60,531.74,1.13,-10.60,1416,1850,1457,1489,4,-3.76,20.64,12.61
1775514706.93,50.447709,30.451061,311.60,531.74,1.13,-10.60,1416,1850,1461,1489,4,-3.76,20.64,12.61
1775514707.03,50.447683,30.451044,311.64,528.58,1.13,-10.64,1416,1850,1456,1489,4,-3.77,20.64,12.56
1775514707.13,50.447683,30.451044,311.64,528.58,1.13,-10.64,1416,1850,1459,1489,4,-3.77,20.64,12.56
1775514707.23,50.447683,30.451044,311.64,528.58,1.13,-10.64,1416,1850,1458,1489,4,-3.77,20.64,12.56
1775514707.33,50.447657,30.451026,311.65,525.44,1.13,-10.65,1416,1850,1457,1489,4,-3.75,20.64,12.54
1775514707.44,50.447657,30.451026,311.65,525.44,1.13,-10.65,1417,1850,1457,1489,4,-3.75,20.64,12.54
1775514707.54,50.447631,30.451008,311.66,522.29,1.13,-10.66,1416,1850,1455,1489,4,-3.72,20.63,12.52
1775514707.64,50.447631,30.451008,311.66,522.29,1.13,-10.66,1417,1850,1456,1489,4,-3.72,20.63,12.52
1775514707.74,50.447631,30.451008,311.66,522.29,1.13,-10.66,1417,1850,1455,1489,4,-3.72,20.63,12.52
1775514707.84,50.447605,30.450991,311.65,519.15,1.12,-10.65,1415,1850,1456,1489,4,-3.71,20.63,12.54
1775514707.94,50.447605,30.450991,311.65,519.15,1.12,-10.65,1417,1850,1454,1489,4,-3.71,20.63,12.54
1775514708.04,50.447579,30.450973,311.60,516.03,1.12,-10.60,1417,1850,1459,1489,4,-3.71,20.63,12.52
1775514708.14,50.447579,30.450973,311.60,516.03,1.12,-10.60,1417,1850,1453,1489,4,-3.71,20.63,12.52
1775514708.24,50.447579,30.450973,311.60,516.03,1.12,-10.60,1417,1850,1452,1489,4,-3.71,20.63,12.52
1775514708.34,50.447553,30.450955,311.52,512.87,1.11,-10.52,1416,1850,1460,1489,4,-3.72,20.63,12.53
1775514708.44,50.447553,30.450955,311.52,512.87,1.11,-10.52,1417,1850,1451,1489,4,-3.72,20.63,12.53
1775514708.54,50.447527,30.450938,311.42,509.73,1.11,-10.42,1415,1850,1461,1489,4,-3.71,20.63,12.50
1775514708.64,50.447527,30.450938,311.42,509.73,1.11,-10.42,1417,1850,1451,1489,4,-3.71,20.63,12.50
1775514708.74,50.447527,30.450938,311.42,509.73,1.11,-10.42,1417,1850,1450,1489,4,-3.71,20.63,12.50
1775514708.84,50.447502,30.450920,311.33,506.61,1.11,-10.33,1417,1850,1459,1489,4,-3.73,20.62,12.49
1775514708.94,50.447502,30.450920,311.33,506.61,1.11,-10.33,1417,1850,1449,1489,4,-3.73,20.62,12.49
1775514709.04,50.447476,30.450903,311.23,503.49,1.11,-10.23,1417,1850,1459,1489,4,-3.73,20.61,12.50
1775514709.14,50.447476,30.450903,311.23,503.49,1.11,-10.23,1417,1850,1449,1489,4,-3.73,20.61,12.50
1775514709.24,50.447450,30.450885,311.07,500.36,1.11,-10.07,1418,1850,1466,1489,4,-3.70,20.60,12.52
1775514709.34,50.447450,30.450885,311.07,500.36,1.11,-10.07,1417,1850,1449,1489,4,-3.70,20.60,12.52
1775514709.44,50.447450,30.450885,311.07,500.36,1.11,-10.07,1417,1850,1448,1489,4,-3.70,20.60,12.52
1775514709.54,50.447424,30.450867,310.85,497.24,1.11,-9.85,1418,1850,1470,1489,4,-3.69,20.60,12.46
1775514709.64,50.447424,30.450867,310.85,497.24,1.11,-9.85,1418,1850,1448,1489,4,-3.69,20.60,12.46
1775514709.74,50.447399,30.450850,310.67,494.13,1.11,-9.67,1417,1850,1466,1489,4,-3.68,20.62,12.42
1775514709.84,50.447399,30.450850,310.67,494.13,1.11,-9.67,1418,1850,1448,1489,4,-3.68,20.62,12.42
1775514709.95,50.447399,30.450850,310.67,494.13,1.11,-9.67,1418,1850,1447,1489,4,-3.68,20.62,12.42
1775514710.05,50.447373,30.450832,310.48,491.04,1.11,-9.48,1419,1850,1467,1489,4,-3.66,20.63,12.38
1775514710.15,50.447373,30.450832,310.48,491.04,1.11,-9.48,1418,1850,1447,1489,4,-3.66,20.63,12.38
1775514710.25,50.447348,30.450815,310.33,487.95,1.11,-9.33,1418,1850,1462,1489,4,-3.62,20.64,12.37
1775514710.35,50.447348,30.450815,310.33,487.95,1.11,-9.33,1418,1850,1447,1489,4,-3.62,20.64,12.37
1775514710.45,50.447348,30.450815,310.33,487.95,1.11,-9.33,1418,1850,1447,1489,4,-3.62,20.64,12.37
1775514710.55,50.447322,30.450797,310.18,484.86,1.12,-9.18,1419,1850,1463,1489,4,-3.59,20.62,12.34
1775514710.65,50.447322,30.450797,310.18,484.86,1.12,-9.18,1419,1850,1447,1489,4,-3.59,20.62,12.34
1775514710.75,50.447297,30.450780,310.04,481.79,1.11,-9.04,1419,1850,1460,1489,4,-3.59,20.61,12.30
1775514710.85,50.447297,30.450780,310.04,481.79,1.11,-9.04,1419,1850,1446,1489,4,-3.59,20.61,12.30
1775514710.95,50.447297,30.450780,310.04,481.79,1.11,-9.04,1419,1850,1446,1489,4,-3.59,20.61,12.30
1775514711.05,50.447272,30.450763,309.94,478.73,1.12,-8.94,1420,1850,1456,1489,4,-3.56,20.62,12.31
1775514711.15,50.447272,30.450763,309.94,478.73,1.12,-8.94,1419,1850,1445,1489,4,-3.56,20.62,12.31
1775514711.25,50.447272,30.450763,309.94,478.73,1.12,-8.94,1419,1850,1445,1489,4,-3.56,20.62,12.31
1775514711.35,50.447247,30.450745,309.80,475.66,1.12,-8.80,1419,1850,1459,1489,4,-3.55,20.62,12.33
1775514711.45,50.447247,30.450745,309.80,475.66,1.12,-8.80,1420,1850,1444,1489,4,-3.55,20.62,12.33
1775514711.55,50.447222,30.450728,309.62,472.60,1.12,-8.62,1420,1850,1463,1489,4,-3.54,20.62,12.33
1775514711.65,50.447222,30.450728,309.62,472.60,1.12,-8.62,1420,1850,1445,1489,4,-3.54,20.62,12.33
1775514711.75,50.447222,30.450728,309.62,472.60,1.12,-8.62,1420,1850,1444,1489,4,-3.54,20.62,12.33
1775514711.85,50.447196,30.450711,309.42,469.52,1.12,-8.42,1419,1850,1464,1489,4,-3.55,20.62,12.35
1775514711.95,50.447196,30.450711,309.42,469.52,1.12,-8.42,1420,1850,1444,1489,4,-3.55,20.62,12.35
1775514712.05,50.447171,30.450694,309.23,466.47,1.12,-8.23,1420,1850,1464,1489,4,-3.54,20.62,12.29
1775514712.15,50.447171,30.450694,309.23,466.47,1.12,-8.23,1420,1850,1444,1489,4,-3.54,20.62,12.29
1775514712.25,50.447146,30.450676,309.07,463.40,1.12,-8.07,1421,1850,1461,1489,4,-3.51,20.62,12.27
1775514712.35,50.447146,30.450676,309.07,463.40,1.12,-8.07,1420,1850,1444,1489,4,-3.51,20.62,12.27
1775514712.45,50.447146,30.450676,309.07,463.40,1.12,-8.07,1420,1850,1444,1489,4,-3.51,20.62,12.27
1775514712.55,50.447120,30.450659,308.95,460.32,1.13,-7.95,1423,1850,1457,1489,4,-3.49,20.60,12.28
1775514712.65,50.447120,30.450659,308.95,460.32,1.13,-7.95,1421,1850,1444,1489,4,-3.49,20.60,12.28
1775514712.75,50.447095,30.450641,308.80,457.25,1.13,-7.80,1421,1850,1459,1489,4,-3.47,20.59,12.30
1775514712.86,50.447095,30.450641,308.80,457.25,1.13,-7.80,1421,1850,1444,1489,4,-3.47,20.59,12.30
1775514712.96,50.447095,30.450641,308.80,457.25,1.13,-7.80,1421,1850,1443,1489,4,-3.47,20.59,12.30
1775514713.06,50.447070,30.450624,308.63,454.17,1.14,-7.63,1422,1850,1461,1489,4,-3.42,20.62,12.32
1775514713.16,50.447070,30.450624,308.63,454.17,1.14,-7.63,1422,1850,1443,1489,4,-3.42,20.62,12.32
1775514713.26,50.447045,30.450607,308.40,451.10,1.14,-7.40,1421,1850,1466,1489,4,-3.42,20.63,12.31
1775514713.36,50.447045,30.450607,308.40,451.10,1.14,-7.40,1422,1850,1444,1489,4,-3.42,20.63,12.31
1775514713.46,50.447045,30.450607,308.40,451.10,1.14,-7.40,1422,1850,1443,1489,4,-3.42,20.63,12.31
1775514713.56,50.447019,30.450589,308.17,448.02,1.12,-7.17,1420,1850,1468,1489,4,-3.42,20.64,12.30
1775514713.66,50.447019,30.450589,308.17,448.02,1.12,-7.17,1422,1850,1444,1489,4,-3.42,20.64,12.30
1775514713.76,50.446994,30.450572,307.88,444.95,1.12,-6.88,1420,1850,1474,1489,4,-3.43,20.64,12.33
1775514713.86,50.446994,30.450572,307.88,444.95,1.12,-6.88,1421,1850,1445,1489,4,-3.43,20.64,12.33
1775514713.96,50.446994,30.450572,307.88,444.95,1.12,-6.88,1421,1850,1444,1489,4,-3.43,20.64,12.33
1775514714.06,50.446968,30.450555,307.56,441.86,1.10,-6.56,1419,1850,1477,1489,4,-3.46,20.65,12.33
1775514714.16,50.446968,30.450555,307.56,441.86,1.10,-6.56,1421,1850,1445,1489,4,-3.46,20.65,12.33
1775514714.26,50.446943,30.450538,307.23,438.80,1.08,-6.23,1419,1850,1480,1489,4,-3.49,20.63,12.31
1775514714.36,50.446943,30.450538,307.23,438.80,1.08,-6.23,1421,1850,1447,1489,4,-3.49,20.63,12.31
1775514714.46,50.446943,30.450538,307.23,438.80,1.08,-6.23,1421,1850,1446,1489,4,-3.49,20.63,12.31
1775514714.56,50.446918,30.450521,306.93,435.71,1.07,-5.93,1418,1850,1478,1489,4,-3.51,20.61,12.29
1775514714.66,50.446918,30.450521,306.93,435.71,1.07,-5.93,1420,1850,1447,1489,4,-3.51,20.61,12.29
1775514714.76,50.446892,30.450504,306.65,432.64,1.06,-5.65,1419,1850,1477,1489,4,-3.53,20.61,12.24
1775514714.86,50.446892,30.450504,306.65,432.64,1.06,-5.65,1420,1850,1448,1489,4,-3.53,20.61,12.24
1775514714.96,50.446892,30.450504,306.65,432.64,1.06,-5.65,1420,1850,1448,1489,4,-3.53,20.61,12.24
1775514715.06,50.446867,30.450487,306.42,429.59,1.05,-5.42,1418,1850,1472,1489,4,-3.54,20.61,12.20
1775514715.16,50.446867,30.450487,306.42,429.59,1.05,-5.42,1420,1850,1449,1489,4,-3.54,20.61,12.20
1775514715.27,50.446842,30.450470,306.19,426.54,1.02,-5.19,1416,1850,1473,1489,4,-3.55,20.60,12.22
1775514715.37,50.446842,30.450470,306.19,426.54,1.02,-5.19,1420,1850,1449,1489,4,-3.55,20.60,12.22
1775514715.47,50.446842,30.450470,306.19,426.54,1.02,-5.19,1420,1850,1449,1489,4,-3.55,20.60,12.22
1775514715.57,50.446817,30.450453,305.96,423.50,1.01,-4.96,1418,1850,1473,1489,4,-3.62,20.62,12.23
1775514715.67,50.446817,30.450453,305.96,423.50,1.01,-4.96,1419,1850,1450,1489,4,-3.62,20.62,12.23
1775514715.77,50.446792,30.450436,305.76,420.45,1.00,-4.76,1417,1850,1471,1489,4,-3.60,20.64,12.21
1775514715.87,50.446792,30.450436,305.76,420.45,1.00,-4.76,1419,1850,1451,1489,4,-3.60,20.64,12.21
1775514715.97,50.446792,30.450436,305.76,420.45,1.00,-4.76,1419,1850,1450,1489,4,-3.60,20.64,12.21
1775514716.07,50.446767,30.450419,305.58,417.39,0.99,-4.58,1417,1850,1470,1489,4,-3.60,20.64,12.26
1775514716.17,50.446767,30.450419,305.58,417.39,0.99,-4.58,1419,1850,1451,1489,4,-3.60,20.64,12.26
1775514716.27,50.446741,30.450402,305.38,414.34,0.97,-4.38,1416,1850,1472,1489,4,-3.61,20.64,12.27
1775514716.37,50.446741,30.450402,305.38,414.34,0.97,-4.38,1419,1850,1451,1489,4,-3.61,20.64,12.27
1775514716.47,50.446741,30.450402,305.38,414.34,0.97,-4.38,1419,1850,1451,1489,4,-3.61,20.64,12.27
1775514716.57,50.446716,30.450384,305.15,411.25,0.94,-4.15,1415,1850,1475,1489,4,-3.63,20.64,12.31
1775514716.67,50.446716,30.450384,305.15,411.25,0.94,-4.15,1418,1850,1452,1489,4,-3.63,20.64,12.31
1775514716.77,50.446690,30.450367,304.88,408.15,0.93,-3.88,1415,1850,1480,1489,4,-3.64,20.64,12.32
1775514716.87,50.446690,30.450367,304.88,408.15,0.93,-3.88,1418,1850,1453,1489,4,-3.64,20.64,12.32
1775514716.97,50.446690,30.450367,304.88,408.15,0.93,-3.88,1418,1850,1453,1489,4,-3.64,20.64,12.32
1775514717.07,50.446665,30.450350,304.65,405.06,0.91,-3.65,1415,1850,1477,1489,4,-3.69,20.64,12.33
1775514717.17,50.446665,30.450350,304.65,405.06,0.91,-3.65,1417,1850,1454,1489,4,-3.69,20.64,12.33
1775514717.27,50.446639,30.450333,304.42,401.98,0.90,-3.42,1415,1850,1478,1489,4,-3.72,20.65,12.30
1775514717.37,50.446639,30.450333,304.42,401.98,0.90,-3.42,1417,1850,1455,1489,4,-3.72,20.65,12.30
1775514717.47,50.446639,30.450333,304.42,401.98,0.90,-3.42,1417,1850,1455,1489,4,-3.72,20.65,12.30
1775514717.57,50.446614,30.450316,304.23,398.89,0.88,-3.23,1414,1850,1475,1489,4,-3.74,20.63,12.32
1775514717.68,50.446614,30.450316,304.23,398.89,0.88,-3.23,1417,1850,1455,1489,4,-3.74,20.63,12.32
1775514717.78,50.446588,30.450298,304.03,395.81,0.86,-3.03,1413,1850,1476,1489,4,-3.73,20.61,12.35
1775514717.88,50.446588,30.450298,304.03,395.81,0.86,-3.03,1416,1850,1456,1489,4,-3.73,20.61,12.35
1775514717.98,50.446588,30.450298,304.03,395.81,0.86,-3.03,1416,1850,1456,1489,4,-3.73,20.61,12.35
1775514718.08,50.446563,30.450281,303.80,392.71,0.85,-2.80,1414,1850,1479,1489,4,-3.80,20.61,12.41
1775514718.18,50.446563,30.450281,303.80,392.71,0.85,-2.80,1416,1850,1457,1489,4,-3.80,20.61,12.41
1775514718.28,50.446537,30.450264,303.56,389.61,0.83,-2.56,1412,1850,1483,1489,4,-3.82,20.62,12.42
1775514718.38,50.446537,30.450264,303.56,389.61,0.83,-2.56,1415,1850,1458,1489,4,-3.82,20.62,12.42
1775514718.48,50.446537,30.450264,303.56,389.61,0.83,-2.56,1415,1850,1458,1489,4,-3.82,20.62,12.42
1775514718.58,50.446511,30.450247,303.31,386.50,0.81,-2.31,1412,1850,1485,1489,4,-3.85,20.62,12.45
1775514718.68,50.446511,30.450247,303.31,386.50,0.81,-2.31,1415,1850,1459,1489,4,-3.85,20.62,12.45
1775514718.78,50.446486,30.450229,303.05,383.37,0.79,-2.05,1411,1850,1486,1489,4,-3.89,20.62,12.48
1775514718.88,50.446486,30.450229,303.05,383.37,0.79,-2.05,1414,1850,1461,1489,4,-3.89,20.62,12.48
1775514718.98,50.446486,30.450229,303.05,383.37,0.79,-2.05,1414,1850,1460,1489,4,-3.89,20.62,12.48
1775514719.08,50.446460,30.450212,302.83,380.24,0.77,-1.83,1411,1850,1483,1489,4,-3.93,20.62,12.48
1775514719.18,50.446460,30.450212,302.83,380.24,0.77,-1.83,1414,1850,1462,1489,4,-3.93,20.62,12.48
1775514719.28,50.446434,30.450194,302.68,377.11,0.76,-1.68,1412,1850,1478,1489,4,-3.93,20.63,12.50
1775514719.38,50.446434,30.450194,302.68,377.11,0.76,-1.68,1414,1850,1462,1489,4,-3.93,20.63,12.50
1775514719.48,50.446434,30.450194,302.68,377.11,0.76,-1.68,1414,1850,1462,1489,4,-3.93,20.63,12.50
1775514719.58,50.446408,30.450177,302.50,373.98,0.75,-1.50,1412,1850,1481,1489,4,-3.95,20.61,12.52
1775514719.68,50.446408,30.450177,302.50,373.98,0.75,-1.50,1413,1850,1463,1489,4,-3.95,20.61,12.52
1775514719.78,50.446382,30.450159,302.33,370.85,0.74,-1.33,1413,1850,1481,1489,4,-3.94,20.59,12.53
1775514719.88,50.446382,30.450159,302.33,370.85,0.74,-1.33,1413,1850,1464,1489,4,-3.94,20.59,12.53
1775514719.98,50.446382,30.450159,302.33,370.85,0.74,-1.33,1413,1850,1464,1489,4,-3.94,20.59,12.53
1775514720.08,50.446357,30.450142,302.21,367.74,0.75,-1.21,1414,1850,1476,1489,4,-3.94,20.60,12.53
1775514720.18,50.446357,30.450142,302.21,367.74,0.75,-1.21,1414,1850,1464,1489,4,-3.94,20.60,12.53
1775514720.28,50.446331,30.450124,302.10,364.62,0.75,-1.10,1414,1850,1477,1489,4,-3.92,20.61,12.55
1775514720.38,50.446331,30.450124,302.10,364.62,0.75,-1.10,1414,1850,1465,1489,4,-3.92,20.61,12.55
