Timestamp,Lat,Lon,Alt,DistToTarget,XTE,AltError,RollPWM,PitchPWM,ThrottlePWM,YawPWM,Heading,RollDeg,PitchDeg,GroundSpeed
1775506379.83,50.450739,30.453154,0.00,900.25,0.00,15.00,1500,1500,1800,1500,1,0.10,0.08,0.01
1775506379.93,50.450739,30.453154,0.00,900.25,0.00,15.00,1500,1500,1560,1500,1,0.10,0.08,0.01
1775506380.03,50.450739,30.453154,0.00,900.25,0.00,15.00,1500,1500,1560,1500,1,0.10,0.08,0.01
1775506380.13,50.450739,30.453154,0.00,900.25,0.00,15.00,1500,1500,1560,1500,1,0.10,0.08,0.01
1775506380.23,50.450739,30.453154,0.00,900.25,0.00,15.00,1500,1500,1560,1500,1,0.10,0.08,0.01
1775506380.33,50.450739,30.453154,0.00,900.25,0.00,15.00,1500,1500,1560,1500,1,0.10,0.09,0.01
1775506380.43,50.450739,30.453154,0.00,900.25,0.00,15.00,1500,1500,1560,1500,1,0.10,0.09,0.01
1775506380.53,50.450739,30.453154,0.00,900.25,0.00,15.00,1500,1500,1561,1500,1,0.10,0.09,0.01
1775506380.63,50.450739,30.453154,0.00,900.25,0.00,15.00,1500,1500,1561,1500,1,0.10,0.09,0.01
1775506380.73,50.450739,30.453154,0.00,900.25,0.00,15.00,1500,1500,1561,1500,1,0.10,0.09,0.01
1775506380.83,50.450739,30.453154,0.00,900.25,0.00,15.00,1500,1500,1561,1500,1,0.11,0.09,0.01
1775506380.93,50.450739,30.453154,0.00,900.25,0.00,15.00,1500,1500,1561,1500,1,0.11,0.09,0.01
1775506381.03,50.450739,30.453154,0.00,900.25,0.00,15.00,1500,1500,1561,1500,1,0.11,0.09,0.01
1775506381.14,50.450739,30.453154,0.00,900.25,0.00,15.00,1500,1500,1561,1500,1,0.11,0.10,0.01
1775506381.24,50.450739,30.453154,0.00,900.25,0.00,15.00,1500,1500,1562,1500,1,0.11,0.10,0.01
1775506381.34,50.450739,30.453154,0.00,900.25,0.00,15.00,1500,1500,1562,1500,1,0.11,0.10,0.01
1775506381.44,50.450739,30.453154,0.00,900.25,0.00,15.00,1500,1500,1562,1500,1,0.11,0.10,0.01
1775506381.54,50.450739,30.453154,0.00,900.25,0.00,15.00,1500,1500,1562,1500,1,0.11,0.10,0.01
1775506381.64,50.450739,30.453154,0.00,900.25,0.00,15.00,1500,1500,1562,1500,1,0.12,0.10,0.01
1775506381.74,50.450739,30.453154,0.00,900.25,0.00,15.00,1500,1500,1562,1500,1,0.12,0.10,0.01
1775506381.84,50.450739,30.453154,0.04,900.25,0.00,14.96,1500,1500,1560,1500,1,0.12,0.11,0.01
1775506381.94,50.450739,30.453154,0.04,900.25,0.00,14.96,1500,1500,1563,1500,1,0.12,0.11,0.01
1775506382.04,50.450739,30.453154,0.04,900.25,0.00,14.96,1500,1500,1563,1500,1,0.12,0.11,0.01
1775506382.14,50.450739,30.453154,0.10,900.25,0.00,14.90,1500,1500,1560,1500,1,0.12,0.11,0.01
1775506382.24,50.450739,30.453154,0.10,900.25,0.00,14.90,1500,1500,1563,1500,1,0.12,0.11,0.01
1775506382.34,50.450739,30.453154,0.18,900.25,0.00,14.81,1500,1500,1558,1500,1,0.04,0.04,0.01
1775506382.44,50.450739,30.453154,0.18,900.25,0.00,14.81,1500,1500,1563,1500,1,0.04,0.04,0.01
1775506382.54,50.450739,30.453154,0.18,900.25,0.00,14.81,1500,1500,1563,1500,1,0.04,0.04,0.01
1775506382.64,50.450739,30.453154,0.59,900.25,0.00,14.40,1500,1500,1541,1500,1,-0.04,-0.03,0.02
1775506382.74,50.450739,30.453154,0.59,900.25,0.00,14.40,1500,1500,1562,1500,1,-0.04,-0.03,0.02
1775506382.84,50.450739,30.453154,1.12,900.25,0.00,13.88,1500,1500,1534,1500,1,-0.08,-0.05,0.02
1775506382.94,50.450739,30.453154,1.12,900.25,0.00,13.88,1500,1500,1561,1500,1,-0.08,-0.05,0.02
1775506383.04,50.450739,30.453154,1.69,900.25,0.00,13.31,1500,1500,1531,1500,1,-0.09,-0.06,0.06
1775506383.14,50.450739,30.453154,1.69,900.25,0.00,13.31,1500,1500,1559,1500,1,-0.09,-0.06,0.06
1775506383.24,50.450739,30.453154,1.69,900.25,0.00,13.31,1500,1500,1559,1500,1,-0.09,-0.06,0.06
1775506383.34,50.450739,30.453153,2.37,900.25,0.00,12.63,1500,1500,1524,1500,1,-0.07,-0.06,0.12
1775506383.44,50.450739,30.453153,2.37,900.25,0.00,12.63,1500,1500,1558,1500,1,-0.07,-0.06,0.12
1775506383.54,50.450739,30.453153,3.04,900.25,0.00,11.96,1500,1500,1522,1507,0,-0.07,-0.05,0.18
1775506383.64,50.450739,30.453153,3.04,900.25,0.00,11.96,1500,1500,1556,1503,0,-0.07,-0.05,0.18
1775506383.75,50.450739,30.453153,3.04,900.25,0.00,11.96,1500,1500,1556,1503,0,-0.07,-0.05,0.18
1775506383.85,50.450738,30.453153,3.73,900.25,0.00,11.27,1500,1500,1520,1503,0,-0.06,-0.02,0.24
1775506383.95,50.450738,30.453153,3.73,900.25,0.00,11.27,1500,1500,1554,1503,0,-0.06,-0.02,0.24
1775506384.05,50.450738,30.453152,4.41,900.25,0.00,10.59,1500,1500,1518,1503,0,-0.03,-0.01,0.30
1775506384.15,50.450738,30.453152,4.41,900.25,0.00,10.59,1500,1500,1552,1503,0,-0.03,-0.01,0.30
1775506384.25,50.450738,30.453152,4.41,900.25,0.00,10.59,1500,1500,1552,1503,0,-0.03,-0.01,0.30
1775506384.35,50.450737,30.453151,5.06,900.25,0.00,9.94,1500,1500,1519,1503,0,-0.00,0.00,0.37
1775506384.45,50.450737,30.453151,5.06,900.25,0.00,9.94,1500,1500,1551,1503,0,-0.00,0.00,0.37
1775506384.55,50.450737,30.453150,5.73,900.25,0.00,9.27,1500,1500,1515,1503,0,0.01,0.00,0.48
1775506384.65,50.450737,30.453150,5.73,900.25,0.00,9.27,1500,1500,1549,1503,0,0.01,0.00,0.48
1775506384.75,50.450737,30.453150,5.73,900.25,0.00,9.27,1500,1500,1549,1503,0,0.01,0.00,0.48
1775506384.85,50.450736,30.453149,6.46,900.25,0.00,8.54,1500,1500,1511,1503,0,0.01,-0.03,0.56
1775506384.95,50.450736,30.453149,6.46,900.25,0.00,8.54,1500,1500,1547,1503,0,0.01,-0.03,0.56
1775506385.05,50.450736,30.453149,6.46,900.25,0.00,8.54,1500,1500,1547,1503,0,0.01,-0.03,0.56
1775506385.15,50.450735,30.453148,7.19,900.25,0.00,7.81,1500,1500,1509,1503,0,-0.00,-0.03,0.64
1775506385.25,50.450735,30.453148,7.19,900.25,0.00,7.81,1500,1500,1545,1503,0,-0.00,-0.03,0.64
1775506385.35,50.450734,30.453146,7.94,900.25,0.00,7.06,1500,1500,1505,1503,0,-0.00,-0.01,0.70
1775506385.45,50.450734,30.453146,7.94,900.25,0.00,7.06,1500,1500,1543,1503,0,-0.00,-0.01,0.70
1775506385.55,50.450732,30.453145,8.70,900.25,0.00,6.30,1500,1500,1503,1503,0,0.01,-0.01,0.78
1775506385.65,50.450732,30.453145,8.70,900.25,0.00,6.30,1500,1500,1541,1503,0,0.01,-0.01,0.78
1775506385.75,50.450732,30.453145,8.70,900.25,0.00,6.30,1500,1500,1541,1503,0,0.01,-0.01,0.78
1775506385.85,50.450731,30.453143,9.49,900.25,0.00,5.51,1500,1500,1499,1503,0,0.03,0.01,0.86
1775506385.95,50.450731,30.453143,9.49,900.25,0.00,5.51,1500,1500,1539,1503,0,0.03,0.01,0.86
1775506386.05,50.450729,30.453141,10.27,900.25,0.00,4.73,1500,1500,1497,1503,0,0.02,0.02,0.95
1775506386.15,50.450729,30.453141,10.27,900.25,0.00,4.73,1500,1500,1536,1503,0,0.02,0.02,0.95
1775506386.25,50.450729,30.453141,10.27,900.25,0.00,4.73,1500,1500,1536,1503,0,0.02,0.02,0.95
1775506386.35,50.450727,30.453139,11.00,900.25,0.00,4.00,1500,1500,1498,1503,0,0.00,0.03,1.02
1775506386.46,50.450727,30.453139,11.00,900.25,0.00,4.00,1500,1500,1534,1503,0,0.00,0.03,1.02
1775506386.56,50.450725,30.453137,11.73,900.25,0.00,3.27,1500,1500,1496,1503,0,0.01,0.02,1.10
1775506386.66,50.450725,30.453137,11.73,900.25,0.00,3.27,1500,1500,1532,1503,0,0.01,0.02,1.10
1775506386.76,50.450725,30.453137,11.73,900.25,0.00,3.27,1500,1500,1532,1503,0,0.01,0.02,1.10
1775506386.86,50.450723,30.453134,12.46,900.25,0.00,2.54,1500,1500,1493,1503,0,0.01,-0.00,1.17
1775506386.96,50.450723,30.453134,12.46,900.25,0.00,2.54,1500,1500,1530,1503,0,0.01,-0.00,1.17
1775506387.06,50.450721,30.453132,13.18,900.25,0.00,1.82,1500,1500,1492,1503,0,0.01,-0.01,1.25
1775506387.16,50.450721,30.453132,13.18,900.25,0.00,1.82,1500,1500,1528,1503,0,0.01,-0.01,1.25
1775506387.26,50.450721,30.453132,13.18,900.25,0.00,1.82,1500,1500,1528,1503,0,0.01,-0.01,1.25
1775506387.36,50.450719,30.453129,13.89,900.25,0.00,1.11,1500,1500,1491,1503,0,0.02,-0.02,1.33
1775506387.46,50.450719,30.453129,13.89,900.25,0.00,1.11,1500,1500,1526,1503,0,0.02,-0.02,1.33
1775506387.56,50.450716,30.453126,14.58,897.15,0.79,2.42,1551,1631,1800,1900,0,0.01,-0.02,1.40
1775506387.66,50.450716,30.453126,14.58,897.15,0.79,4.42,1470,1596,1612,1503,0,0.01,-0.02,1.40
1775506387.76,50.450716,30.453126,14.58,897.15,0.79,6.42,1470,1596,1619,1503,0,0.01,-0.02,1.40
1775506387.86,50.450714,30.453123,15.42,896.79,0.86,7.58,1477,1598,1580,1495,1,0.29,2.18,1.52
1775506387.96,50.450714,30.453123,15.42,896.79,0.86,9.58,1473,1597,1628,1500,1,0.29,2.18,1.52
1775506388.06,50.450710,30.453120,16.40,896.39,0.92,10.60,1480,1599,1582,1484,3,-0.07,4.07,1.76
1775506388.16,50.450710,30.453120,16.40,896.39,0.92,12.60,1477,1598,1637,1493,3,-0.07,4.07,1.76
1775506388.26,50.450710,30.453120,16.40,896.39,0.92,14.60,1477,1598,1644,1493,3,-0.07,4.07,1.76
1775506388.36,50.450707,30.453117,17.46,895.91,0.97,15.54,1482,1599,1594,1486,4,-0.17,4.71,2.05
1775506388.46,50.450707,30.453117,17.46,895.91,0.97,17.54,1480,1599,1653,1490,4,-0.17,4.71,2.05
1775506388.56,50.450702,30.453114,18.57,895.38,1.01,18.43,1480,1599,1600,1498,3,-0.13,4.88,2.32
1775506388.66,50.450702,30.453114,18.57,895.38,1.01,20.43,1479,1598,1662,1493,3,-0.13,4.88,2.32
1775506388.76,50.450702,30.453114,18.57,895.38,1.01,22.43,1479,1598,1667,1493,3,-0.13,4.88,2.32
1775506388.86,50.450697,30.453110,19.74,894.76,1.03,23.26,1480,1599,1612,1493,3,-0.06,4.94,2.60
1775506388.96,50.450697,30.453110,19.74,894.76,1.03,25.26,1479,1599,1676,1493,3,-0.06,4.94,2.60
1775506389.06,50.450692,30.453106,20.99,894.09,1.03,26.01,1479,1599,1616,1493,3,-0.03,4.94,2.88
1775506389.16,50.450692,30.453106,20.99,894.09,1.03,28.01,1479,1599,1684,1493,3,-0.03,4.94,2.88
1775506389.27,50.450692,30.453106,20.99,894.09,1.03,30.01,1479,1599,1690,1493,3,-0.03,4.94,2.88
1775506389.37,50.450686,30.453102,22.34,893.33,1.02,30.66,1478,1598,1625,1493,3,-0.02,4.94,3.14
1775506389.47,50.450686,30.453102,22.34,893.33,1.02,32.66,1479,1599,1698,1493,3,-0.02,4.94,3.14
1775506389.57,50.450679,30.453097,23.75,892.53,1.00,33.25,1478,1598,1629,1493,3,-0.06,4.94,3.37
1775506389.67,50.450679,30.453097,23.75,892.53,1.00,35.25,1479,1598,1705,1493,3,-0.06,4.94,3.37
1775506389.77,50.450679,30.453097,23.75,892.53,1.00,37.25,1479,1598,1711,1493,3,-0.06,4.94,3.37
1775506389.87,50.450672,30.453093,25.30,891.66,0.96,37.70,1476,1598,1636,1493,3,-0.11,4.92,3.62
1775506389.97,50.450672,30.453093,25.30,891.66,0.96,39.70,1478,1598,1719,1493,3,-0.11,4.92,3.62
1775506390.07,50.450664,30.453088,26.95,890.73,0.91,40.05,1475,1597,1638,1493,3,-0.15,4.89,3.82
1775506390.17,50.450664,30.453088,26.95,890.73,0.91,42.05,1477,1598,1726,1493,3,-0.15,4.89,3.82
1775506390.27,50.450664,30.453088,26.95,890.73,0.91,44.05,1477,1598,1732,1493,3,-0.15,4.89,3.82
1775506390.37,50.450656,30.453084,28.62,889.76,0.86,44.38,1474,1597,1649,1493,3,-0.22,4.86,4.05
1775506390.47,50.450656,30.453084,28.62,889.76,0.86,46.38,1477,1598,1739,1493,3,-0.22,4.86,4.05
1775506390.57,50.450647,30.453079,30.43,888.72,0.79,46.57,1473,1596,1649,1493,3,-0.25,4.85,4.25
1775506390.67,50.450647,30.453079,30.43,888.72,0.79,48.57,1476,1597,1745,1493,3,-0.25,4.85,4.25
1775506390.77,50.450647,30.453079,30.43,888.72,0.79,50.57,1476,1597,1751,1493,3,-0.25,4.85,4.25
1775506390.87,50.450638,30.453073,32.34,887.64,0.73,50.66,1472,1596,1657,1493,3,-0.31,4.82,4.46
1775506390.97,50.450638,30.453073,32.34,887.64,0.73,52.66,1475,1597,1757,1493,3,-0.31,4.82,4.46
1775506391.07,50.450628,30.453068,34.37,886.49,0.66,52.63,1470,1595,1656,1493,3,-0.32,4.79,4.64
1775506391.17,50.450628,30.453068,34.37,886.49,0.66,54.63,1474,1597,1764,1493,3,-0.32,4.79,4.64
1775506391.27,50.450628,30.453068,34.37,886.49,0.66,56.63,1474,1597,1769,1493,3,-0.32,4.79,4.64
1775506391.37,50.450618,30.453062,36.38,885.32,0.59,56.62,1470,1595,1669,1493,3,-0.42,4.77,4.80
1775506391.48,50.450618,30.453062,36.38,885.32,0.59,58.62,1473,1596,1775,1493,3,-0.42,4.77,4.80
1775506391.58,50.450608,30.453056,38.45,884.10,0.52,58.55,1469,1595,1672,1493,3,-0.47,4.76,4.97
1775506391.68,50.450608,30.453056,38.45,884.10,0.52,60.55,1472,1596,1781,1493,3,-0.47,4.76,4.97
1775506391.78,50.450608,30.453056,38.45,884.10,0.52,62.55,1472,1596,1787,1493,3,-0.47,4.76,4.97
1775506391.88,50.450597,30.453050,40.57,882.84,0.46,62.43,1468,1595,1681,1493,3,-0.56,4.71,5.15
1775506391.98,50.450597,30.453050,40.57,882.84,0.46,64.43,1471,1596,1793,1493,3,-0.56,4.71,5.15
1775506392.08,50.450586,30.453043,42.81,881.53,0.40,64.19,1468,1594,1680,1493,3,-0.57,4.71,5.30
1775506392.18,50.450586,30.453043,42.81,881.53,0.40,66.19,1470,1595,1798,1493,3,-0.57,4.71,5.30
1775506392.28,50.450586,30.453043,42.81,881.53,0.40,68.19,1470,1595,1800,1493,3,-0.57,4.71,5.30
1775506392.38,50.450575,30.453036,44.95,880.18,0.34,68.05,1467,1594,1697,1493,3,-0.65,4.71,5.43
1775506392.48,50.450575,30.453036,44.95,880.18,0.34,70.05,1469,1595,1800,1493,3,-0.65,4.71,5.43
1775506392.58,50.450564,30.453029,47.14,878.81,0.28,69.86,1466,1594,1700,1493,3,-0.70,4.71,5.59
1775506392.68,50.450564,30.453029,47.14,878.81,0.28,71.86,1469,1595,1800,1493,3,-0.70,4.71,5.59
1775506392.78,50.450564,30.453029,47.14,878.81,0.28,73.86,1469,1595,1800,1493,3,-0.70,4.71,5.59
1775506392.88,50.450552,30.453022,49.39,877.40,0.23,73.61,1466,1594,1708,1493,3,-0.75,4.68,5.73
1775506392.98,50.450552,30.453022,49.39,877.40,0.23,75.61,1468,1594,1800,1493,3,-0.75,4.68,5.73
1775506393.08,50.450539,30.453015,51.67,875.94,0.18,75.33,1465,1593,1712,1493,3,-0.78,4.66,5.88
1775506393.18,50.450539,30.453015,51.67,875.94,0.18,77.33,1467,1594,1800,1493,3,-0.78,4.66,5.88
1775506393.28,50.450539,30.453015,51.67,875.94,0.18,79.33,1467,1594,1800,1493,3,-0.78,4.66,5.88
1775506393.38,50.450527,30.453007,53.96,874.47,0.14,79.04,1465,1593,1722,1493,3,-0.81,4.63,6.01
1775506393.48,50.450527,30.453007,53.96,874.47,0.14,81.04,1467,1594,1800,1493,3,-0.81,4.63,6.01
1775506393.58,50.450515,30.452999,56.22,872.95,0.11,80.78,1465,1593,1729,1493,3,-0.88,4.58,6.12
1775506393.68,50.450515,30.452999,56.22,872.95,0.11,82.78,1466,1594,1800,1493,3,-0.88,4.58,6.12
1775506393.78,50.450515,30.452999,56.22,872.95,0.11,84.78,1466,1594,1800,1493,3,-0.88,4.58,6.12
1775506393.88,50.450502,30.452990,58.59,871.40,0.09,84.41,1465,1593,1735,1493,3,-0.90,4.57,6.29
1775506393.98,50.450502,30.452990,58.59,871.40,0.09,86.41,1466,1594,1800,1493,3,-0.90,4.57,6.29
1775506394.08,50.450489,30.452981,60.99,869.82,0.07,86.01,1465,1593,1737,1493,3,-0.90,4.57,6.43
1775506394.18,50.450489,30.452981,60.99,869.82,0.07,88.01,1466,1594,1800,1493,3,-0.90,4.57,6.43
1775506394.29,50.450475,30.452972,63.48,868.20,0.07,87.52,1465,1594,1738,1493,3,-0.89,4.58,6.56
1775506394.39,50.450475,30.452972,63.48,868.20,0.07,89.52,1466,1594,1800,1493,3,-0.89,4.58,6.56
1775506394.49,50.450475,30.452972,63.48,868.20,0.07,91.52,1466,1594,1800,1493,3,-0.89,4.58,6.56
1775506394.59,50.450462,30.452963,65.92,866.54,0.07,91.08,1466,1594,1751,1493,3,-0.89,4.59,6.67
1775506394.69,50.450462,30.452963,65.92,866.54,0.07,93.08,1466,1594,1800,1493,3,-0.89,4.59,6.67
1775506394.79,50.450448,30.452953,68.38,864.86,0.08,92.62,1466,1594,1754,1493,3,-0.89,4.62,6.77
1775506394.89,50.450448,30.452953,68.38,864.86,0.08,94.62,1466,1594,1800,1493,3,-0.89,4.62,6.77
1775506394.99,50.450448,30.452953,68.38,864.86,0.08,96.62,1466,1594,1800,1493,3,-0.89,4.62,6.77
1775506395.09,50.450434,30.452944,70.87,863.15,0.08,96.13,1466,1594,1763,1493,3,-0.89,4.63,6.85
1775506395.19,50.450434,30.452944,70.87,863.15,0.08,98.13,1466,1594,1800,1493,3,-0.89,4.63,6.85
1775506395.29,50.450420,30.452934,73.32,861.43,0.10,97.68,1467,1594,1770,1493,3,-0.90,4.64,6.93
1775506395.39,50.450420,30.452934,73.32,861.43,0.10,99.68,1466,1594,1800,1493,3,-0.90,4.64,6.93
1775506395.49,50.450420,30.452934,73.32,861.43,0.10,101.68,1466,1594,1800,1493,3,-0.90,4.64,6.93
1775506395.59,50.450405,30.452924,75.75,859.67,0.12,101.25,1467,1594,1782,1493,3,-0.85,4.63,7.01
1775506395.69,50.450405,30.452924,75.75,859.67,0.12,103.25,1466,1594,1800,1493,3,-0.85,4.63,7.01
1775506395.79,50.450391,30.452914,78.25,857.91,0.13,102.75,1467,1594,1783,1493,3,-0.83,4.63,7.10
1775506395.89,50.450391,30.452914,78.25,857.91,0.13,104.75,1467,1594,1800,1493,3,-0.83,4.63,7.10
1775506395.99,50.450391,30.452914,78.25,857.91,0.13,106.75,1467,1594,1800,1493,3,-0.83,4.63,7.10
1775506396.09,50.450376,30.452903,80.88,856.13,0.15,106.12,1468,1594,1787,1493,3,-0.86,4.63,7.16
1775506396.19,50.450376,30.452903,80.88,856.13,0.15,108.12,1467,1594,1800,1493,3,-0.86,4.63,7.16
1775506396.29,50.450376,30.452903,80.88,856.13,0.15,110.12,1467,1594,1800,1493,3,-0.86,4.63,7.16
1775506396.39,50.450361,30.452893,83.52,854.33,0.17,109.48,1468,1595,1796,1493,3,-0.86,4.63,7.19
1775506396.49,50.450361,30.452893,83.52,854.33,0.17,111.48,1467,1594,1800,1493,3,-0.86,4.63,7.19
1775506396.59,50.450347,30.452882,86.15,852.52,0.19,110.85,1469,1595,1800,1493,3,-0.82,4.62,7.23
1775506396.70,50.450347,30.452882,86.15,852.52,0.19,112.85,1467,1594,1800,1493,3,-0.82,4.62,7.23
1775506396.80,50.450347,30.452882,86.15,852.52,0.19,114.85,1468,1594,1800,1493,3,-0.82,4.62,7.23
1775506396.90,50.450332,30.452872,88.76,850.72,0.22,114.24,1469,1595,1800,1493,3,-0.80,4.62,7.29
1775506397.00,50.450332,30.452872,88.76,850.72,0.22,116.24,1468,1594,1800,1493,3,-0.80,4.62,7.29
1775506397.10,50.450317,30.452861,91.42,848.90,0.25,115.58,1470,1595,1800,1493,3,-0.80,4.63,7.31
1775506397.20,50.450317,30.452861,91.42,848.90,0.25,117.58,1468,1595,1800,1493,3,-0.80,4.63,7.31
1775506397.30,50.450317,30.452861,91.42,848.90,0.25,119.58,1468,1595,1800,1493,3,-0.80,4.63,7.31
1775506397.40,50.450302,30.452850,94.16,847.07,0.29,118.84,1470,1595,1800,1493,3,-0.74,4.64,7.36
1775506397.50,50.450302,30.452850,94.16,847.07,0.29,120.84,1469,1595,1800,1493,3,-0.74,4.64,7.36
1775506397.60,50.450287,30.452839,96.94,845.22,0.32,120.06,1471,1596,1800,1493,3,-0.71,4.65,7.40
1775506397.70,50.450287,30.452839,96.94,845.22,0.32,122.06,1469,1595,1800,1493,3,-0.71,4.65,7.40
1775506397.80,50.450287,30.452839,96.94,845.22,0.32,124.06,1469,1595,1800,1493,3,-0.71,4.65,7.40
1775506397.90,50.450272,30.452829,99.64,843.37,0.35,123.36,1471,1596,1800,1493,3,-0.68,4.69,7.39
1775506398.00,50.450272,30.452829,99.64,843.37,0.35,125.36,1470,1595,1800,1493,3,-0.68,4.69,7.39
1775506398.10,50.450257,30.452818,102.25,841.53,0.39,124.75,1472,1596,1800,1493,3,-0.67,4.70,7.42
1775506398.20,50.450257,30.452818,102.25,841.53,0.39,126.75,1470,1595,1800,1493,3,-0.67,4.70,7.42
1775506398.30,50.450257,30.452818,102.25,841.53,0.39,128.75,1470,1595,1800,1493,3,-0.67,4.70,7.42
1775506398.40,50.450242,30.452807,104.86,839.69,0.42,128.14,1472,1596,1800,1493,3,-0.63,4.71,7.47
1775506398.50,50.450242,30.452807,104.86,839.69,0.42,130.14,1471,1596,1800,1493,3,-0.63,4.71,7.47
1775506398.60,50.450227,30.452796,107.45,837.83,0.45,129.55,1473,1596,1800,1493,3,-0.60,4.70,7.49
1775506398.70,50.450227,30.452796,107.45,837.83,0.45,131.55,1471,1596,1800,1493,3,-0.60,4.70,7.49
1775506398.80,50.450211,30.452786,110.00,835.97,0.47,131.00,1472,1596,1800,1493,3,-0.54,4.73,7.52
1775506398.90,50.450211,30.452786,110.00,835.97,0.47,133.00,1471,1596,1800,1493,3,-0.54,4.73,7.52
1775506399.01,50.450211,30.452786,110.00,835.97,0.47,135.00,1471,1596,1800,1493,3,-0.54,4.73,7.52
1775506399.11,50.450196,30.452775,112.56,834.10,0.49,134.44,1473,1596,1800,1493,3,-0.53,4.75,7.54
1775506399.21,50.450196,30.452775,112.56,834.10,0.49,136.44,1472,1596,1800,1493,3,-0.53,4.75,7.54
1775506399.31,50.450181,30.452764,115.11,832.22,0.51,135.89,1473,1596,1800,1493,3,-0.51,4.75,7.52
1775506399.41,50.450181,30.452764,115.11,832.22,0.51,137.89,1472,1596,1800,1493,3,-0.51,4.75,7.52
1775506399.51,50.450181,30.452764,115.11,832.22,0.51,139.89,1472,1596,1800,1493,3,-0.51,4.75,7.52
1775506399.61,50.450165,30.452753,117.73,830.35,0.53,139.27,1473,1596,1800,1493,3,-0.47,4.74,7.56
1775506399.71,50.450165,30.452753,117.73,830.35,0.53,141.27,1472,1596,1800,1493,3,-0.47,4.74,7.56
1775506399.81,50.450150,30.452742,120.42,828.46,0.55,140.58,1473,1597,1800,1493,3,-0.48,4.74,7.59
1775506399.91,50.450150,30.452742,120.42,828.46,0.55,142.58,1473,1596,1800,1493,3,-0.48,4.74,7.59
1775506400.01,50.450150,30.452742,120.42,828.46,0.55,144.58,1473,1596,1800,1493,3,-0.48,4.74,7.59
1775506400.11,50.450134,30.452731,123.14,826.56,0.56,143.86,1473,1597,1800,1493,3,-0.46,4.76,7.61
1775506400.21,50.450134,30.452731,123.14,826.56,0.56,145.86,1473,1596,1800,1493,3,-0.46,4.76,7.61
1775506400.31,50.450119,30.452720,125.93,824.66,0.58,145.07,1474,1597,1800,1493,3,-0.45,4.76,7.63
1775506400.41,50.450119,30.452720,125.93,824.66,0.58,147.07,1473,1596,1800,1493,3,-0.45,4.76,7.63
1775506400.51,50.450119,30.452720,125.93,824.66,0.58,149.07,1473,1596,1800,1493,3,-0.45,4.76,7.63
1775506400.61,50.450103,30.452709,128.76,822.75,0.60,148.24,1474,1597,1800,1493,3,-0.44,4.77,7.63
1775506400.71,50.450103,30.452709,128.76,822.75,0.60,150.24,1473,1596,1800,1493,3,-0.44,4.77,7.63
1775506400.81,50.450087,30.452698,131.45,820.85,0.61,149.55,1474,1597,1800,1493,3,-0.43,4.77,7.60
1775506400.91,50.450087,30.452698,131.45,820.85,0.61,151.55,1474,1597,1800,1493,3,-0.43,4.77,7.60
1775506401.01,50.450087,30.452698,131.45,820.85,0.61,153.55,1474,1597,1800,1493,3,-0.43,4.77,7.60
1775506401.11,50.450072,30.452688,134.06,818.96,0.62,152.94,1474,1597,1800,1493,3,-0.41,4.76,7.60
1775506401.21,50.450072,30.452688,134.06,818.96,0.62,154.94,1474,1597,1800,1493,3,-0.41,4.76,7.60
1775506401.31,50.450056,30.452677,136.75,817.06,0.64,154.25,1475,1597,1800,1493,3,-0.39,4.76,7.62
1775506401.41,50.450056,30.452677,136.75,817.06,0.64,156.25,1474,1597,1800,1493,3,-0.39,4.76,7.62
1775506401.51,50.450056,30.452677,136.75,817.06,0.64,158.25,1474,1597,1800,1493,3,-0.39,4.76,7.62
1775506401.61,50.450041,30.452666,139.39,815.16,0.65,157.61,1475,1597,1800,1493,3,-0.36,4.78,7.55
1775506401.72,50.450041,30.452666,139.39,815.16,0.65,159.61,1474,1597,1800,1493,3,-0.36,4.78,7.55
1775506401.82,50.450025,30.452655,141.99,813.27,0.66,159.01,1475,1597,1800,1493,3,-0.36,4.82,7.56
1775506401.92,50.450025,30.452655,141.99,813.27,0.66,159.01,1474,1597,1800,1493,3,-0.36,4.82,7.56
1775506402.02,50.450025,30.452655,141.99,813.27,0.66,159.01,1474,1597,1800,1493,3,-0.36,4.82,7.56
1775506402.12,50.450010,30.452644,144.47,811.38,0.66,156.53,1474,1597,1800,1493,3,-0.36,4.81,7.54
1775506402.22,50.450010,30.452644,144.47,811.38,0.66,156.53,1474,1597,1800,1493,3,-0.36,4.81,7.54
1775506402.32,50.449994,30.452634,146.86,809.49,0.67,154.14,1475,1597,1800,1493,3,-0.36,4.80,7.57
1775506402.42,50.449994,30.452634,146.86,809.49,0.67,154.14,1474,1597,1800,1493,3,-0.36,4.80,7.57
1775506402.52,50.449994,30.452634,146.86,809.49,0.67,154.14,1474,1597,1800,1493,3,-0.36,4.80,7.57
1775506402.62,50.449979,30.452623,149.40,807.60,0.67,151.60,1475,1597,1800,1493,3,-0.36,4.81,7.61
1775506402.72,50.449979,30.452623,149.40,807.60,0.67,151.60,1474,1597,1800,1493,3,-0.36,4.81,7.61
1775506402.82,50.449963,30.452612,151.88,805.71,0.66,149.12,1474,1597,1800,1493,3,-0.35,4.82,7.59
1775506402.92,50.449963,30.452612,151.88,805.71,0.66,149.12,1474,1597,1800,1493,3,-0.35,4.82,7.59
1775506403.02,50.449963,30.452612,151.88,805.71,0.66,149.12,1474,1597,1800,1493,3,-0.35,4.82,7.59
1775506403.12,50.449947,30.452602,154.32,803.82,0.66,146.68,1474,1597,1800,1493,3,-0.36,4.82,7.60
1775506403.22,50.449947,30.452602,154.32,803.82,0.66,146.68,1474,1597,1800,1493,3,-0.36,4.82,7.60
1775506403.32,50.449932,30.452591,156.84,801.92,0.66,144.16,1474,1597,1800,1493,3,-0.38,4.82,7.62
1775506403.42,50.449932,30.452591,156.84,801.92,0.66,144.16,1474,1597,1800,1493,3,-0.38,4.82,7.62
1775506403.52,50.449932,30.452591,156.84,801.92,0.66,144.16,1474,1597,1800,1493,3,-0.38,4.82,7.62
1775506403.62,50.449916,30.452580,159.42,800.01,0.65,141.58,1474,1597,1796,1493,3,-0.37,4.83,7.62
1775506403.72,50.449916,30.452580,159.42,800.01,0.65,141.58,1474,1597,1800,1493,3,-0.37,4.83,7.62
1775506403.82,50.449900,30.452570,161.97,798.11,0.64,139.03,1474,1597,1789,1493,3,-0.38,4.82,7.64
1775506403.92,50.449900,30.452570,161.97,798.11,0.64,139.03,1474,1597,1800,1493,3,-0.38,4.82,7.64
1775506404.02,50.449900,30.452570,161.97,798.11,0.64,139.03,1474,1597,1800,1493,3,-0.38,4.82,7.64
1775506404.12,50.449884,30.452559,164.55,796.19,0.63,136.45,1474,1597,1781,1493,3,-0.38,4.82,7.65
1775506404.22,50.449884,30.452559,164.55,796.19,0.63,136.45,1474,1597,1800,1493,3,-0.38,4.82,7.65
1775506404.33,50.449869,30.452548,167.12,794.28,0.61,133.88,1473,1596,1773,1493,3,-0.39,4.84,7.65
1775506404.43,50.449869,30.452548,167.12,794.28,0.61,133.88,1474,1597,1800,1493,3,-0.39,4.84,7.65
1775506404.53,50.449869,30.452548,167.12,794.28,0.61,133.88,1474,1597,1800,1493,3,-0.39,4.84,7.65
1775506404.63,50.449853,30.452538,169.71,792.35,0.60,131.29,1473,1596,1764,1493,3,-0.40,4.81,7.67
1775506404.73,50.449853,30.452538,169.71,792.35,0.60,131.29,1474,1597,1800,1493,3,-0.40,4.81,7.67
1775506404.83,50.449837,30.452527,172.25,790.44,0.58,128.75,1473,1596,1759,1493,3,-0.41,4.79,7.64
1775506404.93,50.449837,30.452527,172.25,790.44,0.58,128.75,1473,1597,1800,1493,3,-0.41,4.79,7.64
1775506405.03,50.449837,30.452527,172.25,790.44,0.58,128.75,1473,1597,1800,1493,3,-0.41,4.79,7.64
1775506405.13,50.449821,30.452517,174.67,788.54,0.58,126.33,1473,1596,1758,1493,3,-0.42,4.79,7.65
1775506405.23,50.449821,30.452517,174.67,788.54,0.58,126.33,1473,1596,1800,1493,3,-0.42,4.79,7.65
1775506405.33,50.449805,30.452506,176.99,786.63,0.57,124.01,1473,1596,1756,1493,3,-0.42,4.79,7.59
1775506405.43,50.449805,30.452506,176.99,786.63,0.57,124.01,1473,1596,1800,1493,3,-0.42,4.79,7.59
1775506405.53,50.449805,30.452506,176.99,786.63,0.57,124.01,1473,1596,1800,1493,3,-0.42,4.79,7.59
1775506405.63,50.449790,30.452495,179.29,784.73,0.57,121.71,1473,1596,1750,1493,3,-0.43,4.76,7.58
1775506405.73,50.449790,30.452495,179.29,784.73,0.57,121.71,1473,1596,1800,1493,3,-0.43,4.76,7.58
1775506405.83,50.449774,30.452485,181.57,782.82,0.56,119.43,1473,1596,1744,1493,3,-0.44,4.75,7.57
1775506405.93,50.449774,30.452485,181.57,782.82,0.56,119.43,1473,1596,1800,1493,3,-0.44,4.75,7.57
1775506406.03,50.449774,30.452485,181.57,782.82,0.56,119.43,1473,1596,1800,1493,3,-0.44,4.75,7.57
1775506406.13,50.449758,30.452474,183.92,780.92,0.56,117.08,1473,1596,1734,1493,3,-0.45,4.75,7.61
1775506406.23,50.449758,30.452474,183.92,780.92,0.56,117.08,1473,1596,1800,1493,3,-0.45,4.75,7.61
1775506406.33,50.449743,30.452463,186.36,779.01,0.54,114.64,1472,1596,1722,1493,3,-0.45,4.74,7.63
1775506406.43,50.449743,30.452463,186.36,779.01,0.54,114.64,1473,1596,1800,1493,3,-0.45,4.74,7.63
1775506406.53,50.449743,30.452463,186.36,779.01,0.54,114.64,1473,1596,1800,1493,3,-0.45,4.74,7.63
1775506406.63,50.449727,30.452453,188.77,777.10,0.54,112.23,1473,1596,1716,1493,3,-0.44,4.73,7.62
1775506406.73,50.449727,30.452453,188.77,777.10,0.54,112.23,1473,1596,1800,1493,3,-0.44,4.73,7.62
1775506406.83,50.449711,30.452442,191.17,775.19,0.53,109.83,1472,1596,1710,1493,3,-0.44,4.73,7.63
1775506406.93,50.449711,30.452442,191.17,775.19,0.53,109.83,1473,1596,1800,1493,3,-0.44,4.73,7.63
1775506407.04,50.449711,30.452442,191.17,775.19,0.53,109.83,1473,1596,1800,1493,3,-0.44,4.73,7.63
1775506407.14,50.449695,30.452431,193.55,773.27,0.53,107.45,1472,1596,1703,1493,3,-0.47,4.74,7.63
1775506407.24,50.449695,30.452431,193.55,773.27,0.53,107.45,1473,1596,1800,1493,3,-0.47,4.74,7.63
1775506407.34,50.449680,30.452420,195.87,771.37,0.52,105.13,1473,1596,1700,1493,3,-0.49,4.74,7.60
1775506407.44,50.449680,30.452420,195.87,771.37,0.52,105.13,1473,1596,1800,1493,3,-0.49,4.74,7.60
1775506407.54,50.449680,30.452420,195.87,771.37,0.52,105.13,1473,1596,1800,1493,3,-0.49,4.74,7.60
1775506407.64,50.449664,30.452410,198.12,769.46,0.53,102.88,1473,1596,1696,1493,3,-0.46,4.74,7.59
1775506407.74,50.449664,30.452410,198.12,769.46,0.53,102.88,1473,1596,1800,1493,3,-0.46,4.74,7.59
1775506407.84,50.449648,30.452399,200.19,767.57,0.53,100.81,1473,1596,1699,1493,3,-0.45,4.75,7.54
1775506407.94,50.449648,30.452399,200.19,767.57,0.53,100.81,1473,1596,1800,1493,3,-0.45,4.75,7.54
1775506408.04,50.449648,30.452399,200.19,767.57,0.53,100.81,1473,1596,1800,1493,3,-0.45,4.75,7.54
1775506408.14,50.449633,30.452388,202.18,765.70,0.54,98.82,1473,1597,1697,1493,3,-0.43,4.76,7.56
1775506408.24,50.449633,30.452388,202.18,765.70,0.54,98.82,1473,1596,1796,1493,3,-0.43,4.76,7.56
1775506408.34,50.449617,30.452378,204.31,763.80,0.54,96.69,1473,1596,1684,1493,3,-0.43,4.76,7.60
1775506408.44,50.449617,30.452378,204.31,763.80,0.54,96.69,1473,1596,1790,1493,3,-0.43,4.76,7.60
1775506408.54,50.449617,30.452378,204.31,763.80,0.54,96.69,1473,1596,1790,1493,3,-0.43,4.76,7.60
1775506408.64,50.449602,30.452367,206.60,761.92,0.55,94.40,1473,1596,1669,1493,3,-0.43,4.76,7.62
1775506408.74,50.449602,30.452367,206.60,761.92,0.55,94.40,1473,1596,1783,1493,3,-0.43,4.76,7.62
1775506408.84,50.449586,30.452356,208.87,760.02,0.56,92.13,1474,1597,1663,1493,3,-0.47,4.76,7.60
1775506408.94,50.449586,30.452356,208.87,760.02,0.56,92.13,1473,1596,1776,1493,3,-0.47,4.76,7.60
1775506409.04,50.449586,30.452356,208.87,760.02,0.56,92.13,1473,1596,1776,1493,3,-0.47,4.76,7.60
1775506409.14,50.449571,30.452345,211.12,758.13,0.56,89.88,1473,1596,1657,1493,3,-0.44,4.77,7.62
1775506409.25,50.449571,30.452345,211.12,758.13,0.56,89.88,1473,1596,1769,1493,3,-0.44,4.77,7.62
1775506409.35,50.449555,30.452335,213.44,756.23,0.56,87.56,1473,1596,1647,1493,3,-0.44,4.77,7.63
1775506409.45,50.449555,30.452335,213.44,756.23,0.56,87.56,1473,1596,1762,1493,3,-0.44,4.77,7.63
1775506409.55,50.449555,30.452335,213.44,756.23,0.56,87.56,1473,1596,1762,1493,3,-0.44,4.77,7.63
1775506409.65,50.449540,30.452324,215.66,754.33,0.57,85.34,1474,1597,1645,1493,3,-0.44,4.76,7.60
1775506409.75,50.449540,30.452324,215.66,754.33,0.57,85.34,1473,1597,1756,1493,3,-0.44,4.76,7.60
1775506409.85,50.449524,30.452313,217.81,752.43,0.56,83.19,1473,1596,1642,1493,3,-0.44,4.75,7.61
1775506409.95,50.449524,30.452313,217.81,752.43,0.56,83.19,1473,1596,1749,1493,3,-0.44,4.75,7.61
1775506410.05,50.449508,30.452302,219.97,750.53,0.57,81.03,1474,1597,1635,1493,3,-0.45,4.74,7.63
1775506410.15,50.449508,30.452302,219.97,750.53,0.57,81.03,1473,1597,1743,1493,3,-0.45,4.74,7.63
1775506410.25,50.449508,30.452302,219.97,750.53,0.57,81.03,1473,1597,1743,1493,3,-0.45,4.74,7.63
1775506410.35,50.449492,30.452292,222.21,748.62,0.58,78.79,1474,1597,1625,1493,3,-0.46,4.73,7.66
1775506410.45,50.449492,30.452292,222.21,748.62,0.58,78.79,1474,1597,1736,1493,3,-0.46,4.73,7.66
1775506410.55,50.449477,30.452281,224.44,746.71,0.58,76.56,1474,1597,1618,1493,3,-0.46,4.76,7.65
1775506410.65,50.449477,30.452281,224.44,746.71,0.58,76.56,1474,1597,1729,1493,3,-0.46,4.76,7.65
1775506410.75,50.449477,30.452281,224.44,746.71,0.58,76.56,1474,1597,1729,1493,3,-0.46,4.76,7.65
1775506410.85,50.449461,30.452270,226.61,744.80,0.59,74.39,1474,1597,1615,1493,3,-0.43,4.81,7.66
1775506410.95,50.449461,30.452270,226.61,744.80,0.59,74.39,1474,1597,1723,1493,3,-0.43,4.81,7.66
1775506411.05,50.449461,30.452270,226.61,744.80,0.59,74.39,1474,1597,1723,1493,3,-0.43,4.81,7.66
1775506411.15,50.449445,30.452259,228.76,742.89,0.60,72.24,1474,1597,1609,1493,3,-0.39,4.82,7.62
1775506411.25,50.449445,30.452259,228.76,742.89,0.60,72.24,1474,1597,1716,1493,3,-0.39,4.82,7.62
1775506411.35,50.449430,30.452248,230.81,740.99,0.60,70.19,1474,1597,1608,1493,3,-0.36,4.82,7.63
1775506411.45,50.449430,30.452248,230.81,740.99,0.60,70.19,1474,1597,1710,1493,3,-0.36,4.82,7.63
1775506411.55,50.449430,30.452248,230.81,740.99,0.60,70.19,1474,1597,1710,1493,3,-0.36,4.82,7.63
1775506411.65,50.449414,30.452237,232.76,739.09,0.61,68.24,1474,1597,1607,1493,3,-0.34,4.82,7.62
1775506411.75,50.449414,30.452237,232.76,739.09,0.61,68.24,1474,1597,1704,1493,3,-0.34,4.82,7.62
1775506411.85,50.449398,30.452227,234.71,737.18,0.61,66.29,1474,1597,1601,1493,3,-0.34,4.82,7.60
1775506411.95,50.449398,30.452227,234.71,737.18,0.61,66.29,1474,1597,1698,1493,3,-0.34,4.82,7.60
1775506412.06,50.449398,30.452227,234.71,737.18,0.61,66.29,1474,1597,1698,1493,3,-0.34,4.82,7.60
1775506412.16,50.449383,30.452216,236.67,735.27,0.61,64.33,1474,1597,1595,1493,3,-0.34,4.82,7.63
1775506412.26,50.449383,30.452216,236.67,735.27,0.61,64.33,1474,1597,1692,1493,3,-0.34,4.82,7.63
1775506412.36,50.449367,30.452205,238.63,733.37,0.60,62.37,1474,1597,1589,1493,3,-0.34,4.82,7.61
1775506412.46,50.449367,30.452205,238.63,733.37,0.60,62.37,1474,1597,1687,1493,3,-0.34,4.82,7.61
1775506412.56,50.449367,30.452205,238.63,733.37,0.60,62.37,1474,1597,1687,1493,3,-0.34,4.82,7.61
1775506412.66,50.449351,30.452195,240.54,731.47,0.59,60.46,1473,1597,1586,1493,3,-0.34,4.82,7.60
1775506412.76,50.449351,30.452195,240.54,731.47,0.59,60.46,1474,1597,1681,1493,3,-0.34,4.82,7.60
1775506412.86,50.449336,30.452184,242.42,729.56,0.58,58.58,1473,1597,1582,1493,3,-0.37,4.80,7.60
1775506412.96,50.449336,30.452184,242.42,729.56,0.58,58.58,1474,1597,1675,1493,3,-0.37,4.80,7.60
1775506413.06,50.449336,30.452184,242.42,729.56,0.58,58.58,1474,1597,1675,1493,3,-0.37,4.80,7.60
1775506413.16,50.449320,30.452173,244.22,727.68,0.58,56.78,1474,1597,1580,1493,3,-0.40,4.79,7.56
1775506413.26,50.449320,30.452173,244.22,727.68,0.58,56.78,1474,1597,1670,1493,3,-0.40,4.79,7.56
1775506413.36,50.449304,30.452163,246.02,725.79,0.58,54.98,1474,1597,1575,1493,3,-0.39,4.79,7.57
1775506413.46,50.449304,30.452163,246.02,725.79,0.58,54.98,1474,1597,1664,1493,3,-0.39,4.79,7.57
1775506413.56,50.449289,30.452152,247.83,723.90,0.57,53.17,1473,1597,1569,1493,3,-0.39,4.79,7.54
1775506413.66,50.449289,30.452152,247.83,723.90,0.57,53.17,1474,1597,1659,1493,3,-0.39,4.79,7.54
1775506413.76,50.449289,30.452152,247.83,723.90,0.57,53.17,1474,1597,1659,1493,3,-0.39,4.79,7.54
1775506413.86,50.449273,30.452142,249.63,722.01,0.57,51.37,1474,1597,1564,1493,3,-0.40,4.83,7.55
1775506413.96,50.449273,30.452142,249.63,722.01,0.57,51.37,1474,1597,1654,1493,3,-0.40,4.83,7.55
1775506414.06,50.449258,30.452131,251.44,720.14,0.56,49.56,1469,1607,1558,1493,3,-0.40,4.84,7.54
1775506414.16,50.449258,30.452131,251.44,720.14,0.56,49.56,1470,1607,1648,1493,3,-0.40,4.84,7.54
1775506414.27,50.449258,30.452131,251.44,720.14,0.56,49.56,1470,1607,1648,1493,3,-0.40,4.84,7.54
1775506414.37,50.449242,30.452120,253.13,718.26,0.57,47.87,1466,1619,1559,1493,3,-0.49,5.06,7.50
1775506414.47,50.449242,30.452120,253.13,718.26,0.57,47.87,1465,1619,1643,1493,3,-0.49,5.06,7.50
1775506414.57,50.449227,30.452110,254.81,716.39,0.56,46.19,1461,1630,1554,1493,3,-0.65,5.55,7.52
1775506414.67,50.449227,30.452110,254.81,716.39,0.56,46.19,1461,1630,1638,1493,3,-0.65,5.55,7.52
1775506414.77,50.449227,30.452110,254.81,716.39,0.56,46.19,1461,1630,1638,1493,3,-0.65,5.55,7.52
1775506414.87,50.449212,30.452099,256.41,714.51,0.56,44.59,1457,1642,1554,1493,3,-0.93,6.26,7.57
1775506414.97,50.449212,30.452099,256.41,714.51,0.56,44.59,1457,1642,1633,1493,3,-0.93,6.26,7.57
1775506415.07,50.449196,30.452089,257.98,712.62,0.56,43.02,1453,1653,1551,1493,3,-1.19,6.91,7.64
1775506415.17,50.449196,30.452089,257.98,712.62,0.56,43.02,1453,1653,1629,1493,3,-1.19,6.91,7.64
1775506415.27,50.449196,30.452089,257.98,712.62,0.56,43.02,1453,1653,1629,1493,3,-1.19,6.91,7.64
1775506415.37,50.449180,30.452078,259.47,710.70,0.56,41.53,1449,1663,1550,1493,3,-1.46,7.70,7.77
1775506415.47,50.449180,30.452078,259.47,710.70,0.56,41.53,1449,1663,1624,1493,3,-1.46,7.70,7.77
1775506415.57,50.449164,30.452067,260.92,708.76,0.56,40.08,1445,1673,1547,1493,3,-1.68,8.30,7.88
1775506415.67,50.449164,30.452067,260.92,708.76,0.56,40.08,1445,1673,1620,1493,3,-1.68,8.30,7.88
1775506415.77,50.449164,30.452067,260.92,708.76,0.56,40.08,1445,1673,1620,1493,3,-1.68,8.30,7.88
1775506415.87,50.449148,30.452056,262.33,706.77,0.56,38.67,1441,1683,1545,1493,3,-1.97,9.01,8.06
1775506415.97,50.449148,30.452056,262.33,706.77,0.56,38.67,1441,1683,1616,1493,3,-1.97,9.01,8.06
1775506416.07,50.449131,30.452044,263.69,704.74,0.56,37.31,1438,1693,1544,1493,3,-2.17,9.58,8.20
1775506416.17,50.449131,30.452044,263.69,704.74,0.56,37.31,1438,1693,1611,1493,3,-2.17,9.58,8.20
1775506416.27,50.449131,30.452044,263.69,704.74,0.56,37.31,1438,1693,1611,1493,3,-2.17,9.58,8.20
1775506416.37,50.449114,30.452033,265.01,702.67,0.56,35.99,1434,1702,1541,1493,3,-2.39,10.25,8.41
1775506416.48,50.449114,30.452033,265.01,702.67,0.56,35.99,1434,1702,1607,1493,3,-2.39,10.25,8.41
1775506416.58,50.449097,30.452020,266.36,700.53,0.57,34.64,1431,1712,1537,1493,3,-2.60,10.81,8.63
1775506416.68,50.449097,30.452020,266.36,700.53,0.57,34.64,1431,1712,1603,1493,3,-2.60,10.81,8.63
1775506416.78,50.449097,30.452020,266.36,700.53,0.57,34.64,1431,1712,1603,1493,3,-2.60,10.81,8.63
1775506416.88,50.449079,30.452008,267.69,698.36,0.57,33.31,1427,1721,1533,1493,3,-2.84,11.47,8.82
1775506416.98,50.449079,30.452008,267.69,698.36,0.57,33.31,1427,1721,1599,1493,3,-2.84,11.47,8.82
1775506417.08,50.449060,30.451995,268.96,696.13,0.58,32.04,1425,1730,1532,1493,3,-3.03,12.01,9.00
1775506417.18,50.449060,30.451995,268.96,696.13,0.58,32.04,1424,1730,1596,1493,3,-3.03,12.01,9.00
1775506417.28,50.449060,30.451995,268.96,696.13,0.58,32.04,1424,1730,1596,1493,3,-3.03,12.01,9.00
1775506417.38,50.449042,30.451983,270.18,693.86,0.59,30.82,1421,1739,1531,1493,3,-3.23,12.65,9.23
1775506417.48,50.449042,30.451983,270.18,693.86,0.59,30.82,1421,1738,1592,1493,3,-3.23,12.65,9.23
1775506417.58,50.449022,30.451970,271.39,691.54,0.59,29.61,1418,1747,1528,1493,3,-3.40,13.16,9.46
1775506417.68,50.449022,30.451970,271.39,691.54,0.59,29.61,1418,1747,1588,1493,3,-3.40,13.16,9.46
1775506417.78,50.449022,30.451970,271.39,691.54,0.59,29.61,1418,1747,1588,1493,3,-3.40,13.16,9.46
1775506417.88,50.449003,30.451956,272.61,689.15,0.59,28.39,1415,1756,1524,1493,3,-3.61,13.74,9.69
1775506417.98,50.449003,30.451956,272.61,689.15,0.59,28.39,1415,1756,1585,1493,3,-3.61,13.74,9.69
1775506418.08,50.448983,30.451942,273.81,686.70,0.60,27.19,1412,1764,1521,1493,3,-3.77,14.23,9.91
1775506418.18,50.448983,30.451942,273.81,686.70,0.60,27.19,1412,1764,1581,1493,3,-3.77,14.23,9.91
1775506418.28,50.448983,30.451942,273.81,686.70,0.60,27.19,1412,1764,1581,1493,3,-3.77,14.23,9.91
1775506418.38,50.448962,30.451928,274.96,684.19,0.60,26.04,1409,1772,1520,1493,3,-3.96,14.81,10.12
1775506418.48,50.448962,30.451928,274.96,684.19,0.60,26.04,1409,1772,1578,1493,3,-3.96,14.81,10.12
1775506418.58,50.448941,30.451913,276.07,681.63,0.61,24.93,1406,1780,1519,1493,3,-4.12,15.28,10.35
1775506418.68,50.448941,30.451913,276.07,681.63,0.61,24.93,1406,1780,1574,1493,3,-4.12,15.28,10.35
1775506418.78,50.448941,30.451913,276.07,681.63,0.61,24.93,1406,1780,1574,1493,3,-4.12,15.28,10.35
1775506418.88,50.448920,30.451898,277.20,679.03,0.62,23.80,1404,1788,1515,1493,3,-4.29,15.80,10.54
1775506418.98,50.448920,30.451898,277.20,679.03,0.62,23.80,1403,1788,1571,1493,3,-4.29,15.80,10.54
1775506419.09,50.448898,30.451884,278.24,676.39,0.63,22.76,1401,1796,1516,1493,3,-4.43,16.28,10.70
1775506419.19,50.448898,30.451884,278.24,676.39,0.63,22.76,1401,1795,1568,1493,3,-4.43,16.28,10.70
1775506419.29,50.448898,30.451884,278.24,676.39,0.63,22.76,1401,1795,1568,1493,3,-4.43,16.28,10.70
1775506419.39,50.448876,30.451868,279.19,673.70,0.65,21.81,1399,1803,1518,1493,3,-4.59,16.79,10.91
1775506419.49,50.448876,30.451868,279.19,673.70,0.65,21.81,1398,1802,1565,1493,3,-4.59,16.79,10.91
1775506419.59,50.448853,30.451852,280.13,670.96,0.67,20.87,1397,1809,1515,1493,3,-4.72,17.22,11.14
1775506419.69,50.448853,30.451852,280.13,670.96,0.67,20.87,1396,1809,1562,1493,3,-4.72,17.22,11.14
1775506419.79,50.448853,30.451852,280.13,670.96,0.67,20.87,1396,1809,1562,1493,3,-4.72,17.22,11.14
1775506419.89,50.448830,30.451836,281.00,668.16,0.70,20.00,1395,1816,1516,1493,3,-4.85,17.68,11.34
1775506419.99,50.448830,30.451836,281.00,668.16,0.70,20.00,1394,1815,1560,1493,3,-4.85,17.68,11.34
1775506420.09,50.448807,30.451820,281.80,665.30,0.72,19.20,1393,1821,1518,1493,3,-4.97,18.06,11.48
1775506420.19,50.448807,30.451820,281.80,665.30,0.72,19.20,1392,1821,1558,1493,3,-4.97,18.06,11.48
1775506420.29,50.448807,30.451820,281.80,665.30,0.72,19.20,1392,1821,1558,1493,3,-4.97,18.06,11.48
1775506420.39,50.448783,30.451803,282.50,662.41,0.74,18.50,1392,1826,1521,1493,3,-5.10,18.49,11.66
1775506420.49,50.448783,30.451803,282.50,662.41,0.74,18.50,1391,1826,1556,1493,3,-5.10,18.49,11.66
1775506420.59,50.448759,30.451786,283.16,659.46,0.77,17.84,1391,1831,1522,1493,3,-5.18,18.80,11.89
1775506420.69,50.448759,30.451786,283.16,659.46,0.77,17.84,1390,1831,1555,1493,3,-5.18,18.80,11.89
1775506420.79,50.448759,30.451786,283.16,659.46,0.77,17.84,1390,1831,1555,1493,3,-5.18,18.80,11.89
1775506420.89,50.448735,30.451769,283.84,656.47,0.80,17.16,1390,1836,1519,1493,3,-5.22,19.16,12.08
1775506420.99,50.448735,30.451769,283.84,656.47,0.80,17.16,1388,1836,1553,1493,3,-5.22,19.16,12.08
1775506421.09,50.448709,30.451751,284.54,653.42,0.83,16.46,1388,1841,1516,1493,3,-5.27,19.45,12.23
1775506421.19,50.448709,30.451751,284.54,653.42,0.83,16.46,1387,1841,1551,1493,3,-5.27,19.45,12.23
1775506421.29,50.448709,30.451751,284.54,653.42,0.83,16.46,1387,1841,1552,1493,3,-5.27,19.45,12.23
1775506421.40,50.448684,30.451734,285.19,650.36,0.87,15.81,1387,1846,1517,1493,3,-5.39,19.79,12.36
1775506421.50,50.448684,30.451734,285.19,650.36,0.87,15.81,1386,1845,1550,1493,3,-5.39,19.79,12.36
1775506421.60,50.448659,30.451716,285.90,647.24,0.91,15.10,1386,1850,1513,1493,3,-5.45,20.07,12.53
1775506421.70,50.448659,30.451716,285.90,647.24,0.91,15.10,1384,1850,1548,1493,3,-5.45,20.07,12.53
1775506421.80,50.448659,30.451716,285.90,647.24,0.91,15.10,1384,1850,1548,1493,3,-5.45,20.07,12.53
1775506421.90,50.448633,30.451697,286.58,644.11,0.95,14.42,1385,1850,1512,1493,3,-5.51,20.38,12.65
1775506422.00,50.448633,30.451697,286.58,644.11,0.95,14.42,1383,1850,1547,1493,3,-5.51,20.38,12.65
1775506422.10,50.448607,30.451679,287.30,640.91,1.00,13.70,1384,1850,1508,1493,3,-5.57,20.57,12.84
1775506422.20,50.448607,30.451679,287.30,640.91,1.00,13.70,1382,1850,1545,1493,3,-5.57,20.57,12.84
1775506422.30,50.448607,30.451679,287.30,640.91,1.00,13.70,1382,1850,1545,1493,3,-5.57,20.57,12.84
1775506422.40,50.448581,30.451660,288.04,637.70,1.05,12.96,1383,1850,1506,1493,3,-5.62,20.61,12.92
1775506422.50,50.448581,30.451660,288.04,637.70,1.05,12.96,1381,1850,1543,1493,3,-5.62,20.61,12.92
1775506422.60,50.448554,30.451641,288.70,634.46,1.10,12.30,1382,1850,1508,1493,3,-5.70,20.63,13.00
1775506422.70,50.448554,30.451641,288.70,634.46,1.10,12.30,1380,1850,1541,1493,3,-5.70,20.63,13.00
1775506422.80,50.448554,30.451641,288.70,634.46,1.10,12.30,1380,1850,1541,1493,3,-5.70,20.63,13.00
1775506422.90,50.448528,30.451622,289.36,631.19,1.15,11.64,1381,1850,1506,1493,3,-5.74,20.66,13.07
1775506423.00,50.448528,30.451622,289.36,631.19,1.15,11.64,1379,1850,1539,1493,3,-5.74,20.66,13.07
1775506423.10,50.448501,30.451603,289.91,627.91,1.20,11.09,1381,1850,1511,1493,3,-5.78,20.65,13.12
1775506423.20,50.448501,30.451603,289.91,627.91,1.20,11.09,1378,1850,1538,1493,3,-5.78,20.65,13.12
1775506423.30,50.448501,30.451603,289.91,627.91,1.20,11.09,1378,1850,1538,1493,3,-5.78,20.65,13.12
1775506423.40,50.448474,30.451584,290.50,624.63,1.27,10.50,1382,1850,1507,1493,3,-5.86,20.62,13.18
1775506423.50,50.448474,30.451584,290.50,624.63,1.27,10.50,1379,1850,1537,1493,3,-5.86,20.62,13.18
1775506423.60,50.448447,30.451564,291.03,621.35,1.33,9.97,1383,1850,1509,1493,3,-5.89,20.60,13.22
1775506423.70,50.448447,30.451564,291.03,621.35,1.33,9.97,1380,1850,1535,1493,3,-5.89,20.60,13.22
1775506423.80,50.448447,30.451564,291.03,621.35,1.33,9.97,1380,1850,1535,1493,3,-5.89,20.60,13.22
1775506423.90,50.448420,30.451545,291.47,618.07,1.39,9.53,1384,1850,1512,1493,3,-5.86,20.61,13.28
1775506424.01,50.448420,30.451545,291.47,618.07,1.39,9.53,1381,1850,1534,1493,3,-5.86,20.61,13.28
1775506424.11,50.448393,30.451525,291.89,614.75,1.46,9.11,1385,1850,1512,1493,3,-5.83,20.63,13.32
1775506424.21,50.448393,30.451525,291.89,614.75,1.46,9.11,1382,1850,1533,1493,3,-5.83,20.63,13.32
1775506424.31,50.448393,30.451525,291.89,614.75,1.46,9.11,1382,1850,1533,1493,3,-5.83,20.63,13.32
1775506424.41,50.448366,30.451505,292.32,611.41,1.54,8.68,1386,1850,1510,1493,3,-5.75,20.63,13.36
1775506424.51,50.448366,30.451505,292.32,611.41,1.54,8.68,1383,1850,1532,1493,3,-5.75,20.63,13.36
1775506424.61,50.448339,30.451486,292.81,608.07,1.62,8.19,1387,1850,1506,1493,3,-5.73,20.63,13.38
1775506424.71,50.448339,30.451486,292.81,608.07,1.62,8.19,1384,1850,1531,1493,3,-5.73,20.63,13.38
1775506424.81,50.448339,30.451486,292.81,608.07,1.62,8.19,1384,1850,1531,1493,3,-5.73,20.63,13.38
1775506424.91,50.448312,30.451466,293.26,604.72,1.70,7.74,1389,1850,1507,1493,3,-5.64,20.62,13.38
1775506425.01,50.448312,30.451466,293.26,604.72,1.70,7.74,1385,1850,1530,1493,3,-5.64,20.62,13.38
1775506425.11,50.448284,30.451445,293.74,601.38,1.80,7.26,1391,1850,1504,1493,3,-5.55,20.61,13.41
1775506425.21,50.448284,30.451445,293.74,601.38,1.80,7.26,1386,1850,1528,1493,3,-5.55,20.61,13.41
1775506425.31,50.448284,30.451445,293.74,601.38,1.80,7.26,1386,1850,1528,1493,3,-5.55,20.61,13.41
1775506425.41,50.448257,30.451425,294.23,598.02,1.89,6.77,1392,1850,1503,1493,3,-5.44,20.60,13.46
1775506425.51,50.448257,30.451425,294.23,598.02,1.89,6.77,1388,1850,1527,1493,3,-5.44,20.60,13.46
1775506425.61,50.448230,30.451405,294.71,594.66,2.00,6.29,1394,1850,1502,1493,3,-5.41,20.59,13.44
1775506425.71,50.448230,30.451405,294.71,594.66,2.00,6.29,1389,1850,1526,1493,3,-5.41,20.59,13.44
1775506425.81,50.448230,30.451405,294.71,594.66,2.00,6.29,1389,1850,1526,1493,3,-5.41,20.59,13.44
1775506425.91,50.448203,30.451385,295.21,591.31,2.10,5.79,1396,1850,1500,1493,3,-5.29,20.61,13.47
1775506426.01,50.448203,30.451385,295.21,591.31,2.10,5.79,1391,1850,1524,1493,3,-5.29,20.61,13.47
1775506426.11,50.448175,30.451365,295.69,587.96,2.21,5.31,1398,1850,1499,1493,3,-5.21,20.63,13.44
1775506426.21,50.448175,30.451365,295.69,587.96,2.21,5.31,1392,1850,1523,1493,3,-5.21,20.63,13.44
1775506426.31,50.448148,30.451344,296.05,584.59,2.32,4.95,1399,1850,1504,1493,3,-5.07,20.63,13.43
1775506426.41,50.448148,30.451344,296.05,584.59,2.32,4.95,1394,1850,1522,1493,3,-5.07,20.63,13.43
1775506426.51,50.448148,30.451344,296.05,584.59,2.32,4.95,1394,1850,1522,1493,3,-5.07,20.63,13.43
1775506426.61,50.448121,30.451324,296.40,581.24,2.41,4.60,1400,1850,1504,1493,3,-4.96,20.64,13.42
1775506426.71,50.448121,30.451324,296.40,581.24,2.41,4.60,1395,1850,1521,1493,3,-4.96,20.64,13.42
1775506426.81,50.448093,30.451304,296.72,577.87,2.50,4.28,1401,1850,1504,1493,3,-4.89,20.62,13.40
1775506426.92,50.448093,30.451304,296.72,577.87,2.50,4.28,1397,1850,1520,1493,3,-4.89,20.62,13.40
1775506427.02,50.448093,30.451304,296.72,577.87,2.50,4.28,1397,1850,1520,1493,3,-4.89,20.62,13.40
1775506427.12,50.448066,30.451284,297.00,574.54,2.61,4.00,1403,1850,1506,1493,3,-4.81,20.62,13.40
1775506427.22,50.448066,30.451284,297.00,574.54,2.61,4.00,1398,1850,1520,1493,3,-4.81,20.62,13.40
1775506427.32,50.448039,30.451264,297.33,571.20,2.69,3.67,1404,1850,1503,1493,3,-4.72,20.62,13.35
1775506427.42,50.448039,30.451264,297.33,571.20,2.69,3.67,1400,1850,1519,1493,3,-4.72,20.62,13.35
1775506427.52,50.448039,30.451264,297.33,571.20,2.69,3.67,1400,1850,1519,1493,3,-4.72,20.62,13.35
1775506427.62,50.448012,30.451244,297.64,567.86,2.78,3.36,1405,1850,1502,1493,3,-4.65,20.61,13.37
1775506427.72,50.448012,30.451244,297.64,567.86,2.78,3.36,1401,1850,1518,1493,3,-4.65,20.61,13.37
1775506427.82,50.447985,30.451224,298.01,564.52,2.87,2.99,1406,1850,1499,1493,3,-4.56,20.61,13.34
1775506427.92,50.447985,30.451224,298.01,564.52,2.87,2.99,1402,1850,1517,1493,3,-4.56,20.61,13.34
1775506428.02,50.447985,30.451224,298.01,564.52,2.87,2.99,1402,1850,1517,1493,3,-4.56,20.61,13.34
1775506428.12,50.447958,30.451204,298.43,561.19,2.95,2.57,1407,1850,1495,1493,3,-4.48,20.60,13.33
1775506428.22,50.447958,30.451204,298.43,561.19,2.95,2.57,1403,1850,1516,1493,3,-4.48,20.60,13.33
1775506428.32,50.447930,30.451184,298.83,557.85,3.03,2.17,1408,1850,1494,1493,3,-4.46,20.60,13.31
1775506428.42,50.447930,30.451184,298.83,557.85,3.03,2.17,1405,1850,1515,1493,3,-4.46,20.60,13.31
1775506428.52,50.447930,30.451184,298.83,557.85,3.03,2.17,1405,1850,1515,1493,3,-4.46,20.60,13.31
1775506428.62,50.447903,30.451164,299.24,554.53,3.10,1.76,1409,1850,1493,1493,3,-4.39,20.60,13.30
1775506428.72,50.447903,30.451164,299.24,554.53,3.10,1.76,1406,1850,1513,1493,3,-4.39,20.60,13.30
1775506428.82,50.447876,30.451145,299.67,551.23,3.18,1.33,1410,1850,1491,1493,3,-4.32,20.61,13.31
1775506428.92,50.447876,30.451145,299.67,551.23,3.18,1.33,1407,1850,1512,1493,3,-4.32,20.61,13.31
1775506429.02,50.447876,30.451145,299.67,551.23,3.18,1.33,1407,1850,1512,1493,3,-4.32,20.61,13.31
1775506429.12,50.447849,30.451125,300.08,547.91,3.24,0.92,1411,1850,1490,1493,3,-4.24,20.61,13.27
1775506429.22,50.447849,30.451125,300.08,547.91,3.24,0.92,1408,1850,1511,1493,3,-4.24,20.61,13.27
1775506429.32,50.447822,30.451106,300.46,544.62,3.31,0.54,1412,1850,1490,1493,3,-4.20,20.61,13.24
1775506429.42,50.447822,30.451106,300.46,544.62,3.31,0.54,1409,1850,1510,1493,3,-4.20,20.61,13.24
1775506429.52,50.447822,30.451106,300.46,544.62,3.31,0.54,1409,1850,1510,1493,3,-4.20,20.61,13.24
1775506429.62,50.447795,30.451087,300.78,541.33,3.36,0.22,1412,1850,1493,1493,3,-4.12,20.60,13.19
1775506429.73,50.447795,30.451087,300.78,541.33,3.36,0.22,1410,1850,1509,1493,3,-4.12,20.60,13.19
1775506429.83,50.447769,30.451068,301.19,538.05,3.41,-0.19,1413,1850,1487,1493,3,-4.06,20.61,13.13
1775506429.93,50.447769,30.451068,301.19,538.05,3.41,-0.19,1410,1850,1508,1493,3,-4.06,20.61,13.13
1775506430.03,50.447769,30.451068,301.19,538.05,3.41,-0.19,1410,1850,1508,1493,3,-4.06,20.61,13.13
1775506430.13,50.447742,30.451048,301.52,534.79,3.46,-0.52,1413,1850,1490,1493,3,-4.02,20.63,13.15
1775506430.23,50.447742,30.451048,301.52,534.79,3.46,-0.52,1411,1850,1507,1493,3,-4.02,20.63,13.15
1775506430.33,50.447715,30.451030,301.83,531.51,3.50,-0.83,1413,1850,1490,1493,3,-4.01,20.64,13.17
1775506430.43,50.447715,30.451030,301.83,531.51,3.50,-0.83,1412,1850,1506,1493,3,-4.01,20.64,13.17
1775506430.53,50.447715,30.451030,301.83,531.51,3.50,-0.83,1412,1850,1506,1493,3,-4.01,20.64,13.17
1775506430.63,50.447688,30.451010,302.16,528.22,3.53,-1.16,1414,1850,1489,1493,3,-3.99,20.64,13.15
1775506430.73,50.447688,30.451010,302.16,528.22,3.53,-1.16,1412,1850,1505,1493,3,-3.99,20.64,13.15
1775506430.83,50.447661,30.450992,302.49,524.94,3.57,-1.49,1415,1850,1487,1493,3,-3.94,20.64,13.16
1775506430.93,50.447661,30.450992,302.49,524.94,3.57,-1.49,1413,1850,1504,1493,3,-3.94,20.64,13.16
1775506431.03,50.447661,30.450992,302.49,524.94,3.57,-1.49,1413,1850,1504,1493,3,-3.94,20.64,13.16
1775506431.13,50.447634,30.450972,302.78,521.64,3.60,-1.78,1415,1850,1488,1493,3,-3.92,20.64,13.15
1775506431.23,50.447634,30.450972,302.78,521.64,3.60,-1.78,1413,1850,1503,1493,3,-3.92,20.64,13.15
1775506431.33,50.447607,30.450954,303.06,518.35,3.62,-2.06,1415,1850,1488,1493,3,-3.87,20.63,13.14
1775506431.43,50.447607,30.450954,303.06,518.35,3.62,-2.06,1414,1850,1502,1493,3,-3.87,20.63,13.14
1775506431.53,50.447607,30.450954,303.06,518.35,3.62,-2.06,1414,1850,1502,1493,3,-3.87,20.63,13.14
1775506431.63,50.447580,30.450935,303.34,515.06,3.65,-2.34,1415,1850,1487,1493,3,-3.85,20.62,13.14
1775506431.73,50.447580,30.450935,303.34,515.06,3.65,-2.34,1414,1850,1501,1493,3,-3.85,20.62,13.14
1775506431.83,50.447553,30.450916,303.60,511.77,3.67,-2.60,1416,1850,1487,1493,3,-3.83,20.62,13.09
1775506431.93,50.447553,30.450916,303.60,511.77,3.67,-2.60,1415,1850,1500,1493,3,-3.83,20.62,13.09
1775506432.03,50.447553,30.450916,303.60,511.77,3.67,-2.60,1415,1850,1500,1493,3,-3.83,20.62,13.09
1775506432.13,50.447526,30.450897,303.87,508.51,3.68,-2.87,1416,1850,1486,1493,3,-3.81,20.63,13.08
1775506432.24,50.447526,30.450897,303.87,508.51,3.68,-2.87,1415,1850,1499,1493,3,-3.81,20.63,13.08
1775506432.34,50.447499,30.450879,304.11,505.23,3.69,-3.11,1415,1850,1486,1493,3,-3.80,20.64,13.09
1775506432.44,50.447499,30.450879,304.11,505.23,3.69,-3.11,1415,1850,1498,1493,3,-3.80,20.64,13.09
1775506432.54,50.447499,30.450879,304.11,505.23,3.69,-3.11,1415,1850,1498,1493,3,-3.80,20.64,13.09
1775506432.64,50.447472,30.450860,304.33,501.94,3.69,-3.33,1415,1850,1487,1493,3,-3.80,20.64,13.09
1775506432.74,50.447472,30.450860,304.33,501.94,3.69,-3.33,1415,1850,1498,1493,3,-3.80,20.64,13.09
1775506432.84,50.447445,30.450842,304.55,498.66,3.69,-3.55,1415,1850,1486,1493,3,-3.80,20.62,13.07
1775506432.94,50.447445,30.450842,304.55,498.66,3.69,-3.55,1415,1850,1497,1493,3,-3.80,20.62,13.07
1775506433.04,50.447445,30.450842,304.55,498.66,3.69,-3.55,1415,1850,1497,1493,3,-3.80,20.62,13.07
1775506433.14,50.447418,30.450823,304.77,495.37,3.70,-3.77,1416,1850,1485,1493,3,-3.79,20.62,13.05
1775506433.24,50.447418,30.450823,304.77,495.37,3.70,-3.77,1415,1850,1496,1493,3,-3.79,20.62,13.05
1775506433.34,50.447391,30.450805,305.02,492.10,3.70,-4.02,1416,1850,1483,1493,3,-3.79,20.62,13.02
1775506433.44,50.447391,30.450805,305.02,492.10,3.70,-4.02,1416,1850,1495,1493,3,-3.79,20.62,13.02
1775506433.54,50.447391,30.450805,305.02,492.10,3.70,-4.02,1416,1850,1495,1493,3,-3.79,20.62,13.02
1775506433.64,50.447364,30.450786,305.24,488.83,3.70,-4.24,1416,1850,1484,1493,3,-3.79,20.62,13.03
1775506433.74,50.447364,30.450786,305.24,488.83,3.70,-4.24,1416,1850,1495,1493,3,-3.79,20.62,13.03
1775506433.84,50.447338,30.450768,305.44,485.57,3.69,-4.44,1415,1850,1484,1493,3,-3.77,20.63,13.04
1775506433.94,50.447338,30.450768,305.44,485.57,3.69,-4.44,1416,1850,1494,1493,3,-3.77,20.63,13.04
1775506434.04,50.447338,30.450768,305.44,485.57,3.69,-4.44,1416,1850,1494,1493,3,-3.77,20.63,13.04
1775506434.14,50.447311,30.450750,305.60,482.30,3.69,-4.60,1415,1850,1485,1493,3,-3.77,20.64,13.02
1775506434.24,50.447311,30.450750,305.60,482.30,3.69,-4.60,1416,1850,1493,1493,3,-3.77,20.64,13.02
1775506434.34,50.447284,30.450731,305.76,479.06,3.67,-4.76,1415,1850,1485,1493,3,-3.77,20.63,12.98
1775506434.44,50.447284,30.450731,305.76,479.06,3.67,-4.76,1416,1850,1493,1493,3,-3.77,20.63,12.98
1775506434.54,50.447284,30.450731,305.76,479.06,3.67,-4.76,1416,1850,1493,1493,3,-3.77,20.63,12.98
1775506434.65,50.447257,30.450713,306.01,475.80,3.67,-5.01,1415,1850,1480,1493,3,-3.78,20.63,12.94
1775506434.75,50.447257,30.450713,306.01,475.80,3.67,-5.01,1416,1850,1492,1493,3,-3.78,20.63,12.94
1775506434.85,50.447230,30.450695,306.31,472.58,3.66,-5.31,1415,1850,1476,1493,3,-3.77,20.62,12.95
1775506434.95,50.447230,30.450695,306.31,472.58,3.66,-5.31,1416,1850,1491,1493,3,-3.77,20.62,12.95
1775506435.05,50.447230,30.450695,306.31,472.58,3.66,-5.31,1416,1850,1491,1493,3,-3.77,20.62,12.95
1775506435.15,50.447204,30.450677,306.54,469.35,3.65,-5.54,1415,1850,1478,1493,3,-3.77,20.62,12.94
1775506435.25,50.447204,30.450677,306.54,469.35,3.65,-5.54,1416,1850,1490,1493,3,-3.77,20.62,12.94
1775506435.35,50.447177,30.450659,306.79,466.12,3.64,-5.79,1415,1850,1477,1493,3,-3.76,20.61,12.90
1775506435.45,50.447177,30.450659,306.79,466.12,3.64,-5.79,1415,1850,1489,1493,3,-3.76,20.61,12.90
1775506435.55,50.447177,30.450659,306.79,466.12,3.64,-5.79,1416,1850,1489,1493,3,-3.76,20.61,12.90
1775506435.65,50.447151,30.450641,307.07,462.91,3.63,-6.07,1415,1850,1474,1493,3,-3.77,20.61,12.87
1775506435.75,50.447151,30.450641,307.07,462.91,3.63,-6.07,1415,1850,1488,1493,3,-3.77,20.61,12.87
1775506435.85,50.447124,30.450623,307.36,459.70,3.62,-6.36,1415,1850,1473,1493,3,-3.80,20.63,12.83
1775506435.95,50.447124,30.450623,307.36,459.70,3.62,-6.36,1415,1850,1487,1493,3,-3.80,20.63,12.83
1775506436.05,50.447124,30.450623,307.36,459.70,3.62,-6.36,1415,1850,1487,1493,3,-3.80,20.63,12.83
1775506436.15,50.447098,30.450605,307.62,456.49,3.61,-6.62,1415,1850,1473,1493,3,-3.83,20.65,12.85
1775506436.25,50.447098,30.450605,307.62,456.49,3.61,-6.62,1415,1850,1486,1493,3,-3.83,20.65,12.85
1775506436.35,50.447071,30.450587,307.87,453.29,3.61,-6.87,1415,1850,1473,1493,3,-3.83,20.64,12.83
1775506436.45,50.447071,30.450587,307.87,453.29,3.61,-6.87,1415,1850,1485,1493,3,-3.83,20.64,12.83
1775506436.55,50.447045,30.450569,308.11,450.08,3.59,-7.11,1414,1850,1472,1493,3,-3.82,20.63,12.83
1775506436.65,50.447045,30.450569,308.11,450.08,3.59,-7.11,1415,1850,1484,1493,3,-3.82,20.63,12.83
1775506436.75,50.447045,30.450569,308.11,450.08,3.59,-7.11,1415,1850,1484,1493,3,-3.82,20.63,12.83
1775506436.85,50.447018,30.450551,308.36,446.85,3.58,-7.36,1414,1850,1471,1493,3,-3.82,20.62,12.81
1775506436.95,50.447018,30.450551,308.36,446.85,3.58,-7.36,1415,1850,1483,1493,3,-3.82,20.62,12.81
1775506437.05,50.446992,30.450533,308.60,443.66,3.56,-7.60,1414,1850,1471,1493,3,-3.81,20.61,12.83
1775506437.16,50.446992,30.450533,308.60,443.66,3.56,-7.60,1415,1850,1482,1493,3,-3.81,20.61,12.83
1775506437.26,50.446992,30.450533,308.60,443.66,3.56,-7.60,1415,1850,1482,1493,3,-3.81,20.61,12.83
1775506437.36,50.446965,30.450515,308.80,440.44,3.55,-7.80,1414,1850,1472,1493,3,-3.82,20.61,12.76
1775506437.46,50.446965,30.450515,308.80,440.44,3.55,-7.80,1415,1850,1482,1493,3,-3.82,20.61,12.76
1775506437.56,50.446965,30.450515,308.80,440.44,3.55,-7.80,1415,1850,1482,1493,3,-3.82,20.61,12.76
1775506437.66,50.446939,30.450498,309.06,437.25,3.54,-8.06,1414,1850,1468,1493,3,-3.83,20.61,12.72
1775506437.76,50.446939,30.450498,309.06,437.25,3.54,-8.06,1415,1850,1481,1493,3,-3.83,20.61,12.72
1775506437.86,50.446913,30.450480,309.23,434.07,3.52,-8.23,1414,1850,1472,1493,3,-3.84,20.61,12.75
1775506437.96,50.446913,30.450480,309.23,434.07,3.52,-8.23,1415,1850,1480,1493,3,-3.84,20.61,12.75
1775506438.06,50.446913,30.450480,309.23,434.07,3.52,-8.23,1415,1850,1480,1492,3,-3.84,20.61,12.75
1775506438.16,50.446886,30.450462,309.33,430.88,3.50,-8.33,1414,1850,1474,1492,3,-3.83,20.61,12.74
1775506438.26,50.446886,30.450462,309.33,430.88,3.50,-8.33,1414,1850,1479,1492,3,-3.83,20.61,12.74
1775506438.36,50.446860,30.450444,309.44,427.70,3.49,-8.44,1414,1850,1473,1492,3,-3.82,20.62,12.77
1775506438.46,50.446860,30.450444,309.44,427.70,3.49,-8.44,1414,1850,1479,1492,3,-3.82,20.62,12.77
1775506438.56,50.446860,30.450444,309.44,427.70,3.49,-8.44,1414,1850,1479,1492,3,-3.82,20.62,12.77
1775506438.66,50.446834,30.450427,309.59,424.52,3.47,-8.59,1413,1850,1471,1492,3,-3.84,20.62,12.76
1775506438.76,50.446834,30.450427,309.59,424.52,3.47,-8.59,1414,1850,1478,1492,3,-3.84,20.62,12.76
1775506438.86,50.446808,30.450409,309.74,421.32,3.45,-8.74,1413,1850,1470,1492,3,-3.86,20.62,12.77
1775506438.96,50.446808,30.450409,309.74,421.32,3.45,-8.74,1414,1850,1477,1492,3,-3.86,20.62,12.77
1775506439.06,50.446808,30.450409,309.74,421.32,3.45,-8.74,1414,1850,1477,1492,3,-3.86,20.62,12.77
1775506439.16,50.446781,30.450391,309.90,418.12,3.43,-8.90,1413,1850,1469,1492,3,-3.89,20.61,12.78
1775506439.27,50.446781,30.450391,309.90,418.12,3.43,-8.90,1414,1850,1477,1492,3,-3.89,20.61,12.78
1775506439.37,50.446755,30.450373,310.02,414.92,3.41,-9.02,1413,1850,1470,1492,3,-3.90,20.60,12.76
1775506439.47,50.446755,30.450373,310.02,414.92,3.41,-9.02,1414,1850,1476,1492,3,-3.90,20.60,12.76
1775506439.57,50.446729,30.450355,310.11,411.75,3.41,-9.11,1413,1850,1472,1492,3,-3.88,20.63,12.73
1775506439.67,50.446729,30.450355,310.11,411.75,3.41,-9.11,1414,1850,1476,1492,3,-3.88,20.63,12.73
1775506439.77,50.446729,30.450355,310.11,411.75,3.41,-9.11,1414,1850,1476,1492,3,-3.88,20.63,12.73
1775506439.87,50.446703,30.450338,310.09,408.59,3.39,-9.09,1413,1850,1476,1492,3,-3.90,20.64,12.70
1775506439.97,50.446703,30.450338,310.09,408.59,3.39,-9.09,1413,1850,1476,1492,3,-3.90,20.64,12.70
1775506440.07,50.446677,30.450320,310.09,405.43,3.37,-9.09,1413,1850,1475,1492,3,-3.90,20.64,12.69
1775506440.17,50.446677,30.450320,310.09,405.43,3.37,-9.09,1413,1850,1475,1492,3,-3.90,20.64,12.69
1775506440.27,50.446677,30.450320,310.09,405.43,3.37,-9.09,1413,1850,1475,1492,3,-3.90,20.64,12.69
1775506440.37,50.446650,30.450303,310.07,402.27,3.36,-9.07,1412,1850,1476,1492,3,-3.90,20.64,12.68
1775506440.47,50.446650,30.450303,310.07,402.27,3.36,-9.07,1413,1850,1475,1492,3,-3.90,20.64,12.68
1775506440.57,50.446624,30.450285,310.01,399.13,3.34,-9.01,1412,1850,1479,1492,3,-3.92,20.64,12.65
1775506440.67,50.446624,30.450285,310.01,399.13,3.34,-9.01,1413,1850,1475,1492,3,-3.92,20.64,12.65
1775506440.77,50.446624,30.450285,310.01,399.13,3.34,-9.01,1413,1850,1475,1492,3,-3.92,20.64,12.65
1775506440.87,50.446598,30.450267,309.91,395.96,3.32,-8.91,1412,1850,1480,1492,3,-3.94,20.64,12.66
1775506440.97,50.446598,30.450267,309.91,395.96,3.32,-8.91,1413,1850,1475,1492,3,-3.94,20.64,12.66
1775506441.07,50.446572,30.450250,309.87,392.81,3.31,-8.87,1412,1850,1477,1492,3,-3.95,20.64,12.65
1775506441.17,50.446572,30.450250,309.87,392.81,3.31,-8.87,1413,1850,1475,1492,3,-3.95,20.64,12.65
1775506441.27,50.446572,30.450250,309.87,392.81,3.31,-8.87,1413,1850,1475,1492,3,-3.95,20.64,12.65
1775506441.37,50.446546,30.450232,309.86,389.64,3.30,-8.86,1412,1850,1476,1492,3,-3.98,20.62,12.64
