Timestamp,Lat,Lon,Alt,DistToTarget,XTE,AltError,RollPWM,PitchPWM,ThrottlePWM,YawPWM,Heading,RollDeg,PitchDeg,GroundSpeed
1775522944.67,50.450739,30.453154,0.00,900.25,0.00,5.00,1500,1500,1545,1500,1,0.09,0.08,0.01
1775522944.77,50.450739,30.453154,0.00,900.25,0.00,5.00,1500,1500,1545,1500,1,0.09,0.08,0.01
1775522944.87,50.450739,30.453154,0.00,900.25,0.00,5.00,1500,1500,1545,1500,1,0.10,0.08,0.01
1775522944.97,50.450739,30.453154,0.00,900.25,0.00,5.00,1500,1500,1545,1500,1,0.10,0.08,0.01
1775522945.07,50.450739,30.453154,0.00,900.25,0.00,5.00,1500,1500,1546,1500,1,0.10,0.08,0.01
1775522945.17,50.450739,30.453154,0.00,900.25,0.00,5.00,1500,1500,1546,1500,1,0.10,0.09,0.01
1775522945.27,50.450739,30.453154,0.00,900.25,0.00,5.00,1500,1500,1546,1500,1,0.10,0.09,0.01
1775522945.37,50.450739,30.453154,0.00,900.25,0.00,5.00,1500,1500,1547,1500,1,0.10,0.09,0.01
1775522945.47,50.450739,30.453154,0.00,900.25,0.00,5.00,1500,1500,1547,1500,1,0.10,0.09,0.01
1775522945.57,50.450739,30.453154,0.00,900.25,0.00,5.00,1500,1500,1547,1500,1,0.10,0.09,0.01
1775522945.67,50.450739,30.453154,0.00,900.25,0.00,5.00,1500,1500,1548,1500,1,0.11,0.09,0.01
1775522945.77,50.450739,30.453154,0.00,900.25,0.00,5.00,1500,1500,1548,1500,1,0.11,0.09,0.01
1775522945.87,50.450739,30.453154,0.00,900.25,0.00,5.00,1500,1500,1548,1500,1,0.11,0.10,0.01
1775522945.97,50.450739,30.453154,0.00,900.25,0.00,5.00,1500,1500,1548,1500,1,0.11,0.10,0.01
1775522946.07,50.450739,30.453154,0.00,900.25,0.00,5.00,1500,1500,1549,1500,1,0.11,0.10,0.01
1775522946.17,50.450739,30.453154,0.00,900.25,0.00,5.00,1500,1500,1549,1500,1,0.11,0.10,0.01
1775522946.27,50.450739,30.453154,0.00,900.25,0.00,5.00,1500,1500,1549,1500,1,0.11,0.10,0.01
1775522946.37,50.450739,30.453154,0.00,900.25,0.00,5.00,1500,1500,1550,1500,1,0.12,0.10,0.01
1775522946.47,50.450739,30.453154,0.00,900.25,0.00,5.00,1500,1500,1550,1500,1,0.12,0.10,0.01
1775522946.57,50.450739,30.453154,0.00,900.25,0.00,5.00,1500,1500,1550,1500,1,0.12,0.10,0.01
1775522946.67,50.450739,30.453154,0.04,900.25,0.00,4.96,1500,1500,1546,1500,1,0.12,0.11,0.01
1775522946.77,50.450739,30.453154,0.04,900.25,0.00,4.96,1500,1500,1551,1500,1,0.12,0.11,0.01
1775522946.87,50.450739,30.453154,0.09,900.25,0.00,4.91,1500,1500,1546,1500,1,0.12,0.11,0.01
1775522946.97,50.450739,30.453154,0.09,900.25,0.00,4.91,1500,1500,1551,1500,1,0.12,0.11,0.01
1775522947.08,50.450739,30.453154,0.09,900.25,0.00,4.91,1500,1500,1551,1500,1,0.12,0.11,0.01
1775522947.18,50.450739,30.453154,0.13,900.25,0.00,4.87,1500,1500,1547,1500,1,0.11,0.11,0.01
1775522947.28,50.450739,30.453154,0.13,900.25,0.00,4.87,1500,1500,1552,1500,1,0.11,0.11,0.01
1775522947.38,50.450739,30.453154,0.35,900.25,0.00,4.65,1500,1500,1528,1500,1,-0.00,-0.03,0.01
1775522947.48,50.450739,30.453154,0.35,900.25,0.00,4.65,1500,1500,1551,1500,1,-0.00,-0.03,0.01
1775522947.58,50.450739,30.453154,0.35,900.25,0.00,4.65,1500,1500,1551,1500,1,-0.00,-0.03,0.01
1775522947.68,50.450739,30.453154,0.80,900.25,0.00,4.20,1500,1500,1504,1500,1,-0.06,-0.08,0.01
1775522947.78,50.450739,30.453154,0.80,900.25,0.00,4.20,1500,1500,1549,1500,1,-0.06,-0.08,0.01
1775522947.88,50.450739,30.453154,1.30,900.25,0.00,3.70,1500,1500,1497,1500,1,-0.07,-0.06,0.02
1775522947.98,50.450739,30.453154,1.30,900.25,0.00,3.70,1500,1500,1546,1500,1,-0.07,-0.06,0.02
1775522948.08,50.450739,30.453154,1.30,900.25,0.00,3.70,1500,1500,1547,1500,1,-0.07,-0.06,0.02
1775522948.18,50.450739,30.453154,1.83,900.25,0.00,3.17,1500,1500,1490,1500,1,-0.05,-0.03,0.05
1775522948.28,50.450739,30.453154,1.83,900.25,0.00,3.17,1500,1500,1544,1500,1,-0.05,-0.03,0.05
1775522948.38,50.450739,30.453153,2.38,900.25,0.00,2.62,1500,1500,1486,1500,1,-0.04,-0.03,0.09
1775522948.48,50.450739,30.453153,2.38,900.25,0.00,2.62,1500,1500,1541,1500,1,-0.04,-0.03,0.09
1775522948.58,50.450739,30.453153,2.38,900.25,0.00,2.62,1500,1500,1541,1500,1,-0.04,-0.03,0.09
1775522948.68,50.450739,30.453153,2.92,900.25,0.00,2.08,1500,1500,1485,1507,0,-0.02,-0.03,0.15
1775522948.78,50.450739,30.453153,2.92,900.25,0.00,2.08,1500,1500,1538,1503,0,-0.02,-0.03,0.15
1775522948.88,50.450739,30.453153,3.45,900.25,0.00,1.55,1500,1500,1482,1503,0,-0.02,-0.02,0.21
1775522948.98,50.450739,30.453153,3.45,900.25,0.00,1.55,1500,1500,1535,1503,0,-0.02,-0.02,0.21
1775522949.08,50.450739,30.453153,3.45,900.25,0.00,1.55,1500,1500,1535,1503,0,-0.02,-0.02,0.21
1775522949.18,50.450738,30.453152,3.96,900.25,0.00,1.04,1500,1500,1481,1503,0,-0.01,0.00,0.29
1775522949.28,50.450738,30.453152,3.96,900.25,0.00,1.04,1500,1500,1532,1503,0,-0.01,0.00,0.29
1775522949.38,50.450738,30.453151,4.51,900.04,0.14,2.49,1464,1593,1514,1503,0,-0.04,0.00,0.37
1775522949.48,50.450738,30.453151,4.51,900.04,0.14,4.49,1464,1593,1726,1503,0,-0.04,0.00,0.37
1775522949.58,50.450738,30.453151,4.51,900.04,0.14,6.49,1464,1593,1739,1503,0,-0.04,0.00,0.37
1775522949.69,50.450737,30.453150,5.13,899.95,0.17,7.87,1469,1596,1685,1503,0,-0.41,1.64,0.47
1775522949.79,50.450737,30.453150,5.13,899.95,0.17,9.87,1465,1594,1759,1503,0,-0.41,1.64,0.47
1775522949.89,50.450736,30.453149,6.04,899.81,0.20,10.96,1470,1596,1676,1503,0,-0.76,3.68,0.71
1775522949.99,50.450736,30.453149,6.04,899.81,0.20,12.96,1466,1594,1779,1503,0,-0.76,3.68,0.71
1775522950.09,50.450736,30.453149,6.04,899.81,0.20,14.96,1466,1594,1793,1503,0,-0.76,3.68,0.71
1775522950.19,50.450734,30.453147,7.15,899.59,0.22,15.85,1470,1596,1688,1503,0,-0.81,4.45,1.06
1775522950.29,50.450734,30.453147,7.15,899.59,0.22,17.85,1467,1594,1800,1503,0,-0.81,4.45,1.06
1775522950.39,50.450732,30.453145,8.56,899.29,0.25,18.44,1471,1596,1676,1503,0,-0.77,4.66,1.42
1775522950.49,50.450732,30.453145,8.56,899.29,0.25,20.44,1468,1595,1800,1503,0,-0.77,4.66,1.42
1775522950.59,50.450732,30.453145,8.56,899.29,0.25,22.44,1468,1595,1800,1503,0,-0.77,4.66,1.42
1775522950.69,50.450729,30.453143,10.21,898.90,0.25,22.79,1468,1595,1683,1503,0,-0.71,4.69,1.78
1775522950.79,50.450729,30.453143,10.21,898.90,0.25,24.79,1468,1595,1800,1503,0,-0.71,4.69,1.78
1775522950.89,50.450725,30.453141,12.05,898.43,0.24,24.95,1467,1594,1679,1503,0,-0.72,4.70,2.05
1775522950.99,50.450725,30.453141,12.05,898.43,0.24,26.95,1468,1595,1800,1503,0,-0.72,4.70,2.05
1775522951.09,50.450725,30.453141,12.05,898.43,0.24,28.95,1468,1595,1800,1503,0,-0.72,4.70,2.05
1775522951.19,50.450720,30.453138,13.99,897.88,0.22,29.01,1464,1593,1699,1503,0,-0.76,4.70,2.34
1775522951.29,50.450720,30.453138,13.99,897.88,0.22,31.01,1467,1594,1800,1503,0,-0.76,4.70,2.34
1775522951.39,50.450715,30.453135,16.11,897.27,0.20,30.89,1463,1593,1690,1503,0,-0.80,4.66,2.62
1775522951.49,50.450715,30.453135,16.11,897.27,0.20,32.89,1466,1594,1800,1503,0,-0.80,4.66,2.62
1775522951.59,50.450709,30.453131,18.28,896.58,0.16,32.72,1460,1591,1694,1503,0,-0.90,4.61,2.88
1775522951.69,50.450709,30.453131,18.28,896.58,0.16,34.72,1465,1594,1800,1503,0,-0.90,4.61,2.88
1775522951.79,50.450709,30.453131,18.28,896.58,0.16,36.72,1465,1594,1800,1503,0,-0.90,4.61,2.88
1775522951.89,50.450703,30.453128,20.52,895.83,0.12,36.48,1459,1591,1708,1503,0,-1.02,4.56,3.13
1775522951.99,50.450703,30.453128,20.52,895.83,0.12,38.48,1464,1593,1800,1503,0,-1.02,4.56,3.13
1775522952.10,50.450703,30.453128,20.52,895.83,0.12,40.48,1464,1593,1800,1503,0,-1.02,4.56,3.13
1775522952.20,50.450696,30.453123,22.79,895.02,0.09,40.21,1459,1591,1726,1503,0,-1.09,4.54,3.36
1775522952.30,50.450696,30.453123,22.79,895.02,0.09,42.21,1463,1593,1800,1503,0,-1.09,4.54,3.36
1775522952.40,50.450689,30.453119,25.08,894.16,0.07,41.92,1459,1591,1733,1503,0,-1.13,4.52,3.61
1775522952.50,50.450689,30.453119,25.08,894.16,0.07,43.92,1462,1592,1800,1503,0,-1.13,4.52,3.61
1775522952.60,50.450689,30.453119,25.08,894.16,0.07,45.92,1462,1592,1800,1503,0,-1.13,4.52,3.61
1775522952.70,50.450681,30.453114,27.55,893.21,0.04,45.45,1457,1590,1734,1503,0,-1.17,4.52,3.86
1775522952.80,50.450681,30.453114,27.55,893.21,0.04,47.45,1461,1592,1800,1503,0,-1.17,4.52,3.86
1775522952.90,50.450673,30.453108,30.05,892.21,0.02,46.95,1457,1590,1739,1503,0,-1.23,4.49,4.08
1775522953.00,50.450673,30.453108,30.05,892.21,0.02,48.95,1460,1592,1800,1503,0,-1.23,4.49,4.08
1775522953.10,50.450673,30.453108,30.05,892.21,0.02,50.95,1460,1592,1800,1503,0,-1.23,4.49,4.08
1775522953.20,50.450664,30.453103,32.55,891.17,-0.01,50.45,1457,1590,1760,1503,0,-1.30,4.48,4.26
1775522953.30,50.450664,30.453103,32.55,891.17,-0.01,52.45,1460,1591,1800,1503,0,-1.30,4.48,4.26
1775522953.40,50.450655,30.453097,34.92,890.08,-0.02,52.08,1458,1590,1781,1503,0,-1.32,4.47,4.47
1775522953.50,50.450655,30.453097,34.92,890.08,-0.02,54.08,1459,1591,1800,1503,0,-1.32,4.47,4.47
1775522953.60,50.450655,30.453097,34.92,890.08,-0.02,56.08,1459,1591,1800,1503,0,-1.32,4.47,4.47
1775522953.70,50.450646,30.453090,37.42,888.93,-0.03,55.58,1458,1591,1788,1503,0,-1.31,4.41,4.68
1775522953.80,50.450646,30.453090,37.42,888.93,-0.03,57.58,1459,1591,1800,1503,0,-1.31,4.41,4.68
1775522953.90,50.450636,30.453084,39.92,887.73,-0.03,57.08,1458,1591,1798,1503,0,-1.34,4.40,4.86
1775522954.00,50.450636,30.453084,39.92,887.73,-0.03,59.08,1459,1591,1800,1503,0,-1.34,4.40,4.86
1775522954.10,50.450636,30.453084,39.92,887.73,-0.03,61.08,1459,1591,1800,1503,0,-1.34,4.40,4.86
1775522954.20,50.450626,30.453077,42.36,886.49,-0.03,60.64,1459,1591,1800,1503,0,-1.33,4.43,5.03
1775522954.30,50.450626,30.453077,42.36,886.49,-0.03,62.64,1459,1591,1800,1503,0,-1.33,4.43,5.03
1775522954.40,50.450615,30.453069,44.82,885.21,-0.02,62.18,1461,1592,1800,1503,0,-1.32,4.44,5.22
1775522954.51,50.450615,30.453069,44.82,885.21,-0.02,64.18,1459,1591,1800,1503,0,-1.32,4.44,5.22
1775522954.61,50.450615,30.453069,44.82,885.21,-0.02,66.18,1459,1591,1800,1503,0,-1.32,4.44,5.22
1775522954.71,50.450604,30.453062,47.28,883.89,0.00,65.72,1463,1593,1800,1503,0,-1.30,4.45,5.40
1775522954.81,50.450604,30.453062,47.28,883.89,0.00,67.72,1460,1591,1800,1503,0,-1.30,4.45,5.40
1775522954.91,50.450593,30.453054,49.78,882.51,0.01,67.22,1462,1592,1800,1503,0,-1.27,4.46,5.59
1775522955.01,50.450593,30.453054,49.78,882.51,0.01,69.22,1460,1592,1800,1503,0,-1.27,4.46,5.59
1775522955.11,50.450593,30.453054,49.78,882.51,0.01,71.22,1460,1592,1800,1503,0,-1.27,4.46,5.59
1775522955.21,50.450581,30.453046,52.36,881.09,0.04,70.64,1464,1593,1800,1503,0,-1.20,4.48,5.75
1775522955.31,50.450581,30.453046,52.36,881.09,0.04,72.64,1461,1592,1800,1503,0,-1.20,4.48,5.75
1775522955.41,50.450570,30.453037,54.89,879.65,0.06,72.11,1466,1594,1800,1503,0,-1.17,4.50,5.89
1775522955.51,50.450570,30.453037,54.89,879.65,0.06,74.11,1462,1592,1800,1503,0,-1.17,4.50,5.89
1775522955.61,50.450557,30.453028,57.41,878.15,0.09,73.59,1467,1594,1800,1503,0,-1.07,4.54,6.06
1775522955.71,50.450557,30.453028,57.41,878.15,0.09,75.59,1463,1593,1800,1503,0,-1.07,4.54,6.06
1775522955.81,50.450557,30.453028,57.41,878.15,0.09,77.59,1463,1593,1800,1503,0,-1.07,4.54,6.06
1775522955.91,50.450545,30.453019,59.91,876.61,0.12,77.09,1467,1594,1800,1503,0,-1.00,4.56,6.21
1775522956.01,50.450545,30.453019,59.91,876.61,0.12,79.09,1464,1593,1800,1503,0,-1.00,4.56,6.21
1775522956.11,50.450532,30.453010,62.33,875.04,0.15,78.67,1470,1596,1800,1503,0,-0.97,4.57,6.34
1775522956.21,50.450532,30.453010,62.33,875.04,0.15,80.67,1465,1594,1800,1503,0,-0.97,4.57,6.34
1775522956.31,50.450532,30.453010,62.33,875.04,0.15,82.67,1465,1594,1800,1503,0,-0.97,4.57,6.34
1775522956.41,50.450519,30.453000,64.83,873.44,0.19,82.17,1471,1596,1800,1503,0,-0.88,4.59,6.49
1775522956.51,50.450519,30.453000,64.83,873.44,0.19,84.17,1466,1594,1800,1503,0,-0.88,4.59,6.49
1775522956.61,50.450519,30.453000,64.83,873.44,0.19,86.17,1466,1594,1800,1503,0,-0.88,4.59,6.49
1775522956.71,50.450505,30.452991,67.39,871.80,0.21,85.61,1471,1596,1800,1503,0,-0.83,4.61,6.60
1775522956.82,50.450505,30.452991,67.39,871.80,0.21,87.61,1467,1594,1800,1503,0,-0.83,4.61,6.60
1775522956.92,50.450492,30.452981,69.93,870.13,0.25,87.07,1472,1597,1800,1503,0,-0.78,4.63,6.68
1775522957.02,50.450492,30.452981,69.93,870.13,0.25,89.07,1468,1595,1800,1503,0,-0.78,4.63,6.68
1775522957.12,50.450478,30.452971,72.48,868.46,0.27,88.52,1473,1597,1800,1503,0,-0.69,4.66,6.77
1775522957.22,50.450478,30.452971,72.48,868.46,0.27,90.52,1469,1595,1800,1503,0,-0.69,4.66,6.77
1775522957.32,50.450478,30.452971,72.48,868.46,0.27,92.52,1469,1595,1800,1503,0,-0.69,4.66,6.77
1775522957.42,50.450464,30.452961,75.00,866.76,0.30,92.00,1474,1598,1800,1503,0,-0.61,4.74,6.87
1775522957.52,50.450464,30.452961,75.00,866.76,0.30,94.00,1470,1596,1800,1503,0,-0.61,4.74,6.87
1775522957.62,50.450450,30.452951,77.56,865.02,0.32,93.44,1473,1597,1800,1503,0,-0.57,4.78,6.95
1775522957.72,50.450450,30.452951,77.56,865.02,0.32,95.44,1471,1596,1800,1503,0,-0.57,4.78,6.95
1775522957.82,50.450450,30.452951,77.56,865.02,0.32,97.44,1471,1596,1800,1503,0,-0.57,4.78,6.95
1775522957.92,50.450436,30.452941,80.20,863.27,0.34,96.80,1473,1597,1800,1503,0,-0.53,4.80,7.03
1775522958.02,50.450436,30.452941,80.20,863.27,0.34,98.80,1471,1596,1800,1503,0,-0.53,4.80,7.03
1775522958.12,50.450421,30.452931,82.78,861.51,0.36,98.22,1475,1598,1800,1503,0,-0.51,4.80,7.09
1775522958.22,50.450421,30.452931,82.78,861.51,0.36,100.22,1472,1597,1800,1503,0,-0.51,4.80,7.09
1775522958.32,50.450421,30.452931,82.78,861.51,0.36,102.22,1472,1597,1800,1503,0,-0.51,4.80,7.09
1775522958.42,50.450407,30.452921,85.42,859.72,0.37,101.58,1473,1597,1800,1503,0,-0.47,4.82,7.15
1775522958.52,50.450407,30.452921,85.42,859.72,0.37,103.58,1472,1597,1800,1503,0,-0.47,4.82,7.15
1775522958.62,50.450392,30.452911,88.03,857.92,0.37,102.97,1473,1597,1800,1503,0,-0.47,4.82,7.21
1775522958.72,50.450392,30.452911,88.03,857.92,0.37,104.97,1473,1597,1800,1503,0,-0.47,4.82,7.21
1775522958.82,50.450392,30.452911,88.03,857.92,0.37,106.97,1473,1597,1800,1503,0,-0.47,4.82,7.21
1775522958.92,50.450377,30.452900,90.61,856.11,0.37,106.39,1473,1597,1800,1503,0,-0.47,4.82,7.24
1775522959.02,50.450377,30.452900,90.61,856.11,0.37,108.39,1473,1597,1800,1503,0,-0.47,4.82,7.24
1775522959.12,50.450362,30.452890,93.24,854.30,0.37,107.76,1473,1597,1800,1503,0,-0.46,4.82,7.31
1775522959.22,50.450362,30.452890,93.24,854.30,0.37,109.76,1473,1597,1800,1503,0,-0.46,4.82,7.31
1775522959.32,50.450362,30.452890,93.24,854.30,0.37,111.76,1473,1597,1800,1503,0,-0.46,4.82,7.31
1775522959.43,50.450347,30.452880,95.78,852.47,0.36,111.22,1471,1596,1800,1503,0,-0.46,4.81,7.31
1775522959.53,50.450347,30.452880,95.78,852.47,0.36,113.22,1472,1597,1800,1503,0,-0.46,4.81,7.31
1775522959.63,50.450332,30.452870,98.32,850.65,0.36,112.68,1472,1596,1800,1503,0,-0.48,4.79,7.35
1775522959.73,50.450332,30.452870,98.32,850.65,0.36,114.68,1472,1597,1800,1503,0,-0.48,4.79,7.35
1775522959.83,50.450332,30.452870,98.32,850.65,0.36,116.68,1472,1597,1800,1503,0,-0.48,4.79,7.35
1775522959.93,50.450317,30.452859,100.95,848.81,0.35,116.05,1470,1596,1800,1503,0,-0.49,4.78,7.37
1775522960.03,50.450317,30.452859,100.95,848.81,0.35,118.05,1472,1597,1800,1503,0,-0.49,4.78,7.37
1775522960.13,50.450302,30.452849,103.53,846.98,0.34,117.47,1470,1596,1800,1503,0,-0.53,4.77,7.40
1775522960.23,50.450302,30.452849,103.53,846.98,0.34,119.47,1472,1596,1800,1503,0,-0.53,4.77,7.40
1775522960.33,50.450302,30.452849,103.53,846.98,0.34,121.47,1472,1596,1800,1503,0,-0.53,4.77,7.40
1775522960.43,50.450286,30.452839,106.14,845.14,0.32,120.86,1469,1596,1800,1503,0,-0.56,4.78,7.42
1775522960.53,50.450286,30.452839,106.14,845.14,0.32,122.86,1471,1596,1800,1503,0,-0.56,4.78,7.42
1775522960.63,50.450271,30.452829,108.69,843.30,0.31,122.31,1469,1595,1800,1503,0,-0.58,4.78,7.43
1775522960.73,50.450271,30.452829,108.69,843.30,0.31,124.31,1471,1596,1800,1503,0,-0.58,4.78,7.43
1775522960.83,50.450271,30.452829,108.69,843.30,0.31,126.31,1471,1596,1800,1503,0,-0.58,4.78,7.43
1775522960.93,50.450256,30.452819,111.23,841.45,0.30,125.77,1469,1595,1800,1503,0,-0.62,4.74,7.45
1775522961.03,50.450256,30.452819,111.23,841.45,0.30,127.77,1471,1596,1800,1503,0,-0.62,4.74,7.45
1775522961.13,50.450241,30.452808,113.74,839.60,0.29,127.26,1469,1595,1800,1503,0,-0.62,4.71,7.45
1775522961.23,50.450241,30.452808,113.74,839.60,0.29,129.26,1470,1596,1800,1503,0,-0.62,4.71,7.45
1775522961.33,50.450241,30.452808,113.74,839.60,0.29,131.26,1470,1596,1800,1503,0,-0.62,4.71,7.45
1775522961.43,50.450225,30.452798,116.23,837.73,0.28,130.77,1469,1595,1800,1503,0,-0.61,4.70,7.47
1775522961.53,50.450225,30.452798,116.23,837.73,0.28,132.77,1470,1596,1800,1503,0,-0.61,4.70,7.47
1775522961.63,50.450210,30.452787,118.81,835.88,0.27,132.19,1469,1595,1800,1503,0,-0.63,4.70,7.49
1775522961.73,50.450210,30.452787,118.81,835.88,0.27,134.19,1470,1596,1800,1503,0,-0.63,4.70,7.49
1775522961.83,50.450210,30.452787,118.81,835.88,0.27,136.19,1470,1596,1800,1503,0,-0.63,4.70,7.49
1775522961.93,50.450194,30.452777,121.43,834.00,0.26,135.57,1468,1595,1800,1503,0,-0.65,4.72,7.51
1775522962.03,50.450194,30.452777,121.43,834.00,0.26,137.57,1470,1596,1800,1503,0,-0.65,4.72,7.51
1775522962.14,50.450179,30.452766,123.98,832.12,0.26,137.02,1469,1595,1800,1503,0,-0.68,4.71,7.51
1775522962.24,50.450179,30.452766,123.98,832.12,0.26,139.02,1470,1596,1800,1503,0,-0.68,4.71,7.51
1775522962.34,50.450179,30.452766,123.98,832.12,0.26,141.02,1470,1596,1800,1503,0,-0.68,4.71,7.51
1775522962.44,50.450164,30.452756,126.40,830.25,0.25,140.60,1469,1595,1800,1503,0,-0.69,4.71,7.52
1775522962.54,50.450164,30.452756,126.40,830.25,0.25,142.60,1470,1596,1800,1503,0,-0.69,4.71,7.52
1775522962.64,50.450148,30.452745,128.85,828.36,0.26,142.15,1471,1596,1800,1503,0,-0.67,4.71,7.54
1775522962.74,50.450148,30.452745,128.85,828.36,0.26,144.15,1470,1596,1800,1503,0,-0.67,4.71,7.54
1775522962.84,50.450148,30.452745,128.85,828.36,0.26,146.15,1470,1596,1800,1503,0,-0.67,4.71,7.54
1775522962.94,50.450133,30.452735,131.35,826.48,0.26,145.65,1470,1596,1800,1503,0,-0.64,4.73,7.54
1775522963.04,50.450133,30.452735,131.35,826.48,0.26,147.65,1470,1596,1800,1503,0,-0.64,4.73,7.54
1775522963.14,50.450117,30.452724,133.92,824.60,0.26,147.08,1471,1596,1800,1503,0,-0.63,4.73,7.52
1775522963.24,50.450117,30.452724,133.92,824.60,0.26,149.08,1470,1596,1800,1503,0,-0.63,4.73,7.52
1775522963.34,50.450117,30.452724,133.92,824.60,0.26,151.08,1470,1596,1800,1503,0,-0.63,4.73,7.52
1775522963.44,50.450102,30.452713,136.42,822.72,0.27,150.58,1471,1596,1800,1503,0,-0.61,4.74,7.52
1775522963.54,50.450102,30.452713,136.42,822.72,0.27,152.58,1470,1596,1800,1503,0,-0.61,4.74,7.52
1775522963.64,50.450086,30.452703,138.89,820.84,0.27,152.11,1471,1596,1800,1503,0,-0.60,4.74,7.55
1775522963.74,50.450086,30.452703,138.89,820.84,0.27,154.11,1470,1596,1800,1503,0,-0.60,4.74,7.55
1775522963.84,50.450086,30.452703,138.89,820.84,0.27,156.11,1470,1596,1800,1503,0,-0.60,4.74,7.55
1775522963.94,50.450071,30.452692,141.48,818.95,0.27,155.52,1470,1596,1800,1503,0,-0.60,4.74,7.59
1775522964.04,50.450071,30.452692,141.48,818.95,0.27,157.52,1470,1596,1800,1503,0,-0.60,4.74,7.59
1775522964.14,50.450055,30.452681,144.12,817.04,0.27,156.88,1471,1596,1800,1503,0,-0.62,4.73,7.62
1775522964.24,50.450055,30.452681,144.12,817.04,0.27,156.88,1470,1596,1800,1503,0,-0.62,4.73,7.62
1775522964.34,50.450055,30.452681,144.12,817.04,0.27,156.88,1470,1596,1800,1503,0,-0.62,4.73,7.62
1775522964.45,50.450039,30.452671,146.78,815.13,0.27,154.22,1470,1596,1800,1503,0,-0.63,4.74,7.62
1775522964.55,50.450039,30.452671,146.78,815.13,0.27,154.22,1470,1596,1800,1503,0,-0.63,4.74,7.62
1775522964.65,50.450023,30.452660,149.41,813.23,0.27,151.59,1471,1596,1800,1503,0,-0.63,4.74,7.64
1775522964.75,50.450023,30.452660,149.41,813.23,0.27,151.59,1471,1596,1800,1503,0,-0.63,4.74,7.64
1775522964.85,50.450023,30.452660,149.41,813.23,0.27,151.59,1471,1596,1800,1503,0,-0.63,4.74,7.64
1775522964.95,50.450008,30.452649,152.20,811.31,0.27,148.80,1470,1596,1800,1503,0,-0.61,4.75,7.67
1775522965.05,50.450008,30.452649,152.20,811.31,0.27,148.80,1471,1596,1800,1503,0,-0.61,4.75,7.67
1775522965.15,50.449992,30.452638,155.02,809.40,0.27,145.98,1470,1596,1800,1503,0,-0.61,4.74,7.66
1775522965.25,50.449992,30.452638,155.02,809.40,0.27,145.98,1470,1596,1800,1503,0,-0.61,4.74,7.66
1775522965.35,50.449992,30.452638,155.02,809.40,0.27,145.98,1471,1596,1800,1503,0,-0.61,4.74,7.66
1775522965.45,50.449976,30.452627,157.86,807.50,0.27,143.14,1471,1596,1800,1503,0,-0.61,4.73,7.67
1775522965.55,50.449976,30.452627,157.86,807.50,0.27,143.14,1471,1596,1800,1503,0,-0.61,4.73,7.67
1775522965.65,50.449960,30.452617,160.64,805.58,0.26,140.36,1469,1595,1800,1503,0,-0.61,4.72,7.64
1775522965.75,50.449960,30.452617,160.64,805.58,0.26,140.36,1470,1596,1800,1503,0,-0.61,4.72,7.64
1775522965.85,50.449945,30.452606,163.41,803.68,0.26,137.59,1471,1596,1800,1503,0,-0.60,4.72,7.67
1775522965.95,50.449945,30.452606,163.41,803.68,0.26,137.59,1471,1596,1800,1503,0,-0.60,4.72,7.67
1775522966.05,50.449945,30.452606,163.41,803.68,0.26,137.59,1471,1596,1800,1503,0,-0.60,4.72,7.67
1775522966.15,50.449929,30.452595,166.19,801.77,0.26,134.81,1470,1596,1800,1503,0,-0.60,4.73,7.65
1775522966.25,50.449929,30.452595,166.19,801.77,0.26,134.81,1471,1596,1800,1503,0,-0.60,4.73,7.65
1775522966.35,50.449929,30.452595,166.19,801.77,0.26,134.81,1471,1596,1800,1503,0,-0.60,4.73,7.65
1775522966.46,50.449913,30.452585,168.98,799.85,0.25,132.02,1469,1595,1800,1503,0,-0.60,4.75,7.68
1775522966.56,50.449913,30.452585,168.98,799.85,0.25,132.02,1470,1596,1800,1503,0,-0.60,4.75,7.68
1775522966.66,50.449897,30.452574,171.72,797.93,0.26,129.28,1471,1596,1800,1503,0,-0.61,4.74,7.66
1775522966.76,50.449897,30.452574,171.72,797.93,0.26,129.28,1471,1596,1800,1503,0,-0.61,4.74,7.66
1775522966.86,50.449897,30.452574,171.72,797.93,0.26,129.28,1471,1596,1800,1503,0,-0.61,4.74,7.66
1775522966.96,50.449882,30.452563,174.33,796.01,0.25,126.67,1469,1595,1800,1503,0,-0.62,4.74,7.62
1775522967.06,50.449882,30.452563,174.33,796.01,0.25,126.67,1470,1596,1800,1503,0,-0.62,4.74,7.62
1775522967.16,50.449866,30.452552,176.88,794.11,0.25,124.12,1470,1596,1800,1503,0,-0.62,4.74,7.60
1775522967.26,50.449866,30.452552,176.88,794.11,0.25,124.12,1470,1596,1800,1503,0,-0.62,4.74,7.60
1775522967.36,50.449866,30.452552,176.88,794.11,0.25,124.12,1470,1596,1800,1503,0,-0.62,4.74,7.60
1775522967.46,50.449850,30.452542,179.28,792.21,0.25,121.72,1471,1596,1800,1503,0,-0.62,4.74,7.59
1775522967.56,50.449850,30.452542,179.28,792.21,0.25,121.72,1470,1596,1800,1503,0,-0.62,4.74,7.59
1775522967.66,50.449835,30.452531,181.66,790.31,0.25,119.34,1470,1596,1800,1503,0,-0.63,4.75,7.62
1775522967.76,50.449835,30.452531,181.66,790.31,0.25,119.34,1470,1596,1800,1503,0,-0.63,4.75,7.62
1775522967.86,50.449835,30.452531,181.66,790.31,0.25,119.34,1470,1596,1800,1503,0,-0.63,4.75,7.62
1775522967.96,50.449819,30.452520,184.14,788.40,0.24,116.86,1470,1596,1800,1503,0,-0.63,4.75,7.68
1775522968.06,50.449819,30.452520,184.14,788.40,0.24,116.86,1470,1596,1800,1503,0,-0.63,4.75,7.68
1775522968.16,50.449803,30.452509,186.65,786.48,0.24,114.35,1469,1595,1800,1503,0,-0.63,4.75,7.71
1775522968.26,50.449803,30.452509,186.65,786.48,0.24,114.35,1470,1596,1800,1503,0,-0.63,4.75,7.71
1775522968.36,50.449803,30.452509,186.65,786.48,0.24,114.35,1470,1596,1800,1503,0,-0.63,4.75,7.71
1775522968.46,50.449787,30.452499,189.19,784.54,0.24,111.81,1470,1596,1800,1503,0,-0.62,4.73,7.70
1775522968.56,50.449787,30.452499,189.19,784.54,0.24,111.81,1470,1596,1800,1503,0,-0.62,4.73,7.70
1775522968.66,50.449771,30.452488,191.71,782.62,0.23,109.29,1469,1595,1800,1503,0,-0.63,4.74,7.74
1775522968.76,50.449771,30.452488,191.71,782.62,0.23,109.29,1470,1596,1800,1503,0,-0.63,4.74,7.74
1775522968.86,50.449755,30.452477,194.37,780.67,0.23,106.63,1469,1595,1800,1503,0,-0.65,4.73,7.74
1775522968.97,50.449755,30.452477,194.37,780.67,0.23,106.63,1470,1596,1800,1503,0,-0.65,4.73,7.74
1775522969.07,50.449755,30.452477,194.37,780.67,0.23,106.63,1470,1596,1800,1503,0,-0.65,4.73,7.74
1775522969.17,50.449739,30.452466,196.97,778.75,0.22,104.03,1469,1595,1800,1503,0,-0.66,4.72,7.70
1775522969.27,50.449739,30.452466,196.97,778.75,0.22,104.03,1470,1596,1800,1503,0,-0.66,4.72,7.70
1775522969.37,50.449723,30.452455,199.67,776.83,0.22,101.33,1470,1596,1800,1503,0,-0.67,4.72,7.72
1775522969.47,50.449723,30.452455,199.67,776.83,0.22,101.33,1470,1596,1800,1503,0,-0.67,4.72,7.72
1775522969.57,50.449723,30.452455,199.67,776.83,0.22,101.33,1470,1596,1800,1503,0,-0.67,4.72,7.72
1775522969.67,50.449708,30.452444,202.35,774.91,0.22,98.65,1470,1596,1800,1503,0,-0.67,4.72,7.70
1775522969.77,50.449708,30.452444,202.35,774.91,0.22,98.65,1470,1596,1800,1503,0,-0.67,4.72,7.70
1775522969.87,50.449708,30.452444,202.35,774.91,0.22,98.65,1470,1596,1800,1503,0,-0.67,4.72,7.70
1775522969.97,50.449692,30.452434,204.89,773.00,0.22,96.11,1469,1595,1800,1503,0,-0.65,4.73,7.67
1775522970.07,50.449692,30.452434,204.89,773.00,0.22,96.11,1470,1596,1800,1503,0,-0.65,4.73,7.67
1775522970.17,50.449676,30.452423,207.32,771.09,0.21,93.68,1470,1596,1800,1503,0,-0.64,4.73,7.68
1775522970.27,50.449676,30.452423,207.32,771.09,0.21,93.68,1470,1596,1800,1503,0,-0.64,4.73,7.68
1775522970.37,50.449660,30.452412,209.79,769.17,0.21,91.21,1470,1596,1800,1503,0,-0.63,4.73,7.68
1775522970.47,50.449660,30.452412,209.79,769.17,0.21,91.21,1470,1596,1800,1503,0,-0.63,4.73,7.68
1775522970.57,50.449660,30.452412,209.79,769.17,0.21,91.21,1470,1596,1800,1503,0,-0.63,4.73,7.68
1775522970.67,50.449645,30.452401,212.30,767.25,0.21,88.70,1470,1596,1783,1503,0,-0.62,4.74,7.68
1775522970.77,50.449645,30.452401,212.30,767.25,0.21,88.70,1470,1596,1800,1503,0,-0.62,4.74,7.68
1775522970.87,50.449629,30.452390,214.74,765.32,0.21,86.26,1469,1595,1774,1503,0,-0.60,4.75,7.67
1775522970.97,50.449629,30.452390,214.74,765.32,0.21,86.26,1470,1596,1800,1503,0,-0.60,4.75,7.67
1775522971.07,50.449629,30.452390,214.74,765.32,0.21,86.26,1470,1596,1800,1503,0,-0.60,4.75,7.67
1775522971.17,50.449613,30.452380,217.13,763.41,0.19,83.87,1467,1595,1764,1503,0,-0.60,4.76,7.67
1775522971.27,50.449613,30.452380,217.13,763.41,0.19,83.87,1469,1595,1800,1503,0,-0.60,4.76,7.67
1775522971.38,50.449597,30.452369,219.58,761.49,0.18,81.42,1468,1595,1744,1503,0,-0.66,4.73,7.66
1775522971.48,50.449597,30.452369,219.58,761.49,0.18,81.42,1469,1595,1800,1503,0,-0.66,4.73,7.66
1775522971.58,50.449597,30.452369,219.58,761.49,0.18,81.42,1469,1595,1800,1503,0,-0.66,4.73,7.66
1775522971.68,50.449581,30.452359,222.01,759.57,0.17,78.99,1466,1594,1731,1503,0,-0.71,4.69,7.69
1775522971.78,50.449581,30.452359,222.01,759.57,0.17,78.99,1468,1595,1800,1503,0,-0.71,4.69,7.69
1775522971.88,50.449565,30.452348,224.53,757.65,0.15,76.47,1466,1594,1707,1503,0,-0.75,4.66,7.73
1775522971.98,50.449565,30.452348,224.53,757.65,0.15,76.47,1468,1595,1800,1503,0,-0.75,4.66,7.73
1775522972.08,50.449565,30.452348,224.53,757.65,0.15,76.47,1468,1595,1800,1503,0,-0.75,4.66,7.73
1775522972.18,50.449549,30.452337,227.12,755.72,0.14,73.88,1466,1594,1685,1503,0,-0.82,4.65,7.73
1775522972.28,50.449549,30.452337,227.12,755.72,0.14,73.88,1468,1595,1800,1503,0,-0.82,4.65,7.73
1775522972.38,50.449534,30.452326,229.66,753.79,0.14,71.34,1467,1594,1673,1503,0,-0.81,4.64,7.68
1775522972.48,50.449534,30.452326,229.66,753.79,0.14,71.34,1467,1595,1800,1503,0,-0.81,4.64,7.68
1775522972.58,50.449534,30.452326,229.66,753.79,0.14,71.34,1468,1595,1800,1503,0,-0.81,4.64,7.68
1775522972.68,50.449518,30.452316,232.18,751.87,0.12,68.82,1465,1594,1662,1503,0,-0.81,4.65,7.68
1775522972.78,50.449518,30.452316,232.18,751.87,0.12,68.82,1467,1594,1800,1503,0,-0.81,4.65,7.68
1775522972.88,50.449502,30.452305,234.69,749.94,0.12,66.31,1466,1594,1648,1503,0,-0.82,4.66,7.65
1775522972.98,50.449502,30.452305,234.69,749.94,0.12,66.31,1467,1594,1800,1503,0,-0.82,4.66,7.65
1775522973.08,50.449502,30.452305,234.69,749.94,0.12,66.31,1467,1594,1800,1503,0,-0.82,4.66,7.65
1775522973.18,50.449486,30.452294,237.11,748.02,0.11,63.89,1466,1594,1642,1503,0,-0.86,4.65,7.66
1775522973.28,50.449486,30.452294,237.11,748.02,0.11,63.89,1467,1594,1800,1503,0,-0.86,4.65,7.66
1775522973.38,50.449470,30.452284,239.53,746.11,0.10,61.47,1465,1594,1627,1503,0,-0.87,4.63,7.66
1775522973.48,50.449470,30.452284,239.53,746.11,0.10,61.47,1467,1594,1800,1503,0,-0.87,4.63,7.66
1775522973.58,50.449470,30.452284,239.53,746.11,0.10,61.47,1467,1594,1800,1503,0,-0.87,4.63,7.66
1775522973.68,50.449454,30.452273,241.86,744.19,0.11,59.14,1467,1595,1621,1503,0,-0.86,4.61,7.65
1775522973.78,50.449454,30.452273,241.86,744.19,0.11,59.14,1467,1594,1800,1503,0,-0.86,4.61,7.65
1775522973.88,50.449439,30.452262,244.12,742.27,0.12,56.88,1468,1595,1617,1503,0,-0.85,4.63,7.64
1775522973.99,50.449439,30.452262,244.12,742.27,0.12,56.88,1467,1594,1800,1503,0,-0.85,4.63,7.64
1775522974.09,50.449439,30.452262,244.12,742.27,0.12,56.88,1467,1594,1800,1503,0,-0.85,4.63,7.64
1775522974.19,50.449423,30.452251,246.34,740.37,0.12,54.66,1468,1595,1606,1503,0,-0.82,4.65,7.65
1775522974.29,50.449423,30.452251,246.34,740.37,0.12,54.66,1467,1594,1800,1503,0,-0.82,4.65,7.65
1775522974.39,50.449407,30.452240,248.62,738.45,0.12,52.38,1467,1594,1587,1503,0,-0.80,4.66,7.64
1775522974.49,50.449407,30.452240,248.62,738.45,0.12,52.38,1467,1594,1800,1503,0,-0.80,4.66,7.64
1775522974.59,50.449407,30.452240,248.62,738.45,0.12,52.38,1467,1594,1800,1503,0,-0.80,4.66,7.64
1775522974.69,50.449391,30.452229,250.84,736.54,0.13,50.16,1466,1601,1579,1503,0,-0.79,4.64,7.64
1775522974.79,50.449391,30.452229,250.84,736.54,0.13,50.16,1465,1600,1800,1503,0,-0.79,4.64,7.64
1775522974.89,50.449376,30.452219,253.14,734.64,0.13,47.86,1458,1616,1558,1503,0,-0.82,4.73,7.64
1775522974.99,50.449376,30.452219,253.14,734.64,0.13,47.86,1458,1616,1787,1503,0,-0.82,4.73,7.64
1775522975.09,50.449376,30.452219,253.14,734.64,0.13,47.86,1458,1616,1787,1503,0,-0.82,4.73,7.64
1775522975.19,50.449360,30.452208,255.38,732.73,0.13,45.62,1452,1632,1550,1503,0,-1.06,5.30,7.64
1775522975.29,50.449360,30.452208,255.38,732.73,0.13,45.62,1452,1632,1773,1503,0,-1.06,5.30,7.64
1775522975.39,50.449344,30.452197,257.71,730.81,0.14,43.29,1445,1648,1526,1503,0,-1.37,6.03,7.73
1775522975.49,50.449344,30.452197,257.71,730.81,0.14,43.29,1445,1648,1759,1503,0,-1.37,6.03,7.73
1775522975.59,50.449344,30.452197,257.71,730.81,0.14,43.29,1445,1648,1759,1503,0,-1.37,6.03,7.73
1775522975.69,50.449329,30.452186,259.99,728.89,0.14,41.01,1439,1664,1518,1503,0,-1.81,7.10,7.76
1775522975.79,50.449329,30.452186,259.99,728.89,0.14,41.01,1438,1664,1746,1503,0,-1.81,7.10,7.76
1775522975.89,50.449312,30.452175,262.15,726.94,0.15,38.85,1433,1679,1517,1503,0,-2.17,8.01,7.84
1775522975.99,50.449312,30.452175,262.15,726.94,0.15,38.85,1432,1679,1733,1503,0,-2.17,8.01,7.84
1775522976.09,50.449312,30.452175,262.15,726.94,0.15,38.85,1432,1679,1733,1503,0,-2.17,8.01,7.84
1775522976.19,50.449296,30.452164,264.14,724.99,0.16,36.86,1427,1693,1523,1503,0,-2.58,9.04,8.02
1775522976.29,50.449296,30.452164,264.14,724.99,0.16,36.86,1426,1692,1721,1503,0,-2.58,9.04,8.02
1775522976.39,50.449280,30.452152,266.12,722.95,0.17,34.88,1422,1707,1511,1503,0,-2.94,9.92,8.21
1775522976.49,50.449280,30.452152,266.12,722.95,0.17,34.88,1421,1706,1709,1503,0,-2.94,9.92,8.21
1775522976.59,50.449280,30.452152,266.12,722.95,0.17,34.88,1421,1706,1709,1503,0,-2.94,9.92,8.21
1775522976.70,50.449263,30.452140,268.00,720.88,0.17,33.00,1416,1719,1510,1503,0,-3.29,10.85,8.39
1775522976.80,50.449263,30.452140,268.00,720.88,0.17,33.00,1415,1719,1698,1503,0,-3.29,10.85,8.39
1775522976.90,50.449245,30.452128,269.72,718.76,0.18,31.28,1411,1731,1515,1503,0,-3.61,11.60,8.65
1775522977.00,50.449245,30.452128,269.72,718.76,0.18,31.28,1410,1731,1687,1503,0,-3.61,11.60,8.65
1775522977.10,50.449245,30.452128,269.72,718.76,0.18,31.28,1410,1731,1687,1503,0,-3.61,11.60,8.65
1775522977.20,50.449227,30.452116,271.41,716.55,0.18,29.59,1406,1743,1511,1503,0,-3.96,12.47,8.95
1775522977.30,50.449227,30.452116,271.41,716.55,0.18,29.59,1405,1743,1681,1503,0,-3.96,12.47,8.95
1775522977.40,50.449208,30.452103,273.08,714.28,0.18,27.92,1400,1754,1506,1503,0,-4.25,13.18,9.24
1775522977.50,50.449208,30.452103,273.08,714.28,0.18,27.92,1400,1754,1674,1503,0,-4.25,13.18,9.24
1775522977.60,50.449208,30.452103,273.08,714.28,0.18,27.92,1400,1754,1676,1503,0,-4.25,13.18,9.24
1775522977.70,50.449189,30.452090,274.67,711.93,0.19,26.33,1396,1766,1509,1503,0,-4.57,13.97,9.56
1775522977.80,50.449189,30.452090,274.67,711.93,0.19,26.33,1396,1765,1669,1503,0,-4.57,13.97,9.56
1775522977.90,50.449169,30.452076,276.25,709.50,0.19,24.75,1392,1777,1504,1503,0,-4.83,14.63,9.87
1775522978.00,50.449169,30.452076,276.25,709.50,0.19,24.75,1391,1776,1663,1503,0,-4.83,14.63,9.87
1775522978.10,50.449169,30.452076,276.25,709.50,0.19,24.75,1391,1776,1664,1503,0,-4.83,14.63,9.87
1775522978.20,50.449148,30.452062,277.75,707.00,0.19,23.25,1387,1786,1507,1503,0,-5.10,15.39,10.17
1775522978.30,50.449148,30.452062,277.75,707.00,0.19,23.25,1387,1787,1658,1503,0,-5.10,15.39,10.17
1775522978.40,50.449127,30.452047,279.29,704.42,0.20,21.71,1383,1797,1497,1503,0,-5.34,16.00,10.46
1775522978.50,50.449127,30.452047,279.29,704.42,0.20,21.71,1382,1797,1651,1503,0,-5.34,16.00,10.46
1775522978.60,50.449127,30.452047,279.29,704.42,0.20,21.71,1382,1797,1653,1503,0,-5.34,16.00,10.46
1775522978.70,50.449105,30.452032,280.69,701.77,0.20,20.31,1379,1807,1506,1503,0,-5.63,16.74,10.73
1775522978.80,50.449105,30.452032,280.69,701.77,0.20,20.31,1378,1807,1647,1503,0,-5.63,16.74,10.73
1775522978.90,50.449083,30.452017,282.08,699.05,0.21,18.92,1375,1817,1501,1503,0,-5.85,17.34,11.07
1775522979.00,50.449083,30.452017,282.08,699.05,0.21,18.92,1374,1816,1641,1503,0,-5.85,17.34,11.07
1775522979.11,50.449083,30.452017,282.08,699.05,0.21,18.92,1374,1816,1642,1503,0,-5.85,17.34,11.07
1775522979.21,50.449060,30.452001,283.47,696.23,0.21,17.53,1370,1826,1496,1503,0,-6.08,17.96,11.35
1775522979.31,50.449060,30.452001,283.47,696.23,0.21,17.53,1370,1826,1636,1503,0,-6.08,17.96,11.35
1775522979.41,50.449036,30.451985,284.81,693.36,0.22,16.19,1368,1836,1494,1503,0,-6.27,18.50,11.62
1775522979.51,50.449036,30.451985,284.81,693.36,0.22,16.19,1367,1835,1630,1503,0,-6.27,18.50,11.62
1775522979.61,50.449036,30.451985,284.81,693.36,0.22,16.19,1367,1835,1631,1503,0,-6.27,18.50,11.62
1775522979.71,50.449012,30.451968,286.08,690.42,0.22,14.92,1363,1844,1498,1503,0,-6.49,19.15,11.88
1775522979.81,50.449012,30.451968,286.08,690.42,0.22,14.92,1363,1844,1625,1503,0,-6.49,19.15,11.88
1775522979.91,50.448987,30.451951,287.32,687.42,0.23,13.68,1361,1850,1494,1503,0,-6.66,19.69,12.15
1775522980.01,50.448987,30.451951,287.32,687.42,0.23,13.68,1360,1850,1619,1503,0,-6.66,19.69,12.15
1775522980.11,50.448987,30.451951,287.32,687.42,0.23,13.68,1360,1850,1620,1503,0,-6.66,19.69,12.15
1775522980.21,50.448962,30.451933,288.51,684.35,0.25,12.49,1359,1850,1495,1503,0,-6.86,20.22,12.41
1775522980.31,50.448962,30.451933,288.51,684.35,0.25,12.49,1357,1850,1614,1503,0,-6.86,20.22,12.41
1775522980.41,50.448936,30.451915,289.67,681.22,0.27,11.33,1356,1850,1492,1503,0,-7.00,20.54,12.65
1775522980.51,50.448936,30.451915,289.67,681.22,0.27,11.33,1354,1850,1609,1503,0,-7.00,20.54,12.65
1775522980.61,50.448936,30.451915,289.67,681.22,0.27,11.33,1354,1850,1609,1503,0,-7.00,20.54,12.65
1775522980.71,50.448910,30.451897,290.77,678.03,0.29,10.23,1357,1850,1494,1503,0,-7.17,20.68,12.87
1775522980.81,50.448910,30.451897,290.77,678.03,0.29,10.23,1354,1850,1604,1503,0,-7.17,20.68,12.87
1775522980.91,50.448884,30.451878,291.92,674.78,0.32,9.08,1359,1850,1483,1503,0,-7.28,20.69,13.10
1775522981.01,50.448884,30.451878,291.92,674.78,0.32,9.08,1355,1850,1598,1503,0,-7.28,20.69,13.10
1775522981.11,50.448857,30.451860,293.06,671.50,0.36,7.94,1361,1850,1478,1503,0,-7.28,20.63,13.25
1775522981.21,50.448857,30.451860,293.06,671.50,0.36,7.94,1356,1850,1592,1503,0,-7.28,20.63,13.25
1775522981.31,50.448857,30.451860,293.06,671.50,0.36,7.94,1356,1850,1593,1503,0,-7.28,20.63,13.25
1775522981.42,50.448830,30.451840,294.16,668.18,0.40,6.84,1362,1850,1477,1503,0,-7.20,20.64,13.37
1775522981.52,50.448830,30.451840,294.16,668.18,0.40,6.84,1357,1850,1587,1503,0,-7.20,20.64,13.37
1775522981.62,50.448802,30.451821,295.14,664.86,0.45,5.86,1366,1850,1483,1503,0,-7.10,20.64,13.38
1775522981.72,50.448802,30.451821,295.14,664.86,0.45,5.86,1359,1850,1582,1503,0,-7.10,20.64,13.38
1775522981.82,50.448802,30.451821,295.14,664.86,0.45,5.86,1359,1850,1582,1503,0,-7.10,20.64,13.38
1775522981.92,50.448775,30.451801,296.00,661.52,0.50,5.00,1368,1850,1492,1503,0,-6.99,20.64,13.41
1775522982.02,50.448775,30.451801,296.00,661.52,0.50,5.00,1361,1850,1577,1503,0,-6.99,20.64,13.41
1775522982.12,50.448748,30.451782,296.76,658.15,0.56,4.24,1370,1850,1498,1503,0,-6.88,20.62,13.46
1775522982.22,50.448748,30.451782,296.76,658.15,0.56,4.24,1363,1850,1573,1503,0,-6.88,20.62,13.46
1775522982.32,50.448748,30.451782,296.76,658.15,0.56,4.24,1363,1850,1574,1503,0,-6.88,20.62,13.46
1775522982.42,50.448720,30.451762,297.47,654.79,0.62,3.53,1373,1850,1498,1503,0,-6.74,20.62,13.54
1775522982.52,50.448720,30.451762,297.47,654.79,0.62,3.53,1365,1850,1570,1503,0,-6.74,20.62,13.54
1775522982.62,50.448720,30.451762,297.47,654.79,0.62,3.53,1365,1850,1570,1503,0,-6.74,20.62,13.54
1775522982.72,50.448692,30.451742,298.14,651.40,0.68,2.86,1375,1850,1500,1503,0,-6.66,20.62,13.58
1775522982.82,50.448692,30.451742,298.14,651.40,0.68,2.86,1367,1850,1566,1503,0,-6.66,20.62,13.58
1775522982.92,50.448664,30.451722,298.77,647.97,0.75,2.23,1378,1850,1500,1503,0,-6.53,20.65,13.62
1775522983.02,50.448664,30.451722,298.77,647.97,0.75,2.23,1369,1850,1563,1503,0,-6.53,20.65,13.62
1775522983.12,50.448664,30.451722,298.77,647.97,0.75,2.23,1369,1850,1563,1503,0,-6.53,20.65,13.62
1775522983.22,50.448636,30.451702,299.40,644.55,0.81,1.60,1380,1850,1497,1503,0,-6.35,20.65,13.66
1775522983.32,50.448636,30.451702,299.40,644.55,0.81,1.60,1371,1850,1559,1503,0,-6.35,20.65,13.66
1775522983.42,50.448608,30.451681,300.01,641.12,0.88,0.99,1384,1850,1494,1503,0,-6.29,20.62,13.65
1775522983.52,50.448608,30.451681,300.01,641.12,0.88,0.99,1374,1850,1556,1503,0,-6.29,20.62,13.65
1775522983.62,50.448608,30.451681,300.01,641.12,0.88,0.99,1374,1850,1556,1503,0,-6.29,20.62,13.65
1775522983.72,50.448580,30.451661,300.59,637.69,0.94,0.41,1384,1850,1495,1503,0,-6.10,20.62,13.67
1775522983.82,50.448580,30.451661,300.59,637.69,0.94,0.41,1376,1850,1553,1503,0,-6.10,20.62,13.67
1775522983.93,50.448552,30.451641,301.12,634.26,1.01,-0.12,1387,1850,1497,1503,0,-6.00,20.62,13.67
1775522984.03,50.448552,30.451641,301.12,634.26,1.01,-0.12,1378,1850,1549,1503,0,-6.00,20.62,13.67
1775522984.13,50.448552,30.451641,301.12,634.26,1.01,-0.12,1378,1850,1549,1503,0,-6.00,20.62,13.67
1775522984.23,50.448524,30.451621,301.68,630.85,1.08,-0.68,1389,1850,1490,1503,0,-5.85,20.63,13.67
1775522984.33,50.448524,30.451621,301.68,630.85,1.08,-0.68,1381,1850,1546,1503,0,-5.85,20.63,13.67
1775522984.43,50.448496,30.451601,302.35,627.42,1.13,-1.35,1390,1850,1475,1503,0,-5.81,20.64,13.65
1775522984.53,50.448496,30.451601,302.35,627.42,1.13,-1.35,1382,1850,1542,1503,0,-5.81,20.64,13.65
1775522984.63,50.448469,30.451581,302.99,624.02,1.19,-1.99,1392,1850,1474,1503,0,-5.63,20.62,13.62
1775522984.73,50.448469,30.451581,302.99,624.02,1.19,-1.99,1384,1850,1538,1503,0,-5.63,20.62,13.62
1775522984.83,50.448469,30.451581,302.99,624.02,1.19,-1.99,1384,1850,1537,1503,0,-5.63,20.62,13.62
1775522984.93,50.448441,30.451561,303.62,620.61,1.24,-2.62,1394,1850,1471,1503,0,-5.51,20.61,13.59
1775522985.03,50.448441,30.451561,303.62,620.61,1.24,-2.62,1387,1850,1533,1503,0,-5.51,20.61,13.59
1775522985.13,50.448413,30.451541,304.25,617.23,1.29,-3.25,1395,1850,1467,1503,0,-5.38,20.61,13.53
1775522985.23,50.448413,30.451541,304.25,617.23,1.29,-3.25,1388,1850,1529,1503,0,-5.38,20.61,13.53
1775522985.33,50.448413,30.451541,304.25,617.23,1.29,-3.25,1388,1850,1529,1503,0,-5.38,20.61,13.53
1775522985.43,50.448385,30.451522,304.68,613.84,1.33,-3.68,1395,1850,1484,1503,0,-5.24,20.60,13.45
1775522985.53,50.448385,30.451522,304.68,613.84,1.33,-3.68,1390,1850,1526,1503,0,-5.24,20.60,13.45
1775522985.63,50.448358,30.451503,305.00,610.49,1.36,-4.00,1395,1850,1492,1503,0,-5.20,20.60,13.44
1775522985.73,50.448358,30.451503,305.00,610.49,1.36,-4.00,1391,1850,1524,1503,0,-5.20,20.60,13.44
1775522985.83,50.448358,30.451503,305.00,610.49,1.36,-4.00,1391,1850,1523,1503,0,-5.20,20.60,13.44
1775522985.93,50.448330,30.451483,305.29,607.14,1.39,-4.29,1395,1850,1492,1503,0,-5.14,20.61,13.45
1775522986.03,50.448330,30.451483,305.29,607.14,1.39,-4.29,1392,1850,1521,1503,0,-5.14,20.61,13.45
1775522986.13,50.448303,30.451464,305.64,603.79,1.41,-4.64,1396,1850,1484,1503,0,-5.12,20.61,13.46
1775522986.23,50.448303,30.451464,305.64,603.79,1.41,-4.64,1393,1850,1518,1503,0,-5.12,20.61,13.46
1775522986.33,50.448303,30.451464,305.64,603.79,1.41,-4.64,1393,1850,1518,1503,0,-5.12,20.61,13.46
1775522986.44,50.448275,30.451445,305.99,600.44,1.43,-4.99,1396,1850,1481,1503,0,-5.05,20.60,13.43
1775522986.54,50.448275,30.451445,305.99,600.44,1.43,-4.99,1394,1850,1515,1503,0,-5.05,20.60,13.43
1775522986.64,50.448248,30.451426,306.37,597.11,1.44,-5.37,1397,1850,1475,1503,0,-5.02,20.62,13.39
1775522986.74,50.448248,30.451426,306.37,597.11,1.44,-5.37,1395,1850,1513,1503,0,-5.02,20.62,13.39
1775522986.84,50.448248,30.451426,306.37,597.11,1.44,-5.37,1395,1850,1512,1503,0,-5.02,20.62,13.39
1775522986.94,50.448221,30.451407,306.77,593.78,1.45,-5.77,1396,1850,1470,1503,0,-4.96,20.62,13.38
1775522987.04,50.448221,30.451407,306.77,593.78,1.45,-5.77,1395,1850,1509,1503,0,-4.96,20.62,13.38
1775522987.14,50.448193,30.451388,307.18,590.43,1.46,-6.18,1397,1850,1466,1503,0,-4.96,20.61,13.34
1775522987.24,50.448193,30.451388,307.18,590.43,1.46,-6.18,1396,1850,1506,1503,0,-4.96,20.61,13.34
1775522987.34,50.448193,30.451388,307.18,590.43,1.46,-6.18,1396,1850,1506,1503,0,-4.96,20.61,13.34
1775522987.44,50.448166,30.451369,307.53,587.11,1.47,-6.53,1397,1850,1468,1503,0,-4.93,20.60,13.27
1775522987.54,50.448166,30.451369,307.53,587.11,1.47,-6.53,1396,1850,1503,1503,0,-4.93,20.60,13.27
1775522987.64,50.448138,30.451351,307.86,583.79,1.47,-6.86,1397,1850,1467,1503,0,-4.91,20.60,13.22
1775522987.74,50.448138,30.451351,307.86,583.79,1.47,-6.86,1397,1850,1500,1503,0,-4.91,20.60,13.22
1775522987.84,50.448138,30.451351,307.86,583.79,1.47,-6.86,1397,1850,1499,1503,0,-4.91,20.60,13.22
1775522987.94,50.448111,30.451332,308.20,580.50,1.48,-7.20,1398,1850,1464,1503,0,-4.90,20.60,13.16
1775522988.04,50.448111,30.451332,308.20,580.50,1.48,-7.20,1397,1850,1497,1503,0,-4.90,20.60,13.16
1775522988.14,50.448084,30.451313,308.50,577.21,1.48,-7.50,1398,1850,1464,1503,0,-4.88,20.61,13.17
1775522988.24,50.448084,30.451313,308.50,577.21,1.48,-7.50,1398,1850,1494,1503,0,-4.88,20.61,13.17
1775522988.34,50.448084,30.451313,308.50,577.21,1.48,-7.50,1398,1850,1493,1503,0,-4.88,20.61,13.17
1775522988.44,50.448057,30.451295,308.77,573.93,1.47,-7.77,1396,1850,1464,1503,0,-4.83,20.62,13.12
1775522988.54,50.448057,30.451295,308.77,573.93,1.47,-7.77,1398,1850,1491,1503,0,-4.83,20.62,13.12
1775522988.64,50.448030,30.451277,309.01,570.66,1.46,-8.01,1395,1850,1465,1503,0,-4.82,20.63,13.11
1775522988.75,50.448030,30.451277,309.01,570.66,1.46,-8.01,1397,1850,1488,1503,0,-4.82,20.63,13.11
1775522988.85,50.448030,30.451277,309.01,570.66,1.46,-8.01,1397,1850,1488,1503,0,-4.82,20.63,13.11
1775522988.95,50.448003,30.451258,309.23,567.40,1.45,-8.23,1396,1850,1464,1503,0,-4.85,20.63,13.08
1775522989.05,50.448003,30.451258,309.23,567.40,1.45,-8.23,1397,1850,1486,1503,0,-4.85,20.63,13.08
1775522989.15,50.447976,30.451240,309.48,564.13,1.44,-8.48,1395,1850,1459,1503,0,-4.88,20.60,13.06
1775522989.25,50.447976,30.451240,309.48,564.13,1.44,-8.48,1397,1850,1483,1503,0,-4.88,20.60,13.06
1775522989.35,50.447976,30.451240,309.48,564.13,1.44,-8.48,1397,1850,1483,1503,0,-4.88,20.60,13.06
1775522989.45,50.447950,30.451222,309.68,560.88,1.43,-8.68,1396,1850,1461,1503,0,-4.92,20.60,13.02
1775522989.55,50.447950,30.451222,309.68,560.88,1.43,-8.68,1397,1850,1480,1503,0,-4.92,20.60,13.02
1775522989.65,50.447923,30.451204,309.88,557.63,1.42,-8.88,1396,1850,1459,1503,0,-4.94,20.62,13.00
1775522989.75,50.447923,30.451204,309.88,557.63,1.42,-8.88,1397,1850,1478,1503,0,-4.94,20.62,13.00
1775522989.85,50.447923,30.451204,309.88,557.63,1.42,-8.88,1397,1850,1478,1503,0,-4.94,20.62,13.00
1775522989.95,50.447896,30.451185,310.02,554.37,1.42,-9.02,1397,1850,1462,1503,0,-4.91,20.63,13.00
1775522990.05,50.447896,30.451185,310.02,554.37,1.42,-9.02,1397,1850,1476,1503,0,-4.91,20.63,13.00
1775522990.15,50.447869,30.451167,310.16,551.15,1.41,-9.16,1396,1850,1460,1503,0,-4.89,20.62,12.99
1775522990.25,50.447869,30.451167,310.16,551.15,1.41,-9.16,1397,1850,1474,1503,0,-4.89,20.62,12.99
1775522990.35,50.447869,30.451167,310.16,551.15,1.41,-9.16,1397,1850,1473,1503,0,-4.89,20.62,12.99
1775522990.45,50.447843,30.451149,310.28,547.92,1.40,-9.28,1396,1850,1460,1503,0,-4.87,20.61,12.97
1775522990.55,50.447843,30.451149,310.28,547.92,1.40,-9.28,1397,1850,1471,1503,0,-4.87,20.61,12.97
1775522990.65,50.447816,30.451131,310.40,544.71,1.39,-9.40,1396,1850,1458,1503,0,-4.87,20.60,12.91
1775522990.75,50.447816,30.451131,310.40,544.71,1.39,-9.40,1397,1850,1469,1503,0,-4.87,20.60,12.91
1775522990.85,50.447816,30.451131,310.40,544.71,1.39,-9.40,1397,1850,1469,1503,0,-4.87,20.60,12.91
1775522990.95,50.447790,30.451113,310.47,541.50,1.39,-9.47,1397,1850,1461,1503,0,-4.89,20.61,12.88
1775522991.05,50.447790,30.451113,310.47,541.50,1.39,-9.47,1397,1850,1467,1503,0,-4.89,20.61,12.88
1775522991.15,50.447764,30.451095,310.54,538.30,1.38,-9.54,1397,1850,1460,1503,0,-4.89,20.61,12.84
1775522991.25,50.447764,30.451095,310.54,538.30,1.38,-9.54,1397,1850,1466,1503,0,-4.89,20.61,12.84
1775522991.35,50.447764,30.451095,310.54,538.30,1.38,-9.54,1397,1850,1465,1503,0,-4.89,20.61,12.84
1775522991.46,50.447737,30.451077,310.53,535.10,1.38,-9.53,1397,1850,1466,1503,0,-4.87,20.63,12.82
1775522991.56,50.447737,30.451077,310.53,535.10,1.38,-9.53,1398,1850,1464,1503,0,-4.87,20.63,12.82
1775522991.66,50.447711,30.451059,310.51,531.91,1.38,-9.51,1398,1850,1466,1503,0,-4.86,20.64,12.75
1775522991.76,50.447711,30.451059,310.51,531.91,1.38,-9.51,1398,1850,1463,1503,0,-4.86,20.64,12.75
1775522991.86,50.447711,30.451059,310.51,531.91,1.38,-9.51,1398,1850,1462,1503,0,-4.86,20.64,12.75
1775522991.96,50.447685,30.451041,310.53,528.74,1.37,-9.53,1397,1850,1459,1503,0,-4.84,20.63,12.70
1775522992.06,50.447685,30.451041,310.53,528.74,1.37,-9.53,1398,1850,1461,1503,0,-4.84,20.63,12.70
1775522992.16,50.447659,30.451024,310.57,525.58,1.37,-9.57,1397,1850,1457,1503,0,-4.82,20.62,12.72
1775522992.26,50.447659,30.451024,310.57,525.58,1.37,-9.57,1398,1850,1460,1503,0,-4.82,20.62,12.72
1775522992.36,50.447659,30.451024,310.57,525.58,1.37,-9.57,1398,1850,1459,1503,0,-4.82,20.62,12.72
1775522992.46,50.447632,30.451006,310.58,522.39,1.37,-9.58,1398,1850,1458,1503,0,-4.82,20.62,12.74
1775522992.56,50.447632,30.451006,310.58,522.39,1.37,-9.58,1398,1850,1458,1503,0,-4.82,20.62,12.74
1775522992.66,50.447606,30.450988,310.51,519.22,1.36,-9.51,1397,1850,1465,1503,0,-4.81,20.61,12.71
1775522992.76,50.447606,30.450988,310.51,519.22,1.36,-9.51,1398,1850,1457,1503,0,-4.81,20.61,12.71
1775522992.86,50.447606,30.450988,310.51,519.22,1.36,-9.51,1398,1850,1457,1503,0,-4.81,20.61,12.71
1775522992.96,50.447580,30.450970,310.43,516.05,1.35,-9.43,1398,1850,1464,1503,0,-4.80,20.59,12.73
1775522993.06,50.447580,30.450970,310.43,516.05,1.35,-9.43,1398,1850,1456,1503,0,-4.80,20.59,12.73
1775522993.16,50.447554,30.450952,310.34,512.87,1.34,-9.34,1396,1850,1465,1503,0,-4.81,20.59,12.70
1775522993.26,50.447554,30.450952,310.34,512.87,1.34,-9.34,1398,1850,1455,1503,0,-4.81,20.59,12.70
1775522993.36,50.447554,30.450952,310.34,512.87,1.34,-9.34,1398,1850,1455,1503,0,-4.81,20.59,12.70
1775522993.46,50.447528,30.450934,310.24,509.68,1.33,-9.24,1397,1850,1465,1503,0,-4.82,20.59,12.69
1775522993.56,50.447528,30.450934,310.24,509.68,1.33,-9.24,1398,1850,1454,1503,0,-4.82,20.59,12.69
1775522993.66,50.447502,30.450917,310.15,506.53,1.32,-9.15,1397,1850,1463,1503,0,-4.83,20.60,12.59
1775522993.76,50.447502,30.450917,310.15,506.53,1.32,-9.15,1398,1850,1454,1503,0,-4.83,20.60,12.59
1775522993.86,50.447476,30.450899,310.14,503.38,1.33,-9.14,1399,1850,1454,1503,0,-4.83,20.63,12.52
1775522993.96,50.447476,30.450899,310.14,503.38,1.33,-9.14,1398,1850,1453,1503,0,-4.83,20.63,12.52
1775522994.06,50.447476,30.450899,310.14,503.38,1.33,-9.14,1399,1850,1452,1503,0,-4.83,20.63,12.52
1775522994.17,50.447450,30.450881,310.11,500.24,1.33,-9.11,1398,1850,1455,1503,0,-4.80,20.64,12.54
1775522994.27,50.447450,30.450881,310.11,500.24,1.33,-9.11,1399,1850,1451,1503,0,-4.80,20.64,12.54
1775522994.37,50.447424,30.450864,310.04,497.10,1.32,-9.04,1397,1850,1458,1503,0,-4.80,20.65,12.55
1775522994.47,50.447424,30.450864,310.04,497.10,1.32,-9.04,1399,1850,1451,1503,0,-4.80,20.65,12.55
1775522994.57,50.447424,30.450864,310.04,497.10,1.32,-9.04,1399,1850,1450,1503,0,-4.80,20.65,12.55
1775522994.67,50.447398,30.450846,309.98,493.96,1.30,-8.98,1396,1850,1456,1503,0,-4.80,20.62,12.53
1775522994.77,50.447398,30.450846,309.98,493.96,1.30,-8.98,1398,1850,1449,1503,0,-4.80,20.62,12.53
1775522994.87,50.447398,30.450846,309.98,493.96,1.30,-8.98,1398,1850,1449,1503,0,-4.80,20.62,12.53
1775522994.97,50.447372,30.450829,309.90,490.83,1.29,-8.90,1397,1850,1457,1503,0,-4.81,20.65,12.53
1775522995.07,50.447372,30.450829,309.90,490.83,1.29,-8.90,1398,1850,1448,1503,0,-4.81,20.65,12.53
1775522995.17,50.447347,30.450811,309.82,487.70,1.29,-8.82,1398,1850,1457,1503,0,-4.85,20.67,12.53
1775522995.27,50.447347,30.450811,309.82,487.70,1.29,-8.82,1398,1850,1448,1503,0,-4.85,20.67,12.53
1775522995.37,50.447347,30.450811,309.82,487.70,1.29,-8.82,1398,1850,1447,1503,0,-4.85,20.67,12.53
1775522995.47,50.447321,30.450794,309.74,484.56,1.27,-8.74,1396,1850,1455,1503,0,-4.85,20.67,12.51
1775522995.57,50.447321,30.450794,309.74,484.56,1.27,-8.74,1398,1850,1447,1503,0,-4.85,20.67,12.51
1775522995.67,50.447295,30.450776,309.62,481.44,1.26,-8.62,1396,1850,1459,1503,0,-4.84,20.61,12.52
1775522995.77,50.447295,30.450776,309.62,481.44,1.26,-8.62,1398,1850,1446,1503,0,-4.84,20.61,12.52
1775522995.87,50.447295,30.450776,309.62,481.44,1.26,-8.62,1398,1850,1446,1503,0,-4.84,20.61,12.52
1775522995.97,50.447269,30.450759,309.47,478.31,1.25,-8.47,1396,1850,1461,1503,0,-4.83,20.60,12.53
1775522996.07,50.447269,30.450759,309.47,478.31,1.25,-8.47,1398,1850,1446,1503,0,-4.83,20.60,12.53
1775522996.17,50.447243,30.450741,309.28,475.20,1.24,-8.28,1397,1850,1465,1503,0,-4.83,20.61,12.51
1775522996.28,50.447243,30.450741,309.28,475.20,1.24,-8.28,1398,1850,1446,1503,0,-4.83,20.61,12.51
1775522996.38,50.447243,30.450741,309.28,475.20,1.24,-8.28,1398,1850,1445,1503,0,-4.83,20.61,12.51
1775522996.48,50.447218,30.450724,309.09,472.08,1.23,-8.09,1396,1850,1464,1503,0,-4.83,20.61,12.50
1775522996.58,50.447218,30.450724,309.09,472.08,1.23,-8.09,1398,1850,1445,1503,0,-4.83,20.61,12.50
1775522996.68,50.447192,30.450706,308.91,468.97,1.23,-7.91,1397,1850,1464,1503,0,-4.83,20.61,12.45
1775522996.78,50.447192,30.450706,308.91,468.97,1.23,-7.91,1398,1850,1446,1503,0,-4.83,20.61,12.45
1775522996.88,50.447166,30.450689,308.71,465.85,1.22,-7.71,1397,1850,1466,1503,0,-4.83,20.61,12.49
1775522996.98,50.447166,30.450689,308.71,465.85,1.22,-7.71,1398,1850,1446,1503,0,-4.83,20.61,12.49
1775522997.08,50.447166,30.450689,308.71,465.85,1.22,-7.71,1398,1850,1445,1503,0,-4.83,20.61,12.49
1775522997.18,50.447141,30.450671,308.50,462.76,1.22,-7.50,1397,1850,1467,1503,0,-4.82,20.61,12.41
1775522997.28,50.447141,30.450671,308.50,462.76,1.22,-7.50,1398,1850,1446,1503,0,-4.82,20.61,12.41
1775522997.38,50.447115,30.450654,308.32,459.64,1.21,-7.32,1397,1850,1464,1503,0,-4.82,20.62,12.39
1775522997.48,50.447115,30.450654,308.32,459.64,1.21,-7.32,1398,1850,1446,1503,0,-4.82,20.62,12.39
1775522997.58,50.447115,30.450654,308.32,459.64,1.21,-7.32,1398,1850,1445,1503,0,-4.82,20.62,12.39
1775522997.68,50.447090,30.450636,308.18,456.54,1.21,-7.18,1398,1850,1461,1503,0,-4.82,20.64,12.40
1775522997.78,50.447090,30.450636,308.18,456.54,1.21,-7.18,1398,1850,1445,1503,0,-4.82,20.64,12.40
1775522997.88,50.447064,30.450619,308.02,453.43,1.22,-7.02,1399,1850,1461,1503,0,-4.81,20.64,12.40
1775522997.98,50.447064,30.450619,308.02,453.43,1.22,-7.02,1399,1850,1446,1503,0,-4.81,20.64,12.40
1775522998.08,50.447064,30.450619,308.02,453.43,1.22,-7.02,1399,1850,1445,1503,0,-4.81,20.64,12.40
1775522998.18,50.447038,30.450601,307.84,450.32,1.20,-6.84,1397,1850,1464,1503,0,-4.78,20.63,12.40
1775522998.28,50.447038,30.450601,307.84,450.32,1.20,-6.84,1398,1850,1445,1503,0,-4.78,20.63,12.40
1775522998.38,50.447013,30.450584,307.66,447.21,1.20,-6.66,1398,1850,1464,1503,0,-4.78,20.62,12.41
1775522998.49,50.447013,30.450584,307.66,447.21,1.20,-6.66,1399,1850,1446,1503,0,-4.78,20.62,12.41
1775522998.59,50.447013,30.450584,307.66,447.21,1.20,-6.66,1399,1850,1445,1503,0,-4.78,20.62,12.41
1775522998.69,50.446987,30.450566,307.49,444.09,1.20,-6.49,1399,1850,1463,1503,0,-4.79,20.63,12.41
1775522998.79,50.446987,30.450566,307.49,444.09,1.20,-6.49,1399,1850,1446,1503,0,-4.79,20.63,12.41
1775522998.89,50.446962,30.450549,307.33,440.98,1.21,-6.33,1400,1850,1462,1503,0,-4.77,20.63,12.42
1775522998.99,50.446962,30.450549,307.33,440.98,1.21,-6.33,1399,1850,1446,1503,0,-4.77,20.63,12.42
1775522999.09,50.446962,30.450549,307.33,440.98,1.21,-6.33,1399,1850,1445,1503,0,-4.77,20.63,12.42
1775522999.19,50.446936,30.450531,307.18,437.88,1.21,-6.18,1400,1850,1461,1503,0,-4.74,20.62,12.34
1775522999.29,50.446936,30.450531,307.18,437.88,1.21,-6.18,1399,1850,1445,1503,0,-4.74,20.62,12.34
1775522999.39,50.446911,30.450514,307.05,434.79,1.22,-6.05,1402,1850,1459,1503,0,-4.73,20.61,12.37
1775522999.49,50.446911,30.450514,307.05,434.79,1.22,-6.05,1400,1850,1446,1503,0,-4.73,20.61,12.37
1775522999.59,50.446911,30.450514,307.05,434.79,1.22,-6.05,1400,1850,1445,1503,0,-4.73,20.61,12.37
1775522999.69,50.446885,30.450496,306.91,431.67,1.22,-5.91,1400,1850,1459,1503,0,-4.68,20.61,12.40
1775522999.79,50.446885,30.450496,306.91,431.67,1.22,-5.91,1400,1850,1445,1503,0,-4.68,20.61,12.40
1775522999.89,50.446859,30.450478,306.76,428.57,1.23,-5.76,1402,1850,1460,1503,0,-4.68,20.61,12.39
1775522999.99,50.446859,30.450478,306.76,428.57,1.23,-5.76,1401,1850,1445,1503,0,-4.68,20.61,12.39
1775523000.09,50.446859,30.450478,306.76,428.57,1.23,-5.76,1401,1850,1445,1503,0,-4.68,20.61,12.39
1775523000.19,50.446834,30.450461,306.63,425.46,1.24,-5.63,1402,1850,1459,1503,0,-4.66,20.62,12.42
1775523000.29,50.446834,30.450461,306.63,425.46,1.24,-5.63,1401,1850,1445,1503,0,-4.66,20.62,12.42
1775523000.39,50.446808,30.450443,306.47,422.35,1.23,-5.47,1400,1850,1462,1503,0,-4.61,20.62,12.39
1775523000.49,50.446808,30.450443,306.47,422.35,1.23,-5.47,1401,1850,1446,1503,0,-4.61,20.62,12.39
1775523000.59,50.446808,30.450443,306.47,422.35,1.23,-5.47,1401,1850,1445,1503,0,-4.61,20.62,12.39
1775523000.69,50.446783,30.450426,306.34,419.25,1.23,-5.34,1402,1850,1459,1503,0,-4.63,20.62,12.43
1775523000.79,50.446783,30.450426,306.34,419.25,1.23,-5.34,1402,1850,1445,1503,0,-4.63,20.62,12.43
1775523000.89,50.446757,30.450409,306.18,416.15,1.22,-5.18,1400,1850,1462,1503,0,-4.62,20.62,12.45
1775523001.00,50.446757,30.450409,306.18,416.15,1.22,-5.18,1401,1850,1446,1503,0,-4.62,20.62,12.45
1775523001.10,50.446757,30.450409,306.18,416.15,1.22,-5.18,1402,1850,1445,1503,0,-4.62,20.62,12.45
1775523001.20,50.446731,30.450391,306.01,413.04,1.21,-5.01,1400,1850,1463,1503,0,-4.62,20.61,12.47
1775523001.30,50.446731,30.450391,306.01,413.04,1.21,-5.01,1401,1850,1446,1503,0,-4.62,20.61,12.47
1775523001.40,50.446706,30.450374,305.81,409.92,1.21,-4.81,1400,1850,1466,1503,0,-4.63,20.61,12.48
1775523001.50,50.446706,30.450374,305.81,409.92,1.21,-4.81,1401,1850,1446,1503,0,-4.63,20.61,12.48
1775523001.60,50.446706,30.450374,305.81,409.92,1.21,-4.81,1401,1850,1446,1503,0,-4.63,20.61,12.48
1775523001.70,50.446680,30.450356,305.60,406.80,1.19,-4.60,1399,1850,1468,1503,0,-4.65,20.61,12.45
1775523001.80,50.446680,30.450356,305.60,406.80,1.19,-4.60,1401,1850,1447,1503,0,-4.65,20.61,12.45
1775523001.90,50.446655,30.450339,305.37,403.71,1.18,-4.37,1399,1850,1471,1503,0,-4.65,20.61,12.46
1775523002.00,50.446655,30.450339,305.37,403.71,1.18,-4.37,1401,1850,1448,1503,0,-4.65,20.61,12.46
1775523002.10,50.446655,30.450339,305.37,403.71,1.18,-4.37,1401,1850,1447,1503,0,-4.65,20.61,12.46
1775523002.20,50.446629,30.450322,305.10,400.59,1.16,-4.10,1398,1850,1476,1503,0,-4.69,20.61,12.49
1775523002.30,50.446629,30.450322,305.10,400.59,1.16,-4.10,1401,1850,1449,1503,0,-4.69,20.61,12.49
1775523002.40,50.446603,30.450304,304.82,397.48,1.14,-3.82,1397,1850,1478,1503,0,-4.70,20.62,12.53
1775523002.50,50.446603,30.450304,304.82,397.48,1.14,-3.82,1400,1850,1450,1503,0,-4.70,20.62,12.53
1775523002.60,50.446603,30.450304,304.82,397.48,1.14,-3.82,1400,1850,1450,1503,0,-4.70,20.62,12.53
1775523002.70,50.446577,30.450287,304.55,394.36,1.11,-3.55,1395,1850,1478,1503,0,-4.74,20.62,12.53
1775523002.80,50.446577,30.450287,304.55,394.36,1.11,-3.55,1399,1850,1451,1503,0,-4.74,20.62,12.53
1775523002.90,50.446551,30.450270,304.30,391.24,1.09,-3.30,1395,1850,1478,1503,0,-4.76,20.59,12.54
1775523003.00,50.446551,30.450270,304.30,391.24,1.09,-3.30,1399,1850,1452,1503,0,-4.76,20.59,12.54
1775523003.10,50.446551,30.450270,304.30,391.24,1.09,-3.30,1399,1850,1452,1503,0,-4.76,20.59,12.54
1775523003.20,50.446526,30.450252,304.06,388.10,1.07,-3.06,1395,1850,1476,1503,0,-4.83,20.59,12.58
1775523003.30,50.446526,30.450252,304.06,388.10,1.07,-3.06,1398,1850,1453,1503,0,-4.83,20.59,12.58
1775523003.40,50.446500,30.450235,303.86,384.98,1.04,-2.86,1394,1850,1474,1503,0,-4.85,20.61,12.60
1775523003.50,50.446500,30.450235,303.86,384.98,1.04,-2.86,1398,1850,1454,1503,0,-4.85,20.61,12.60
1775523003.61,50.446500,30.450235,303.86,384.98,1.04,-2.86,1398,1850,1453,1503,0,-4.85,20.61,12.60
1775523003.71,50.446474,30.450218,303.68,381.83,1.02,-2.68,1395,1850,1472,1503,0,-4.90,20.60,12.58
1775523003.81,50.446474,30.450218,303.68,381.83,1.02,-2.68,1397,1850,1454,1503,0,-4.90,20.60,12.58
1775523003.91,50.446448,30.450200,303.47,378.69,1.01,-2.47,1395,1850,1476,1503,0,-4.90,20.62,12.60
1775523004.01,50.446448,30.450200,303.47,378.69,1.01,-2.47,1397,1850,1455,1503,0,-4.90,20.62,12.60
1775523004.11,50.446448,30.450200,303.47,378.69,1.01,-2.47,1397,1850,1455,1503,0,-4.90,20.62,12.60
1775523004.21,50.446422,30.450183,303.23,375.53,0.98,-2.23,1393,1850,1479,1503,0,-4.94,20.62,12.63
1775523004.31,50.446422,30.450183,303.23,375.53,0.98,-2.23,1396,1850,1456,1503,0,-4.94,20.62,12.63
1775523004.41,50.446396,30.450165,303.02,372.38,0.96,-2.02,1393,1850,1478,1503,0,-4.95,20.63,12.64
1775523004.51,50.446396,30.450165,303.02,372.38,0.96,-2.02,1396,1850,1457,1503,0,-4.95,20.63,12.64
1775523004.61,50.446396,30.450165,303.02,372.38,0.96,-2.02,1396,1850,1457,1503,0,-4.95,20.63,12.64
1775523004.71,50.446370,30.450148,302.81,369.23,0.94,-1.81,1393,1850,1480,1503,0,-4.98,20.63,12.61
1775523004.81,50.446370,30.450148,302.81,369.23,0.94,-1.81,1396,1850,1458,1503,0,-4.98,20.63,12.61
1775523004.91,50.446344,30.450130,302.61,366.09,0.92,-1.61,1392,1850,1479,1503,0,-4.99,20.63,12.60
1775523005.01,50.446344,30.450130,302.61,366.09,0.92,-1.61,1395,1850,1459,1503,0,-4.99,20.63,12.60
1775523005.11,50.446344,30.450130,302.61,366.09,0.92,-1.61,1395,1850,1459,1503,0,-4.99,20.63,12.60
1775523005.21,50.446318,30.450113,302.42,362.95,0.91,-1.42,1393,1850,1479,1503,0,-5.01,20.60,12.58
1775523005.31,50.446318,30.450113,302.42,362.95,0.91,-1.42,1395,1850,1460,1503,0,-5.01,20.60,12.58
1775523005.41,50.446292,30.450095,302.23,359.82,0.90,-1.23,1394,1850,1480,1503,0,-5.04,20.59,12.63
1775523005.51,50.446292,30.450095,302.23,359.82,0.90,-1.23,1395,1850,1461,1503,0,-5.04,20.59,12.63
1775523005.61,50.446292,30.450095,302.23,359.82,0.90,-1.23,1395,1850,1461,1503,0,-5.04,20.59,12.63
1775523005.71,50.446266,30.450077,302.00,356.65,0.89,-1.00,1392,1850,1485,1503,0,-5.02,20.61,12.68
1775523005.81,50.446266,30.450077,302.00,356.65,0.89,-1.00,1394,1850,1462,1503,0,-5.02,20.61,12.68
1775523005.92,50.446240,30.450060,301.79,353.48,0.88,-0.79,1393,1850,1485,1503,0,-5.03,20.63,12.69
1775523006.02,50.446240,30.450060,301.79,353.48,0.88,-0.79,1394,1850,1463,1503,0,-5.03,20.63,12.69
1775523006.12,50.446240,30.450060,301.79,353.48,0.88,-0.79,1394,1850,1463,1503,0,-5.03,20.63,12.69
